<?xml version="1.0" encoding="UTF-8"?><kml xmlns="http://www.opengis.net/kml/2.2"><Document><Placemark><name>Cărămida</name><description>Nume: Cărămida, Tip: artefacte, Nivel: 2, Județ: Alba, Formă: Altele, ID: 11705 <br /><b>Variante</b><br />Nume: Cărămida, Hartă: PDT, Limbă: Limba română</description><Point><coordinates>23.673375,45.900477,0</coordinates></Point></Placemark>
<Placemark><name>Părâul Cărămidi</name><description>Nume: Părâul Cărămidi, Tip: artefacte, Nivel: 2, Județ: Alba, Formă: Vale, ID: 11828 <br /><b>Variante</b><br />Nume: Părâul Cărămidi, Hartă: Imperiul Habsburgic (1887), Limbă: Limba română<br />Nume: Părăul Cărămizii, Hartă: Geomil 25000, Limbă: Limba română</description><Point><coordinates>23.483338,46.055417,0</coordinates></Point></Placemark>
<Placemark><name>Ruine</name><description>Nume: Ruine, Tip: artefacte, Nivel: 2, Județ: Alba, Formă: Înălțime, ID: 10962 <br /><b>Variante</b><br />Nume: Ruine, Hartă: Imperiul Habsburgic (1887), Limbă: Limba germană</description><Point><coordinates>23.573657,45.871157,0</coordinates></Point></Placemark>
<Placemark><name>Poiana Bisericuța</name><description>Nume: Poiana Bisericuța, Tip: artefacte, Nivel: 2, Județ: Arad, Formă: Poiană, ID: 4087 <br /><b>Variante</b><br />Nume: Poiana Bisericuța, Hartă: PDT, Limbă: Limba română</description><Point><coordinates>22.141997,46.528615,0</coordinates></Point></Placemark>
<Placemark><name>Ruine</name><description>Nume: Ruine, Tip: artefacte, Nivel: 2, Județ: Arad, Formă: Altele, ID: 10594 <br /><b>Variante</b><br />Nume: Ruine, Hartă: Imperiul Habsburgic (1887), Limbă: Limba română</description><Point><coordinates>21.881940,46.089093,0</coordinates></Point></Placemark>
<Placemark><name>Ruinele Lipova</name><description>Nume: Ruinele Lipova, Tip: artefacte, Nivel: 2, Județ: Arad, Formă: Altele, ID: 6302 <br /><b>Variante</b><br />Nume: Ruinele Lipova, Hartă: PDT, Limbă: Limba română</description><Point><coordinates>21.742836,46.096043,0</coordinates></Point></Placemark>
<Placemark><name>Poiana Cărămizilor</name><description>Nume: Poiana Cărămizilor, Tip: artefacte, Nivel: 2, Județ: Arges, Formă: Poiană, ID: 1430 <br /><b>Variante</b><br />Nume: Poiana Cărămizilor, Hartă: Geomil 25000, Limbă: Limba română</description><Point><coordinates>24.636237,45.252121,0</coordinates></Point></Placemark>
<Placemark><name>La Ruine</name><description>Nume: La Ruine, Tip: artefacte, Nivel: 2, Județ: Bacau, Formă: Altele, ID: 4563 <br /><b>Variante</b><br />Nume: La Ruine, Hartă: Geomil 25000, Limbă: Limba română</description><Point><coordinates>26.483517,46.268252,0</coordinates></Point></Placemark>
<Placemark><name>Lanul la Cărămizi</name><description>Nume: Lanul la Cărămizi, Tip: artefacte, Nivel: 2, Județ: Bacau, Formă: Altele, ID: 3922 <br /><b>Variante</b><br />Nume: Lanul la Cărămizi, Hartă: Geomil 25000, Limbă: Limba română<br />Nume: la Cărămizi, Hartă: PDT, Limbă: Limba română</description><Point><coordinates>27.209744,46.224348,0</coordinates></Point></Placemark>
<Placemark><name>Rudera (ruine)</name><description>Nume: Rudera (ruine), Tip: artefacte, Nivel: 2, Județ: Bihor, Formă: Altele, ID: 12139 <br /><b>Variante</b><br />Nume: Rudera (ruine), Hartă: Ungaria (1782–1785), Limbă: Limba germană</description><Point><coordinates>22.351834,46.672920,0</coordinates></Point></Placemark>
<Placemark><name>Ruine Deva</name><description>Nume: Ruine Deva, Tip: artefacte, Nivel: 2, Județ: Bihor, Formă: Altele, ID: 15768 <br /><b>Variante</b><br />Nume: Ruine Deva, Hartă: Ungară 1869, Limbă: Limba română</description><Point><coordinates>22.306846,46.557810,0</coordinates></Point></Placemark>
<Placemark><name>La Cărămizi</name><description>Nume: La Cărămizi, Tip: artefacte, Nivel: 2, Județ: Braila, Formă: Altele, ID: 6725 <br /><b>Variante</b><br />Nume: La Cărămizi, Hartă: Geomil 25000, Limbă: Limba română</description><Point><coordinates>27.521989,45.001487,0</coordinates></Point></Placemark>
<Placemark><name>La Cărămizi</name><description>Nume: La Cărămizi, Tip: artefacte, Nivel: 2, Județ: Brasov, Formă: Altele, ID: 4949 <br /><b>Variante</b><br />Nume: La Cărămizi, Hartă: Geomil 25000, Limbă: Limba română</description><Point><coordinates>24.965459,45.761795,0</coordinates></Point></Placemark>
<Placemark><name>Dealul Bisericuța</name><description>Nume: Dealul Bisericuța, Tip: artefacte, Nivel: 2, Județ: Buzau, Formă: Deal, ID: 13011 <br /><b>Variante</b><br />Nume: Dealul Bisericuța, Hartă: Geomil 25000, Limbă: Limba română</description><Point><coordinates>26.180414,45.474549,0</coordinates></Point></Placemark>
<Placemark><name>Ruine</name><description>Nume: Ruine, Tip: artefacte, Nivel: 2, Județ: Buzau, Formă: Altele, ID: 3964 <br /><b>Variante</b><br />Nume: Ruine, Hartă: Geomil 25000, Limbă: Limba română</description><Point><coordinates>26.628930,45.152289,0</coordinates></Point></Placemark>
<Placemark><name>Bisericuța</name><description>Nume: Bisericuța, Tip: artefacte, Nivel: 2, Județ: Calarasi, Formă: Altele, ID: 3462 <br /><b>Variante</b><br />Nume: Bisericuța, Hartă: PDT, Limbă: Limba română</description><Point><coordinates>27.735502,44.214001,0</coordinates></Point></Placemark>
<Placemark><name>Japșa Cărămizilor</name><description>Nume: Japșa Cărămizilor, Tip: artefacte, Nivel: 2, Județ: Calarasi, Formă: Apă-deal-câmpie, ID: 3300 <br /><b>Variante</b><br />Nume: Japșa Cărămizilor, Hartă: PDT, Limbă: Limba română</description><Point><coordinates>27.438808,44.171963,0</coordinates></Point></Placemark>
<Placemark><name>Valea Cărămizilor</name><description>Nume: Valea Cărămizilor, Tip: artefacte, Nivel: 2, Județ: Calarasi, Formă: Vale, ID: 1315 <br /><b>Variante</b><br />Nume: Valea Cărămizilor, Hartă: Geomil 25000, Limbă: Limba română</description><Point><coordinates>26.753284,44.349956,0</coordinates></Point></Placemark>
<Placemark><name>Cărămizi</name><description>Nume: Cărămizi, Tip: artefacte, Nivel: 2, Județ: Caras Severin, Formă: Altele, ID: 11781 <br /><b>Variante</b><br />Nume: Cărămizi, Hartă: ANCPI, Limbă: Limba română</description><Point><coordinates>22.283666,45.350422,0</coordinates></Point></Placemark>
<Placemark><name>Ruine</name><description>Nume: Ruine, Tip: artefacte, Nivel: 2, Județ: Caras Severin, Formă: Altele, ID: 10869 <br /><b>Variante</b><br />Nume: Ruine, Hartă: Ungară 1869, Limbă: Limba română</description><Point><coordinates>21.680613,44.673495,0</coordinates></Point></Placemark>
<Placemark><name>Dealul Cărămizi</name><description>Nume: Dealul Cărămizi, Tip: artefacte, Nivel: 2, Județ: Constanta, Formă: Deal, ID: 9283 <br /><b>Variante</b><br />Nume: Dealul Cărămizi, Hartă: PDT, Limbă: Limba română</description><Point><coordinates>27.388798,44.098109,0</coordinates></Point></Placemark>
<Placemark><name>Ruinele dela Boașik</name><description>Nume: Ruinele dela Boașik, Tip: artefacte, Nivel: 2, Județ: Constanta, Formă: Altele, ID: 12005 <br /><b>Variante</b><br />Nume: Ruinele dela Boașik, Hartă: Austriacă, Limbă: Limba română</description><Point><coordinates>28.118629,44.436215,0</coordinates></Point></Placemark>
<Placemark><name>Ruine</name><description>Nume: Ruine, Tip: artefacte, Nivel: 2, Județ: Covasna, Formă: Altele, ID: 4372 <br /><b>Variante</b><br />Nume: Ruine, Hartă: PDT, Limbă: Limba română</description><Point><coordinates>25.847764,46.112650,0</coordinates></Point></Placemark>
<Placemark><name>Ruinele Calnic</name><description>Nume: Ruinele Calnic, Tip: artefacte, Nivel: 2, Județ: Covasna, Formă: Altele, ID: 11456 <br /><b>Variante</b><br />Nume: Ruinele Calnic, Hartă: Geomil 25000, Limbă: Limba română</description><Point><coordinates>25.782870,45.923978,0</coordinates></Point></Placemark>
<Placemark><name>Pe Cărămizi</name><description>Nume: Pe Cărămizi, Tip: artefacte, Nivel: 2, Județ: Dambovita, Formă: Altele, ID: 11152 <br /><b>Variante</b><br />Nume: Pe Cărămizi, Hartă: PDT, Limbă: Limba română</description><Point><coordinates>25.750146,44.726651,0</coordinates></Point></Placemark>
<Placemark><name>Balta Cărămizii</name><description>Nume: Balta Cărămizii, Tip: artefacte, Nivel: 2, Județ: Dolj, Formă: Apă-deal-câmpie, ID: 158 <br /><b>Variante</b><br />Nume: Balta Cărămizii, Hartă: Geomil 25000, Limbă: Limba română</description><Point><coordinates>23.143436,43.819887,0</coordinates></Point></Placemark>
<Placemark><name>Cărămizile</name><description>Nume: Cărămizile, Tip: artefacte, Nivel: 2, Județ: Dolj, Formă: Altele, ID: 4698 <br /><b>Variante</b><br />Nume: Cărămizile, Hartă: Geomil 25000, Limbă: Limba română<br />Nume: Cărămizile, Hartă: PDT, Limbă: Limba română</description><Point><coordinates>23.577741,44.507966,0</coordinates></Point></Placemark>
<Placemark><name>Dealul Dărâmăturilor</name><description>Nume: Dealul Dărâmăturilor, Tip: artefacte, Nivel: 2, Județ: Dolj, Formă: Deal, ID: 115 <br /><b>Variante</b><br />Nume: Dealul Dărâmăturilor, Hartă: Geomil 25000, Limbă: Limba română<br />Nume: ур. Ла-Дэрымэтури (deal La-Dărâmături), Hartă: Sovietică, Limbă: Limba română</description><Point><coordinates>23.306107,44.451727,0</coordinates></Point></Placemark>
<Placemark><name>Gr. karamitziilor</name><description>Nume: Gr. karamitziilor, Tip: artefacte, Nivel: 2, Județ: Dolj, Formă: Apă-deal-câmpie, ID: 5113 <br /><b>Variante</b><br />Nume: Gr. karamitziilor, Hartă: Austriacă, Limbă: Limba română</description><Point><coordinates>23.526582,43.840587,0</coordinates></Point></Placemark>
<Placemark><name>La Statuie</name><description>Nume: La Statuie, Tip: artefacte, Nivel: 2, Județ: Dolj, Formă: Altele, ID: 102 <br /><b>Variante</b><br />Nume: La Statuie, Hartă: Geomil 25000, Limbă: Limba română</description><Point><coordinates>23.443737,44.523314,0</coordinates></Point></Placemark>
<Placemark><name>La Cărămizi</name><description>Nume: La Cărămizi, Tip: artefacte, Nivel: 2, Județ: Giurgiu, Formă: Altele, ID: 459 <br /><b>Variante</b><br />Nume: La Cărămizi, Hartă: Geomil 25000, Limbă: Limba română</description><Point><coordinates>25.959204,44.116448,0</coordinates></Point></Placemark>
<Placemark><name>Culmea Cărămizii</name><description>Nume: Culmea Cărămizii, Tip: artefacte, Nivel: 2, Județ: Gorj, Formă: Înălțime, ID: 11577 <br /><b>Variante</b><br />Nume: Culmea Cărămizii, Hartă: Geomil 25000, Limbă: Limba română</description><Point><coordinates>23.361896,45.269512,0</coordinates></Point></Placemark>
<Placemark><name>La Cărămidă</name><description>Nume: La Cărămidă, Tip: artefacte, Nivel: 2, Județ: Gorj, Formă: Altele, ID: 8063 <br /><b>Variante</b><br />Nume: La Cărămidă, Hartă: PDT, Limbă: Limba română</description><Point><coordinates>22.998685,44.927096,0</coordinates></Point></Placemark>
<Placemark><name>Rudera (ruine)</name><description>Nume: Rudera (ruine), Tip: artefacte, Nivel: 2, Județ: Gorj, Formă: Altele, ID: 12104 <br /><b>Variante</b><br />Nume: Rudera (ruine), Hartă: Valahia-Moldova (1773-1774), Limbă: Limba română</description><Point><coordinates>23.388056,45.192009,0</coordinates></Point></Placemark>
<Placemark><name>Rudera (ruine)</name><description>Nume: Rudera (ruine), Tip: artefacte, Nivel: 2, Județ: Harghita, Formă: Altele, ID: 11944 <br /><b>Variante</b><br />Nume: Rudera (ruine), Hartă: Transilvania (1769-1773), Limbă: Limba română</description><Point><coordinates>25.140985,46.267700,0</coordinates></Point></Placemark>
<Placemark><name>Cărămizi</name><description>Nume: Cărămizi, Tip: artefacte, Nivel: 2, Județ: Hunedoara, Formă: Altele, ID: 12311 <br /><b>Variante</b><br />Nume: Cărămizi, Hartă: Geomil 25000, Limbă: Limba română</description><Point><coordinates>23.177123,45.756890,0</coordinates></Point></Placemark>
<Placemark><name>La Cotu Cărămizilor</name><description>Nume: La Cotu Cărămizilor, Tip: artefacte, Nivel: 2, Județ: Ialomita, Formă: Apă-deal-câmpie, ID: 3432 <br /><b>Variante</b><br />Nume: La Cotu Cărămizilor, Hartă: PDT, Limbă: Limba română</description><Point><coordinates>27.128940,44.554538,0</coordinates></Point></Placemark>
<Placemark><name>Dealu Poarta Veche</name><description>Nume: Dealu Poarta Veche, Tip: artefacte, Nivel: 2, Județ: Mehedinti, Formă: Deal, ID: 5200 <br /><b>Variante</b><br />Nume: Dealu Poarta Veche, Hartă: Geomil 25000, Limbă: Limba română</description><Point><coordinates>22.896960,44.469048,0</coordinates></Point></Placemark>
<Placemark><name>Dealul La Cărămizii</name><description>Nume: Dealul La Cărămizii, Tip: artefacte, Nivel: 2, Județ: Mehedinti, Formă: Deal, ID: 8088 <br /><b>Variante</b><br />Nume: Dealul La Cărămizii, Hartă: PDT, Limbă: Limba română</description><Point><coordinates>22.885949,44.135373,0</coordinates></Point></Placemark>
<Placemark><name>Dealul Pivnița de Cărămidă</name><description>Nume: Dealul Pivnița de Cărămidă, Tip: artefacte, Nivel: 2, Județ: Mehedinti, Formă: Deal, ID: 3661 <br /><b>Variante</b><br />Nume: Dealul Pivnița de Cărămidă, Hartă: PDT, Limbă: Limba română<br />Nume: Dealu Pivnița de Cărămidă, Hartă: Geomil 25000, Limbă: Limba română</description><Point><coordinates>22.908369,44.439929,0</coordinates></Point></Placemark>
<Placemark><name>Ruine Vechi</name><description>Nume: Ruine Vechi, Tip: artefacte, Nivel: 2, Județ: Mehedinti, Formă: Altele, ID: 8068 <br /><b>Variante</b><br />Nume: Ruine Vechi, Hartă: PDT, Limbă: Limba română</description><Point><coordinates>22.771310,44.545331,0</coordinates></Point></Placemark>
<Placemark><name>Valea Cărămizei</name><description>Nume: Valea Cărămizei, Tip: artefacte, Nivel: 2, Județ: Mehedinti, Formă: Vale, ID: 8077 <br /><b>Variante</b><br />Nume: Valea Cărămizei, Hartă: PDT, Limbă: Limba română</description><Point><coordinates>22.863765,44.529231,0</coordinates></Point></Placemark>
<Placemark><name>Ruinele Bociulești</name><description>Nume: Ruinele Bociulești, Tip: artefacte, Nivel: 2, Județ: Neamt, Formă: Altele, ID: 3851 <br /><b>Variante</b><br />Nume: Ruinele Bociulești, Hartă: Geomil 25000, Limbă: Limba română</description><Point><coordinates>26.585717,46.796739,0</coordinates></Point></Placemark>
<Placemark><name>La Cărămida</name><description>Nume: La Cărămida, Tip: artefacte, Nivel: 2, Județ: Salaj, Formă: Altele, ID: 9931 <br /><b>Variante</b><br />Nume: La Cărămida, Hartă: Geomil 25000, Limbă: Limba română<br />Nume: Carmida B., Hartă: Ungaria (1782–1785), Limbă: Limba română</description><Point><coordinates>23.377273,47.341371,0</coordinates></Point></Placemark>
<Placemark><name>Crucea Ruinelor</name><description>Nume: Crucea Ruinelor, Tip: artefacte, Nivel: 2, Județ: Sibiu, Formă: Altele, ID: 16021 <br /><b>Variante</b><br />Nume: Crucea Ruinelor, Hartă: PDT, Limbă: Limba română</description><Point><coordinates>24.334122,45.658575,0</coordinates></Point></Placemark>
<Placemark><name>Dealul Cărămizilor</name><description>Nume: Dealul Cărămizilor, Tip: artefacte, Nivel: 2, Județ: Sibiu, Formă: Deal, ID: 11426 <br /><b>Variante</b><br />Nume: Dealul Cărămizilor, Hartă: Geomil 25000, Limbă: Limba română</description><Point><coordinates>24.117903,46.032738,0</coordinates></Point></Placemark>
<Placemark><name>Pârâul Cărămizi</name><description>Nume: Pârâul Cărămizi, Tip: artefacte, Nivel: 2, Județ: Sibiu, Formă: Vale, ID: 8609 <br /><b>Variante</b><br />Nume: Pârâul Cărămizi, Hartă: PDT, Limbă: Limba română</description><Point><coordinates>24.348985,46.054152,0</coordinates></Point></Placemark>
<Placemark><name>Valea Cărămizii</name><description>Nume: Valea Cărămizii, Tip: artefacte, Nivel: 2, Județ: Sibiu, Formă: Vale, ID: 8615 <br /><b>Variante</b><br />Nume: Valea Cărămizii, Hartă: Geomil 25000, Limbă: Limba română</description><Point><coordinates>24.505103,46.086058,0</coordinates></Point></Placemark>
<Placemark><name>Dealul la Ruină</name><description>Nume: Dealul la Ruină, Tip: artefacte, Nivel: 2, Județ: Suceava, Formă: Deal, ID: 7262 <br /><b>Variante</b><br />Nume: Dealul la Ruină, Hartă: PDT, Limbă: Limba română</description><Point><coordinates>26.089064,47.939133,0</coordinates></Point></Placemark>
<Placemark><name>În Cărămizi</name><description>Nume: În Cărămizi, Tip: artefacte, Nivel: 2, Județ: Suceava, Formă: Altele, ID: 13271 <br /><b>Variante</b><br />Nume: În Cărămizi, Hartă: Geomil 25000, Limbă: Limba română</description><Point><coordinates>26.329003,47.381082,0</coordinates></Point></Placemark>
<Placemark><name>Ruină de Mânăstire</name><description>Nume: Ruină de Mânăstire, Tip: artefacte, Nivel: 2, Județ: Suceava, Formă: Altele, ID: 9080 <br /><b>Variante</b><br />Nume: Ruină de Mânăstire, Hartă: PDT, Limbă: Limba română</description><Point><coordinates>25.564237,47.847972,0</coordinates></Point></Placemark>
<Placemark><name>Ruinele la Grajduri</name><description>Nume: Ruinele la Grajduri, Tip: artefacte, Nivel: 2, Județ: Timis, Formă: Altele, ID: 12840 <br /><b>Variante</b><br />Nume: Ruinele la Grajduri, Hartă: PDT, Limbă: Limba română</description><Point><coordinates>22.368748,45.812600,0</coordinates></Point></Placemark>
<Placemark><name>Movila Bisericuța</name><description>Nume: Movila Bisericuța, Tip: artefacte, Nivel: 2, Județ: Tulcea, Formă: Înălțime, ID: 9296 <br /><b>Variante</b><br />Nume: Movila Bisericuța, Hartă: Geomil 25000, Limbă: Limba română</description><Point><coordinates>28.627151,44.941903,0</coordinates></Point></Placemark>
<Placemark><name>Ruinele Tăița</name><description>Nume: Ruinele Tăița, Tip: artefacte, Nivel: 2, Județ: Tulcea, Formă: Altele, ID: 6688 <br /><b>Variante</b><br />Nume: Ruinele Tăița, Hartă: PDT, Limbă: Limba română</description><Point><coordinates>28.372243,45.166271,0</coordinates></Point></Placemark>
<Placemark><name>Dealul Cărămida</name><description>Nume: Dealul Cărămida, Tip: artefacte, Nivel: 2, Județ: Valcea, Formă: Deal, ID: 4741 <br /><b>Variante</b><br />Nume: Dealul Cărămida, Hartă: Geomil 25000, Limbă: Limba română</description><Point><coordinates>23.834953,44.672713,0</coordinates></Point></Placemark>
<Placemark><name>Piscu Cărămizii</name><description>Nume: Piscu Cărămizii, Tip: artefacte, Nivel: 2, Județ: Valcea, Formă: Înălțime, ID: 345 <br /><b>Variante</b><br />Nume: Piscu Cărămizii, Hartă: Geomil 25000, Limbă: Limba română</description><Point><coordinates>24.103823,44.922406,0</coordinates></Point></Placemark>
<Placemark><name>Dealul Cărămizii</name><description>Nume: Dealul Cărămizii, Tip: artefacte, Nivel: 2, Județ: Vaslui, Formă: Deal, ID: 7380 <br /><b>Variante</b><br />Nume: Dealul Cărămizii, Hartă: Geomil 25000, Limbă: Limba română</description><Point><coordinates>27.860658,46.240382,0</coordinates></Point></Placemark></Document></kml>