<?xml version="1.0" encoding="UTF-8"?><kml xmlns="http://www.opengis.net/kml/2.2"><Document><Placemark><name>Poiana Bursucăria</name><description>Nume: Poiana Bursucăria, Tip: bursucărie, Nivel: 3, Județ: Bacau, Formă: Poiană, ID: 6547 <br /><b>Variante</b><br />Nume: Poiana Bursucăria, Hartă: PDT, Limbă: Limba română</description><Point><coordinates>26.425225,46.515335,0</coordinates></Point></Placemark>
<Placemark><name>Bursucăria</name><description>Nume: Bursucăria, Tip: bursucărie, Nivel: 3, Județ: Botosani, Formă: Altele, ID: 1833 <br /><b>Variante</b><br />Nume: Bursucăria, Hartă: Geomil 25000, Limbă: Limba română</description><Point><coordinates>26.536265,47.727758,0</coordinates></Point></Placemark>
<Placemark><name>Bursucărie</name><description>Nume: Bursucărie, Tip: bursucărie, Nivel: 3, Județ: Botosani, Formă: Altele, ID: 1827 <br /><b>Variante</b><br />Nume: Bursucărie, Hartă: Geomil 25000, Limbă: Limba română</description><Point><coordinates>26.631949,47.661213,0</coordinates></Point></Placemark>
<Placemark><name>Dealul Bursucăriei</name><description>Nume: Dealul Bursucăriei, Tip: bursucărie, Nivel: 3, Județ: Botosani, Formă: Deal, ID: 1826 <br /><b>Variante</b><br />Nume: Dealul Bursucăriei, Hartă: Geomil 25000, Limbă: Limba română<br />Nume: Dealul Bursucăria, Hartă: PDT, Limbă: Limba română</description><Point><coordinates>26.639650,47.673057,0</coordinates></Point></Placemark>
<Placemark><name>Dealul Bursucăriei</name><description>Nume: Dealul Bursucăriei, Tip: bursucărie, Nivel: 3, Județ: Botosani, Formă: Deal, ID: 11663 <br /><b>Variante</b><br />Nume: Dealul Bursucăriei, Hartă: Geomil 25000, Limbă: Limba română</description><Point><coordinates>27.157839,47.850600,0</coordinates></Point></Placemark>
<Placemark><name>Valea Bursucăria</name><description>Nume: Valea Bursucăria, Tip: bursucărie, Nivel: 3, Județ: Botosani, Formă: Vale, ID: 12383, ID Părinte: 11663 <br /><b>Variante</b><br />Nume: Valea Bursucăria, Hartă: Moldova (1892-1898), Limbă: Limba română</description><Point><coordinates>27.159140,47.842265,0</coordinates></Point></Placemark>
<Placemark><LineString id="12383_11663"><tessellate>1</tessellate><coordinates>27.159140,47.842265,0.
27.157839,47.850600,0</coordinates></LineString><Style><LineStyle><width>3</width></LineStyle></Style></Placemark>
<Placemark><name>Pasul Bursucăriei</name><description>Nume: Pasul Bursucăriei, Tip: bursucărie, Nivel: 3, Județ: Harghita, Formă: Înălțime, ID: 11713, ID Părinte: 11711 <br /><b>Variante</b><br />Nume: Pasul Bursucăriei, Hartă: ANCPI, Limbă: Limba română</description><Point><coordinates>25.401580,47.127793,0</coordinates></Point></Placemark>
<Placemark><LineString id="11713_11711"><tessellate>1</tessellate><coordinates>25.401580,47.127793,0.
25.431566,47.128749,0</coordinates></LineString><Style><LineStyle><width>3</width></LineStyle></Style></Placemark>
<Placemark><name>Vârful Bursucăriei</name><description>Nume: Vârful Bursucăriei, Tip: bursucărie, Nivel: 3, Județ: Harghita, Formă: Înălțime, ID: 11711 <br /><b>Variante</b><br />Nume: Vârful Bursucăriei, Hartă: Geomil 25000, Limbă: Limba română</description><Point><coordinates>25.431566,47.128749,0</coordinates></Point></Placemark>
<Placemark><name>Dealul Bursucăriei</name><description>Nume: Dealul Bursucăriei, Tip: bursucărie, Nivel: 3, Județ: Iasi, Formă: Deal, ID: 4831 <br /><b>Variante</b><br />Nume: Dealul Bursucăriei, Hartă: PDT, Limbă: Limba română</description><Point><coordinates>27.520582,47.235849,0</coordinates></Point></Placemark>
<Placemark><name>Dealul Bursucăriilor</name><description>Nume: Dealul Bursucăriilor, Tip: bursucărie, Nivel: 3, Județ: Iasi, Formă: Deal, ID: 8897 <br /><b>Variante</b><br />Nume: Dealul Bursucăriilor, Hartă: PDT, Limbă: Limba română</description><Point><coordinates>27.499018,47.059780,0</coordinates></Point></Placemark>
<Placemark><name>În Șes la Bursucărie</name><description>Nume: În Șes la Bursucărie, Tip: bursucărie, Nivel: 3, Județ: Iasi, Formă: Câmp, ID: 1661 <br /><b>Variante</b><br />Nume: În Șes la Bursucărie, Hartă: Geomil 25000, Limbă: Limba română</description><Point><coordinates>27.492793,46.907713,0</coordinates></Point></Placemark>
<Placemark><name>La Bursucărie</name><description>Nume: La Bursucărie, Tip: bursucărie, Nivel: 3, Județ: Iasi, Formă: Altele, ID: 1703 <br /><b>Variante</b><br />Nume: La Bursucărie, Hartă: Geomil 25000, Limbă: Limba română</description><Point><coordinates>28.075475,46.948711,0</coordinates></Point></Placemark>
<Placemark><name>Valea Bursucăriei</name><description>Nume: Valea Bursucăriei, Tip: bursucărie, Nivel: 3, Județ: Iasi, Formă: Vale, ID: 1657 <br /><b>Variante</b><br />Nume: Valea Bursucăriei, Hartă: Geomil 25000, Limbă: Limba română</description><Point><coordinates>27.251802,46.988987,0</coordinates></Point></Placemark>
<Placemark><name>Bursucăria</name><description>Nume: Bursucăria, Tip: bursucărie, Nivel: 3, Județ: Neamt, Formă: Vale, ID: 11389 <br /><b>Variante</b><br />Nume: Bursucăria, Hartă: Geomil 25000, Limbă: Limba română</description><Point><coordinates>26.186509,47.021928,0</coordinates></Point></Placemark>
<Placemark><name>Deal la Bursucărie</name><description>Nume: Deal la Bursucărie, Tip: bursucărie, Nivel: 3, Județ: Neamt, Formă: Deal, ID: 14938 <br /><b>Variante</b><br />Nume: Deal la Bursucărie, Hartă: PDT, Limbă: Limba română</description><Point><coordinates>26.540678,46.985684,0</coordinates></Point></Placemark>
<Placemark><name>Părâul Bursucăria</name><description>Nume: Părâul Bursucăria, Tip: bursucărie, Nivel: 3, Județ: Neamt, Formă: Vale, ID: 10607 <br /><b>Variante</b><br />Nume: Părâul Bursucăria, Hartă: Imperiul Habsburgic (1887), Limbă: Limba română</description><Point><coordinates>25.838367,46.914587,0</coordinates></Point></Placemark>
<Placemark><name>Pârâul Bursucăriei</name><description>Nume: Pârâul Bursucăriei, Tip: bursucărie, Nivel: 3, Județ: Neamt, Formă: Vale, ID: 9131 <br /><b>Variante</b><br />Nume: Pârâul Bursucăriei, Hartă: PDT, Limbă: Limba română</description><Point><coordinates>26.330011,47.003676,0</coordinates></Point></Placemark>
<Placemark><name>Pârâul Bursucăriei</name><description>Nume: Pârâul Bursucăriei, Tip: bursucărie, Nivel: 3, Județ: Neamt, Formă: Vale, ID: 15639 <br /><b>Variante</b><br />Nume: Pârâul Bursucăriei, Hartă: PDT, Limbă: Limba română</description><Point><coordinates>26.519484,46.741251,0</coordinates></Point></Placemark>
<Placemark><name>Poienile Bursucăriei</name><description>Nume: Poienile Bursucăriei, Tip: bursucărie, Nivel: 3, Județ: Neamt, Formă: Poiană, ID: 9144 <br /><b>Variante</b><br />Nume: Poienile Bursucăriei, Hartă: Geomil 25000, Limbă: Limba română</description><Point><coordinates>26.512767,47.059599,0</coordinates></Point></Placemark>
<Placemark><name>Valea Bursucăriei</name><description>Nume: Valea Bursucăriei, Tip: bursucărie, Nivel: 3, Județ: Neamt, Formă: Vale, ID: 11394 <br /><b>Variante</b><br />Nume: Valea Bursucăriei, Hartă: Geomil 25000, Limbă: Limba română</description><Point><coordinates>26.627451,47.048091,0</coordinates></Point></Placemark>
<Placemark><name>La Bursucărie</name><description>Nume: La Bursucărie, Tip: bursucărie, Nivel: 3, Județ: Vrancea, Formă: Altele, ID: 3934 <br /><b>Variante</b><br />Nume: La Bursucărie, Hartă: PDT, Limbă: Limba română</description><Point><coordinates>27.264767,46.076469,0</coordinates></Point></Placemark></Document></kml>