<?xml version="1.0" encoding="UTF-8"?><kml xmlns="http://www.opengis.net/kml/2.2"><Document><Placemark><name>Osoaiele</name><description>Nume: Osoaiele, Tip: osoaie, Nivel: 3, Județ: Alba, Formă: Înălțime, ID: 11323 <br /><b>Variante</b><br />Nume: Osoaiele, Hartă: Geomil 25000, Limbă: Limba română</description><Point><coordinates>23.302998,46.007027,0</coordinates></Point></Placemark>
<Placemark><name>Valea Osoaii</name><description>Nume: Valea Osoaii, Tip: osoaie, Nivel: 3, Județ: Alba, Formă: Vale, ID: 5569 <br /><b>Variante</b><br />Nume: Valea Osoaii, Hartă: Geomil 25000, Limbă: Limba română</description><Point><coordinates>23.460575,46.044227,0</coordinates></Point></Placemark>
<Placemark><name>Dealul Osoaia</name><description>Nume: Dealul Osoaia, Tip: osoaie, Nivel: 3, Județ: Bacau, Formă: Deal, ID: 11300 <br /><b>Variante</b><br />Nume: Dealul Osoaia, Hartă: Geomil 25000, Limbă: Limba română</description><Point><coordinates>27.315850,46.300343,0</coordinates></Point></Placemark>
<Placemark><name>Dealu Osoaiele</name><description>Nume: Dealu Osoaiele, Tip: osoaie, Nivel: 3, Județ: Bihor, Formă: Deal, ID: 4094 <br /><b>Variante</b><br />Nume: Dealu Osoaiele, Hartă: Geomil 25000, Limbă: Limba română<br />Nume: Dealu Osoaiele, Hartă: PDT, Limbă: Limba română</description><Point><coordinates>22.199347,46.596939,0</coordinates></Point></Placemark>
<Placemark><name>Osoaie</name><description>Nume: Osoaie, Tip: osoaie, Nivel: 3, Județ: Bihor, Formă: Altele, ID: 8193 <br /><b>Variante</b><br />Nume: Osoaie, Hartă: PDT, Limbă: Limba română</description><Point><coordinates>22.548690,47.050056,0</coordinates></Point></Placemark>
<Placemark><name>Muntele Osoaia</name><description>Nume: Muntele Osoaia, Tip: osoaie, Nivel: 3, Județ: Brasov, Formă: Înălțime, ID: 13743, ID Părinte: 13742 <br /><b>Variante</b><br />Nume: Muntele Osoaia, Hartă: Transilvania (1869-1870), Limbă: Limba română</description><Point><coordinates>25.288827,45.856001,0</coordinates></Point></Placemark>
<Placemark><LineString id="13743_13742"><tessellate>1</tessellate><coordinates>25.288827,45.856001,0.
25.266508,45.851172,0</coordinates></LineString><Style><LineStyle><width>3</width></LineStyle></Style></Placemark>
<Placemark><name>Dealul Osoaiele</name><description>Nume: Dealul Osoaiele, Tip: osoaie, Nivel: 3, Județ: Cluj, Formă: Deal, ID: 11858 <br /><b>Variante</b><br />Nume: Dealul Osoaiele, Hartă: Geomil 25000, Limbă: Limba română</description><Point><coordinates>22.775442,46.977870,0</coordinates></Point></Placemark>
<Placemark><name>Fundul Osoaiei</name><description>Nume: Fundul Osoaiei, Tip: osoaie, Nivel: 3, Județ: Cluj, Formă: Înălțime, ID: 10398 <br /><b>Variante</b><br />Nume: Fundul Osoaiei, Hartă: PDT, Limbă: Limba română</description><Point><coordinates>23.480485,47.047570,0</coordinates></Point></Placemark>
<Placemark><name>Dealu Osoaia</name><description>Nume: Dealu Osoaia, Tip: osoaie, Nivel: 3, Județ: Hunedoara, Formă: Deal, ID: 9657 <br /><b>Variante</b><br />Nume: Dealu Osoaia, Hartă: Geomil 25000, Limbă: Limba română</description><Point><coordinates>23.035330,46.041090,0</coordinates></Point></Placemark>
<Placemark><name>La Osoaie</name><description>Nume: La Osoaie, Tip: osoaie, Nivel: 3, Județ: Maramures, Formă: Altele, ID: 7162 <br /><b>Variante</b><br />Nume: La Osoaie, Hartă: Geomil 25000, Limbă: Limba română</description><Point><coordinates>24.238941,47.795986,0</coordinates></Point></Placemark>
<Placemark><name>Vârful Osoii</name><description>Nume: Vârful Osoii, Tip: osoaie, Nivel: 3, Județ: Maramures, Formă: Altele, ID: 8218 <br /><b>Variante</b><br />Nume: Vârful Osoii, Hartă: PDT, Limbă: Limba română</description><Point><coordinates>23.297369,47.562042,0</coordinates></Point></Placemark>
<Placemark><name>Dealul Osoaia</name><description>Nume: Dealul Osoaia, Tip: osoaie, Nivel: 3, Județ: Salaj, Formă: Deal, ID: 14950 <br /><b>Variante</b><br />Nume: Dealul Osoaia, Hartă: PDT, Limbă: Limba română</description><Point><coordinates>23.420821,47.092026,0</coordinates></Point></Placemark>
<Placemark><name>Osoaia</name><description>Nume: Osoaia, Tip: osoaie, Nivel: 3, Județ: Salaj, Formă: Altele, ID: 10410 <br /><b>Variante</b><br />Nume: Osoaia, Hartă: PDT, Limbă: Limba română</description><Point><coordinates>23.124327,47.196328,0</coordinates></Point></Placemark>
<Placemark><name>Valea Osoaia</name><description>Nume: Valea Osoaia, Tip: osoaie, Nivel: 3, Județ: Salaj, Formă: Vale, ID: 10395 <br /><b>Variante</b><br />Nume: Valea Osoaia, Hartă: PDT, Limbă: Limba română</description><Point><coordinates>23.436769,47.002123,0</coordinates></Point></Placemark>
<Placemark><name>Valea Osoaia</name><description>Nume: Valea Osoaia, Tip: osoaie, Nivel: 3, Județ: Salaj, Formă: Vale, ID: 14951, ID Părinte: 14950 <br /><b>Variante</b><br />Nume: Valea Osoaia, Hartă: PDT, Limbă: Limba română</description><Point><coordinates>23.412791,47.093284,0</coordinates></Point></Placemark>
<Placemark><LineString id="14951_14950"><tessellate>1</tessellate><coordinates>23.412791,47.093284,0.
23.420821,47.092026,0</coordinates></LineString><Style><LineStyle><width>3</width></LineStyle></Style></Placemark></Document></kml>