<?xml version="1.0" encoding="UTF-8"?><kml xmlns="http://www.opengis.net/kml/2.2"><Document><Placemark><name>Bughea</name><description>Nume: Bughea, Tip: bughea, Nivel: 3, Județ: Arges, Formă: Localitate, ID: 15327 <br /><b>Variante</b><br />Nume: Bughea, Hartă: PDT, Limbă: Limba română</description><Point><coordinates>25.001113,45.276685,0</coordinates></Point></Placemark>
<Placemark><name>Mov. Buga</name><description>Nume: Mov. Buga, Tip: buga, Nivel: 2, Județ: Buzau, Formă: Înălțime, ID: 14704 <br /><b>Variante</b><br />Nume: Mov. Buga, Hartă: Austriacă, Limbă: Limba română</description><Point><coordinates>27.131313,45.118850,0</coordinates></Point></Placemark>
<Placemark><name>Mov. Bugieni</name><description>Nume: Mov. Bugieni, Tip: bugienie, Nivel: 3, Județ: Buzau, Formă: Localitate, ID: 15259 <br /><b>Variante</b><br />Nume: Mov. Bugieni, Hartă: Austriacă, Limbă: Limba română</description><Point><coordinates>26.683892,44.970469,0</coordinates></Point></Placemark>
<Placemark><name>Bughea de Sus</name><description>Nume: Bughea de Sus, Tip: bughea, Nivel: 3, Județ: Prahova, Formă: Localitate, ID: 15325 <br /><b>Variante</b><br />Nume: Bughea de Sus, Hartă: ANCPI, Limbă: Limba română<br />Nume: Bugea de Sus, Hartă: Austriacă, Limbă: Limba română</description><Point><coordinates>25.994359,45.203593,0</coordinates></Point></Placemark>
<Placemark><name>Bogești</name><description>Nume: Bogești, Tip: bogești, Nivel: 3, Județ: Vaslui, Formă: Localitate, ID: 14769 <br /><b>Variante</b><br />Nume: Bogești, Hartă: PDT, Limbă: Limba română</description><Point><coordinates>27.550572,46.340406,0</coordinates></Point></Placemark></Document></kml>