<?xml version="1.0" encoding="UTF-8"?><kml xmlns="http://www.opengis.net/kml/2.2"><Document><Placemark><name>Frâncu</name><description>Nume: Frâncu, Tip: frânc, Nivel: 3, Județ: Caras Severin, Formă: Înălțime, ID: 14343 <br /><b>Variante</b><br />Nume: Frâncu, Hartă: ANCPI, Limbă: Limba română</description><Point><coordinates>22.102841,45.475900,0</coordinates></Point></Placemark>
<Placemark><name>Frâncul</name><description>Nume: Frâncul, Tip: frânc, Nivel: 3, Județ: Caras Severin, Formă: Înălțime, ID: 14357 <br /><b>Variante</b><br />Nume: Frâncul, Hartă: ANCPI, Limbă: Limba română</description><Point><coordinates>22.519566,45.311449,0</coordinates></Point></Placemark>
<Placemark><name>Pârâu Frâncului</name><description>Nume: Pârâu Frâncului, Tip: frânc, Nivel: 3, Județ: Caras Severin, Formă: Vale, ID: 6133, ID Părinte: 6134 <br /><b>Variante</b><br />Nume: Pârâu Frâncului, Hartă: Geomil 25000, Limbă: Limba română</description><Point><coordinates>22.287904,45.182338,0</coordinates></Point></Placemark>
<Placemark><LineString id="6133_6134"><tessellate>1</tessellate><coordinates>22.287904,45.182338,0.
22.279072,45.191307,0</coordinates></LineString><Style><LineStyle><width>3</width></LineStyle></Style></Placemark>
<Placemark><name>Poiana Stâna Frâncului</name><description>Nume: Poiana Stâna Frâncului, Tip: frânc, Nivel: 3, Județ: Caras Severin, Formă: Poiană, ID: 11497 <br /><b>Variante</b><br />Nume: Poiana Stâna Frâncului, Hartă: Geomil 25000, Limbă: Limba română</description><Point><coordinates>22.156794,45.163199,0</coordinates></Point></Placemark>
<Placemark><name>Tâlva Frâncului</name><description>Nume: Tâlva Frâncului, Tip: frânc, Nivel: 3, Județ: Caras Severin, Formă: Înălțime, ID: 6134 <br /><b>Variante</b><br />Nume: Tâlva Frâncului, Hartă: Geomil 25000, Limbă: Limba română</description><Point><coordinates>22.279072,45.191307,0</coordinates></Point></Placemark>
<Placemark><name>Valea Frâncului</name><description>Nume: Valea Frâncului, Tip: frânc, Nivel: 3, Județ: Caras Severin, Formă: Vale, ID: 14344, ID Părinte: 14343 <br /><b>Variante</b><br />Nume: Valea Frâncului, Hartă: ANCPI, Limbă: Limba română</description><Point><coordinates>22.108847,45.482774,0</coordinates></Point></Placemark>
<Placemark><LineString id="14344_14343"><tessellate>1</tessellate><coordinates>22.108847,45.482774,0.
22.102841,45.475900,0</coordinates></LineString><Style><LineStyle><width>3</width></LineStyle></Style></Placemark>
<Placemark><name>Dealu Frâncu</name><description>Nume: Dealu Frâncu, Tip: frânc, Nivel: 3, Județ: Cluj, Formă: Deal, ID: 14220 <br /><b>Variante</b><br />Nume: Dealu Frâncu, Hartă: Geomil 25000, Limbă: Limba română</description><Point><coordinates>23.062495,46.786866,0</coordinates></Point></Placemark>
<Placemark><name>Dealul Frâncul</name><description>Nume: Dealul Frâncul, Tip: frânc, Nivel: 3, Județ: Gorj, Formă: Deal, ID: 8405, ID Părinte: 8052 <br /><b>Variante</b><br />Nume: Dealul Frâncul, Hartă: PDT, Limbă: Limba română</description><Point><coordinates>23.382948,45.026779,0</coordinates></Point></Placemark>
<Placemark><LineString id="8405_8052"><tessellate>1</tessellate><coordinates>23.382948,45.026779,0.
23.382380,45.029129,0</coordinates></LineString><Style><LineStyle><width>3</width></LineStyle></Style></Placemark>
<Placemark><name>Poiana Frâncul Mare</name><description>Nume: Poiana Frâncul Mare, Tip: frânc, Nivel: 3, Județ: Gorj, Formă: Poiană, ID: 8052 <br /><b>Variante</b><br />Nume: Poiana Frâncul Mare, Hartă: PDT, Limbă: Limba română</description><Point><coordinates>23.382380,45.029129,0</coordinates></Point></Placemark>
<Placemark><name>Poiana Frâncul Mic</name><description>Nume: Poiana Frâncul Mic, Tip: frânc, Nivel: 3, Județ: Gorj, Formă: Poiană, ID: 8054, ID Părinte: 8052 <br /><b>Variante</b><br />Nume: Poiana Frâncul Mic, Hartă: PDT, Limbă: Limba română</description><Point><coordinates>23.377622,45.021977,0</coordinates></Point></Placemark>
<Placemark><LineString id="8054_8052"><tessellate>1</tessellate><coordinates>23.377622,45.021977,0.
23.382380,45.029129,0</coordinates></LineString><Style><LineStyle><width>3</width></LineStyle></Style></Placemark>
<Placemark><name>Valea Frâncului</name><description>Nume: Valea Frâncului, Tip: frânc, Nivel: 3, Județ: Teleorman, Formă: Vale, ID: 9457 <br /><b>Variante</b><br />Nume: Valea Frâncului, Hartă: Geomil 25000, Limbă: Limba română</description><Point><coordinates>25.270262,43.943731,0</coordinates></Point></Placemark>
<Placemark><name>Valea Frâncului</name><description>Nume: Valea Frâncului, Tip: frânc, Nivel: 3, Județ: Valcea, Formă: Vale, ID: 12178 <br /><b>Variante</b><br />Nume: Valea Frâncului, Hartă: Geomil 25000, Limbă: Limba română</description><Point><coordinates>23.898079,44.653652,0</coordinates></Point></Placemark></Document></kml>