<?xml version="1.0" encoding="UTF-8"?><kml xmlns="http://www.opengis.net/kml/2.2"><Document><Placemark><name>Culmea Cocoșului</name><description>Nume: Culmea Cocoșului, Tip: cocoș de munte, Nivel: 2, Județ: Alba, Formă: Înălțime, ID: 14202 <br /><b>Variante</b><br />Nume: Culmea Cocoșului, Hartă: Geomil 25000, Limbă: Limba română</description><Point><coordinates>23.390444,45.644779,0</coordinates></Point></Placemark>
<Placemark><name>Valea Cocoșului</name><description>Nume: Valea Cocoșului, Tip: cocoș de munte, Nivel: 2, Județ: Alba, Formă: Vale, ID: 5577 <br /><b>Variante</b><br />Nume: Valea Cocoșului, Hartă: Geomil 25000, Limbă: Limba română</description><Point><coordinates>23.442175,46.143887,0</coordinates></Point></Placemark>
<Placemark><name>Cocoșul</name><description>Nume: Cocoșul, Tip: cocoș de munte, Nivel: 2, Județ: Arges, Formă: Vale, ID: 13449 <br /><b>Variante</b><br />Nume: Cocoșul, Hartă: Geomil 25000, Limbă: Limba română</description><Point><coordinates>24.959602,45.422720,0</coordinates></Point></Placemark>
<Placemark><name>Vârful Cocoșului</name><description>Nume: Vârful Cocoșului, Tip: cocoș de munte, Nivel: 2, Județ: Brasov, Formă: Înălțime, ID: 1553 <br /><b>Variante</b><br />Nume: Vârful Cocoșului, Hartă: Geomil 25000, Limbă: Limba română<br />Nume: Vârful Cocoșilor, Hartă: PDT, Limbă: Limba română</description><Point><coordinates>25.611612,45.491908,0</coordinates></Point></Placemark>
<Placemark><name>Poiana Cocoșului</name><description>Nume: Poiana Cocoșului, Tip: cocoș de munte, Nivel: 2, Județ: Covasna, Formă: Poiană, ID: 11314 <br /><b>Variante</b><br />Nume: Poiana Cocoșului, Hartă: Geomil 25000, Limbă: Limba română</description><Point><coordinates>26.276453,45.591940,0</coordinates></Point></Placemark>
<Placemark><name>Muchia Cocoșilor</name><description>Nume: Muchia Cocoșilor, Tip: cocoș de munte, Nivel: 2, Județ: Dambovita, Formă: Înălțime, ID: 1487 <br /><b>Variante</b><br />Nume: Muchia Cocoșilor, Hartă: Geomil 25000, Limbă: Limba română</description><Point><coordinates>25.442092,45.321480,0</coordinates></Point></Placemark>
<Placemark><name>Creasta Cocoșului</name><description>Nume: Creasta Cocoșului, Tip: cocoș de munte, Nivel: 2, Județ: Maramures, Formă: Înălțime, ID: 911 <br /><b>Variante</b><br />Nume: Creasta Cocoșului, Hartă: Geomil 25000, Limbă: Limba română</description><Point><coordinates>23.840197,47.696726,0</coordinates></Point></Placemark>
<Placemark><name>Cocoșul</name><description>Nume: Cocoșul, Tip: cocoș de munte, Nivel: 2, Județ: Mures, Formă: Altele, ID: 11339 <br /><b>Variante</b><br />Nume: Cocoșul, Hartă: Geomil 25000, Limbă: Limba română</description><Point><coordinates>25.168995,46.802782,0</coordinates></Point></Placemark>
<Placemark><name>Cocoșul</name><description>Nume: Cocoșul, Tip: cocoș de munte, Nivel: 2, Județ: Mures, Formă: Vale, ID: 12867 <br /><b>Variante</b><br />Nume: Cocoșul, Hartă: Geomil 25000, Limbă: Limba română</description><Point><coordinates>25.219231,47.036424,0</coordinates></Point></Placemark>
<Placemark><name>Dealul Cocoșilor de Munte</name><description>Nume: Dealul Cocoșilor de Munte, Tip: cocoș de munte, Nivel: 2, Județ: Mures, Formă: Deal, ID: 13796 <br /><b>Variante</b><br />Nume: Dealul Cocoșilor de Munte, Hartă: PDT, Limbă: Limba română</description><Point><coordinates>25.200039,46.703741,0</coordinates></Point></Placemark>
<Placemark><name>Locul Cocoșului de Munte</name><description>Nume: Locul Cocoșului de Munte, Tip: cocoș de munte, Nivel: 2, Județ: Mures, Formă: Altele, ID: 12804 <br /><b>Variante</b><br />Nume: Locul Cocoșului de Munte, Hartă: Geomil 25000, Limbă: Limba română</description><Point><coordinates>25.197179,46.672022,0</coordinates></Point></Placemark>
<Placemark><name>Pârâul Cocoșilor</name><description>Nume: Pârâul Cocoșilor, Tip: cocoș de munte, Nivel: 2, Județ: Sibiu, Formă: Vale, ID: 14722 <br /><b>Variante</b><br />Nume: Pârâul Cocoșilor, Hartă: ANCPI, Limbă: Limba română</description><Point><coordinates>23.888554,45.574364,0</coordinates></Point></Placemark>
<Placemark><name>Creasta Cocoșului</name><description>Nume: Creasta Cocoșului, Tip: cocoș de munte, Nivel: 2, Județ: Valcea, Formă: Înălțime, ID: 2935 <br /><b>Variante</b><br />Nume: Creasta Cocoșului, Hartă: Geomil 25000, Limbă: Limba română</description><Point><coordinates>24.203911,45.270245,0</coordinates></Point></Placemark>
<Placemark><name>Plaiul Cocoșului</name><description>Nume: Plaiul Cocoșului, Tip: cocoș de munte, Nivel: 2, Județ: Vrancea, Formă: Înălțime, ID: 781 <br /><b>Variante</b><br />Nume: Plaiul Cocoșului, Hartă: Geomil 25000, Limbă: Limba română</description><Point><coordinates>26.591029,45.714817,0</coordinates></Point></Placemark></Document></kml>