<?xml version="1.0" encoding="UTF-8"?><kml xmlns="http://www.opengis.net/kml/2.2"><Document><Placemark><name>Csetteczellu</name><description>Nume: Csetteczellu, Tip: cetățea, Nivel: 2, Județ: Alba, Formă: Altele, ID: 13241 <br /><b>Variante</b><br />Nume: Csetteczellu, Hartă: Transilvania (1769-1773), Limbă: Limba română</description><Point><coordinates>23.469980,45.874484,0</coordinates></Point></Placemark>
<Placemark><name>Cetetzel</name><description>Nume: Cetetzel, Tip: cetățea, Nivel: 2, Județ: Arad, Formă: Înălțime, ID: 12606 <br /><b>Variante</b><br />Nume: Cetetzel, Hartă: Imperiul Habsburgic (1887), Limbă: Limba română</description><Point><coordinates>22.324859,46.388051,0</coordinates></Point></Placemark>
<Placemark><name>Vârfu Cetățeaua</name><description>Nume: Vârfu Cetățeaua, Tip: cetățea, Nivel: 2, Județ: Arad, Formă: Înălțime, ID: 5601 <br /><b>Variante</b><br />Nume: Vârfu Cetățeaua, Hartă: Geomil 25000, Limbă: Limba română</description><Point><coordinates>22.440965,46.275543,0</coordinates></Point></Placemark>
<Placemark><name>Dealul Cetățele</name><description>Nume: Dealul Cetățele, Tip: cetățea, Nivel: 2, Județ: Bacau, Formă: Deal, ID: 9677 <br /><b>Variante</b><br />Nume: Dealul Cetățele, Hartă: Moldova (1892-1898), Limbă: Limba română</description><Point><coordinates>27.180379,46.209875,0</coordinates></Point></Placemark>
<Placemark><name>Cetățeaua</name><description>Nume: Cetățeaua, Tip: cetățea, Nivel: 2, Județ: Bihor, Formă: Altele, ID: 12042 <br /><b>Variante</b><br />Nume: Cetățeaua, Hartă: PDT, Limbă: Limba română</description><Point><coordinates>22.350114,46.528693,0</coordinates></Point></Placemark>
<Placemark><name>Cetățeaua</name><description>Nume: Cetățeaua, Tip: cetățea, Nivel: 2, Județ: Bihor, Formă: Înălțime, ID: 12360 <br /><b>Variante</b><br />Nume: Cetățeaua, Hartă: PDT, Limbă: Limba română</description><Point><coordinates>22.148285,46.931807,0</coordinates></Point></Placemark>
<Placemark><name>Cetățele</name><description>Nume: Cetățele, Tip: cetățea, Nivel: 2, Județ: Bihor, Formă: Altele, ID: 4080 <br /><b>Variante</b><br />Nume: Cetățele, Hartă: PDT, Limbă: Limba română</description><Point><coordinates>22.304532,46.583201,0</coordinates></Point></Placemark>
<Placemark><name>Cetățele</name><description>Nume: Cetățele, Tip: cetățea, Nivel: 2, Județ: Bihor, Formă: Altele, ID: 14211 <br /><b>Variante</b><br />Nume: Cetățele, Hartă: PDT, Limbă: Limba română</description><Point><coordinates>21.998634,46.909877,0</coordinates></Point></Placemark>
<Placemark><name>Valea Cetățelelor</name><description>Nume: Valea Cetățelelor, Tip: cetățea, Nivel: 2, Județ: Bihor, Formă: Vale, ID: 1004 <br /><b>Variante</b><br />Nume: Valea Cetățelelor, Hartă: Geomil 25000, Limbă: Limba română</description><Point><coordinates>22.546861,46.676793,0</coordinates></Point></Placemark>
<Placemark><name>Vârful Cetățeaua</name><description>Nume: Vârful Cetățeaua, Tip: cetățea, Nivel: 2, Județ: Bihor, Formă: Înălțime, ID: 986 <br /><b>Variante</b><br />Nume: Vârful Cetățeaua, Hartă: Geomil 25000, Limbă: Limba română</description><Point><coordinates>22.249065,46.624922,0</coordinates></Point></Placemark>
<Placemark><name>Dealul Cetățele</name><description>Nume: Dealul Cetățele, Tip: cetățea, Nivel: 2, Județ: Bistrita Nasaud, Formă: Deal, ID: 1012 <br /><b>Variante</b><br />Nume: Dealul Cetățele, Hartă: Geomil 25000, Limbă: Limba română<br />Nume: Dealul Cetăței, Hartă: PDT, Limbă: Limba română</description><Point><coordinates>24.141673,47.213494,0</coordinates></Point></Placemark>
<Placemark><name>Dealul Cetățele</name><description>Nume: Dealul Cetățele, Tip: cetățea, Nivel: 2, Județ: Brasov, Formă: Deal, ID: 10831 <br /><b>Variante</b><br />Nume: Dealul Cetățele, Hartă: Imperiul Habsburgic (1887), Limbă: Limba română</description><Point><coordinates>25.446060,46.017055,0</coordinates></Point></Placemark>
<Placemark><name>Culmea Cetățele</name><description>Nume: Culmea Cetățele, Tip: cetățea, Nivel: 2, Județ: Caras Severin, Formă: Înălțime, ID: 6184 <br /><b>Variante</b><br />Nume: Culmea Cetățele, Hartă: PDT, Limbă: Limba română</description><Point><coordinates>22.211127,45.565664,0</coordinates></Point></Placemark>
<Placemark><name>Dealu Cetățeaua</name><description>Nume: Dealu Cetățeaua, Tip: cetățea, Nivel: 2, Județ: Cluj, Formă: Deal, ID: 7028 <br /><b>Variante</b><br />Nume: Dealu Cetățeaua, Hartă: Geomil 25000, Limbă: Limba română</description><Point><coordinates>23.236220,46.814391,0</coordinates></Point></Placemark>
<Placemark><name>Dealu Cetățeaua</name><description>Nume: Dealu Cetățeaua, Tip: cetățea, Nivel: 2, Județ: Cluj, Formă: Deal, ID: 7048 <br /><b>Variante</b><br />Nume: Dealu Cetățeaua, Hartă: Geomil 25000, Limbă: Limba română<br />Nume: Cetățeul, Hartă: PDT, Limbă: Limba română</description><Point><coordinates>23.743210,47.210045,0</coordinates></Point></Placemark>
<Placemark><name>Peștera Cetățeaua Mare</name><description>Nume: Peștera Cetățeaua Mare, Tip: cetățea, Nivel: 2, Județ: Cluj, Formă: Altele, ID: 13881 <br /><b>Variante</b><br />Nume: Peștera Cetățeaua Mare, Hartă: ANCPI, Limbă: Limba română</description><Point><coordinates>23.672419,46.562593,0</coordinates></Point></Placemark>
<Placemark><name>Piatra Czetecelle</name><description>Nume: Piatra Czetecelle, Tip: cetățea, Nivel: 2, Județ: Cluj, Formă: Înălțime, ID: 12768 <br /><b>Variante</b><br />Nume: Piatra Czetecelle, Hartă: Transilvania (1769-1773), Limbă: Limba română</description><Point><coordinates>22.830492,46.742068,0</coordinates></Point></Placemark>
<Placemark><name>Dealu Cetățaua</name><description>Nume: Dealu Cetățaua, Tip: cetățea, Nivel: 2, Județ: Hunedoara, Formă: Deal, ID: 10229 <br /><b>Variante</b><br />Nume: Dealu Cetățaua, Hartă: Geomil 25000, Limbă: Limba română</description><Point><coordinates>22.469834,45.995419,0</coordinates></Point></Placemark>
<Placemark><name>Dealu Cetăței</name><description>Nume: Dealu Cetăței, Tip: cetățea, Nivel: 2, Județ: Hunedoara, Formă: Deal, ID: 6233 <br /><b>Variante</b><br />Nume: Dealu Cetăței, Hartă: Geomil 25000, Limbă: Limba română</description><Point><coordinates>22.724966,46.152869,0</coordinates></Point></Placemark>
<Placemark><name>Valea Cetățelii</name><description>Nume: Valea Cetățelii, Tip: cetățea, Nivel: 2, Județ: Hunedoara, Formă: Vale, ID: 15808 <br /><b>Variante</b><br />Nume: Valea Cetățelii, Hartă: Imperiul Habsburgic (1887), Limbă: Limba română</description><Point><coordinates>23.195631,45.726259,0</coordinates></Point></Placemark>
<Placemark><name>Dealul Cetățele</name><description>Nume: Dealul Cetățele, Tip: cetățea, Nivel: 2, Județ: Maramures, Formă: Deal, ID: 7209 <br /><b>Variante</b><br />Nume: Dealul Cetățele, Hartă: Geomil 25000, Limbă: Limba română</description><Point><coordinates>23.743421,47.600694,0</coordinates></Point></Placemark>
<Placemark><name>Dosul Cetățelei</name><description>Nume: Dosul Cetățelei, Tip: cetățea, Nivel: 2, Județ: Maramures, Formă: Altele, ID: 7164 <br /><b>Variante</b><br />Nume: Dosul Cetățelei, Hartă: Geomil 25000, Limbă: Limba română</description><Point><coordinates>24.199603,47.653396,0</coordinates></Point></Placemark>
<Placemark><name>Cetățea</name><description>Nume: Cetățea, Tip: cetățea, Nivel: 2, Județ: Mures, Formă: Altele, ID: 2467 <br /><b>Variante</b><br />Nume: Cetățea, Hartă: Geomil 25000, Limbă: Limba română</description><Point><coordinates>24.851183,46.210439,0</coordinates></Point></Placemark>
<Placemark><name>Dealul Cetățeaua</name><description>Nume: Dealul Cetățeaua, Tip: cetățea, Nivel: 2, Județ: Mures, Formă: Deal, ID: 14457 <br /><b>Variante</b><br />Nume: Dealul Cetățeaua, Hartă: PDT, Limbă: Limba română</description><Point><coordinates>24.740132,46.956654,0</coordinates></Point></Placemark>
<Placemark><name>Dealul Cetățeaua</name><description>Nume: Dealul Cetățeaua, Tip: cetățea, Nivel: 2, Județ: Salaj, Formă: Deal, ID: 12787 <br /><b>Variante</b><br />Nume: Dealul Cetățeaua, Hartă: PDT, Limbă: Limba română</description><Point><coordinates>22.714508,47.050100,0</coordinates></Point></Placemark>
<Placemark><name>Pădurea Cetățele</name><description>Nume: Pădurea Cetățele, Tip: cetățea, Nivel: 2, Județ: Salaj, Formă: Pădure, ID: 15439 <br /><b>Variante</b><br />Nume: Pădurea Cetățele, Hartă: PDT, Limbă: Limba română</description><Point><coordinates>22.713477,47.017756,0</coordinates></Point></Placemark>
<Placemark><name>Vârfu Cetățeaua</name><description>Nume: Vârfu Cetățeaua, Tip: cetățea, Nivel: 2, Județ: Satu Mare, Formă: Înălțime, ID: 2604 <br /><b>Variante</b><br />Nume: Vârfu Cetățeaua, Hartă: Geomil 25000, Limbă: Limba română</description><Point><coordinates>23.144983,48.022470,0</coordinates></Point></Placemark></Document></kml>