<?xml version="1.0" encoding="UTF-8"?><kml xmlns="http://www.opengis.net/kml/2.2"><Document><Placemark><name>Dealu Armeanului</name><description>Nume: Dealu Armeanului, Tip: armean, Nivel: 3, Județ: Alba, Formă: Deal, ID: 7070 <br /><b>Variante</b><br />Nume: Dealu Armeanului, Hartă: Geomil 25000, Limbă: Limba română</description><Point><coordinates>23.575128,46.299137,0</coordinates></Point></Placemark>
<Placemark><name>Cerchez</name><description>Nume: Cerchez, Tip: cerchez, Nivel: 3, Județ: Alba, Formă: Înălțime, ID: 9662 <br /><b>Variante</b><br />Nume: Cerchez, Hartă: Geomil 25000, Limbă: Limba română</description><Point><coordinates>23.234606,46.030813,0</coordinates></Point></Placemark>
<Placemark><name>Vârfu Cherchezului</name><description>Nume: Vârfu Cherchezului, Tip: cerchez, Nivel: 3, Județ: Alba, Formă: Înălțime, ID: 10671 <br /><b>Variante</b><br />Nume: Vârfu Cherchezului, Hartă: Geomil 25000, Limbă: Limba română</description><Point><coordinates>23.415258,46.073385,0</coordinates></Point></Placemark>
<Placemark><name>Labu Grecilor</name><description>Nume: Labu Grecilor, Tip: greci, Nivel: 2, Județ: Alba, Formă: Înălțime, ID: 2558 <br /><b>Variante</b><br />Nume: Labu Grecilor, Hartă: Geomil 25000, Limbă: Limba română</description><Point><coordinates>23.822716,46.140284,0</coordinates></Point></Placemark>
<Placemark><name>Șilea-maghiară</name><description>Nume: Șilea-maghiară, Tip: maghiar, Nivel: 3, Județ: Alba, Formă: Localitate, ID: 10807 <br /><b>Variante</b><br />Nume: Șilea-maghiară, Hartă: Imperiul Habsburgic (1887), Limbă: Limba română</description><Point><coordinates>24.112086,46.324977,0</coordinates></Point></Placemark>
<Placemark><name>Magyar-Bénye</name><description>Nume: Magyar-Bénye, Tip: magyar, Nivel: 4, Județ: Alba, Formă: Localitate, ID: 14496 <br /><b>Variante</b><br />Nume: Magyar-Bénye, Hartă: Transilvania (1769-1773), Limbă: Limba maghiară</description><Point><coordinates>24.004241,46.231562,0</coordinates></Point></Placemark>
<Placemark><name>Dâmbu Neamțului</name><description>Nume: Dâmbu Neamțului, Tip: neamț, Nivel: 4, Județ: Alba, Formă: Înălțime, ID: 5579 <br /><b>Variante</b><br />Nume: Dâmbu Neamțului, Hartă: Geomil 25000, Limbă: Limba română</description><Point><coordinates>23.288005,46.223164,0</coordinates></Point></Placemark>
<Placemark><name>Piatra Neamțului</name><description>Nume: Piatra Neamțului, Tip: neamț, Nivel: 4, Județ: Alba, Formă: Înălțime, ID: 11528 <br /><b>Variante</b><br />Nume: Piatra Neamțului, Hartă: Geomil 25000, Limbă: Limba română</description><Point><coordinates>23.152130,46.466120,0</coordinates></Point></Placemark>
<Placemark><name>Podu Neamțului</name><description>Nume: Podu Neamțului, Tip: neamț, Nivel: 4, Județ: Alba, Formă: Altele, ID: 7354 <br /><b>Variante</b><br />Nume: Podu Neamțului, Hartă: Geomil 25000, Limbă: Limba română</description><Point><coordinates>23.976510,46.249027,0</coordinates></Point></Placemark>
<Placemark><name>Oláh-Bükkös</name><description>Nume: Oláh-Bükkös, Tip: oláh, Nivel: 3, Județ: Alba, Formă: Localitate, ID: 14495 <br /><b>Variante</b><br />Nume: Oláh-Bükkös, Hartă: Transilvania (1769-1773), Limbă: Limba maghiară</description><Point><coordinates>24.163741,46.152979,0</coordinates></Point></Placemark>
<Placemark><name>Ollah Pian</name><description>Nume: Ollah Pian, Tip: oláh, Nivel: 3, Județ: Alba, Formă: Localitate, ID: 10459 <br /><b>Variante</b><br />Nume: Ollah Pian, Hartă: Transilvania (1869-1870), Limbă: Limba maghiară</description><Point><coordinates>23.483039,45.895660,0</coordinates></Point></Placemark>
<Placemark><name>Daia Română</name><description>Nume: Daia Română, Tip: română, Nivel: 3, Județ: Alba, Formă: Localitate, ID: 10452 <br /><b>Variante</b><br />Nume: Daia Română, Hartă: Geomil 25000, Limbă: Limba română</description><Point><coordinates>23.667348,46.006114,0</coordinates></Point></Placemark>
<Placemark><name>Bucerdea românească</name><description>Nume: Bucerdea românească, Tip: românească, Nivel: 3, Județ: Alba, Formă: Localitate, ID: 10672 <br /><b>Variante</b><br />Nume: Bucerdea românească, Hartă: Imperiul Habsburgic (1887), Limbă: Limba română</description><Point><coordinates>23.521852,46.166406,0</coordinates></Point></Placemark>
<Placemark><name>Cisteiu românească</name><description>Nume: Cisteiu românească, Tip: românească, Nivel: 3, Județ: Alba, Formă: Localitate, ID: 10544 <br /><b>Variante</b><br />Nume: Cisteiu românească, Hartă: Imperiul Habsburgic (1887), Limbă: Limba română</description><Point><coordinates>23.753294,46.186489,0</coordinates></Point></Placemark>
<Placemark><name>Dealul Pământul Românesc</name><description>Nume: Dealul Pământul Românesc, Tip: românesc, Nivel: 3, Județ: Alba, Formă: Deal, ID: 5507 <br /><b>Variante</b><br />Nume: Dealul Pământul Românesc, Hartă: Geomil 25000, Limbă: Limba română</description><Point><coordinates>24.045389,46.195721,0</coordinates></Point></Placemark>
<Placemark><name>Hagăul Românesc</name><description>Nume: Hagăul Românesc, Tip: românesc, Nivel: 3, Județ: Alba, Formă: Altele, ID: 8640 <br /><b>Variante</b><br />Nume: Hagăul Românesc, Hartă: PDT, Limbă: Limba română</description><Point><coordinates>23.991121,46.250514,0</coordinates></Point></Placemark>
<Placemark><name>Lepadiue romanesce</name><description>Nume: Lepadiue romanesce, Tip: românesc, Nivel: 3, Județ: Alba, Formă: Localitate, ID: 10504 <br /><b>Variante</b><br />Nume: Lepadiue romanesce, Hartă: Transilvania (1869-1870), Limbă: Limba română</description><Point><coordinates>23.662667,46.377431,0</coordinates></Point></Placemark>
<Placemark><name>Ruși</name><description>Nume: Ruși, Tip: ruși, Nivel: 2, Județ: Alba, Formă: Localitate, ID: 11823 <br /><b>Variante</b><br />Nume: Ruși, Hartă: Geomil 25000, Limbă: Limba română</description><Point><coordinates>23.106389,46.213205,0</coordinates></Point></Placemark>
<Placemark><name>Sîrbu</name><description>Nume: Sîrbu, Tip: sârb, Nivel: 3, Județ: Alba, Formă: Înălțime, ID: 10503 <br /><b>Variante</b><br />Nume: Sîrbu, Hartă: Transilvania (1869-1870), Limbă: Limba română</description><Point><coordinates>23.623261,46.357759,0</coordinates></Point></Placemark>
<Placemark><name>Valea Sârbilor</name><description>Nume: Valea Sârbilor, Tip: sârbi, Nivel: 2, Județ: Alba, Formă: Vale, ID: 1148 <br /><b>Variante</b><br />Nume: Valea Sârbilor, Hartă: Geomil 25000, Limbă: Limba română</description><Point><coordinates>23.637206,45.997080,0</coordinates></Point></Placemark>
<Placemark><name>Dealul Sasului</name><description>Nume: Dealul Sasului, Tip: sas, Nivel: 4, Județ: Alba, Formă: Deal, ID: 10550 <br /><b>Variante</b><br />Nume: Dealul Sasului, Hartă: Imperiul Habsburgic (1887), Limbă: Limba română</description><Point><coordinates>23.434940,45.768720,0</coordinates></Point></Placemark>
<Placemark><name>Pădurea Sasului</name><description>Nume: Pădurea Sasului, Tip: sas, Nivel: 4, Județ: Alba, Formă: Pădure, ID: 11239 <br /><b>Variante</b><br />Nume: Pădurea Sasului, Hartă: Geomil 25000, Limbă: Limba română</description><Point><coordinates>23.740035,46.039542,0</coordinates></Point></Placemark>
<Placemark><name>Pârâul Sasului</name><description>Nume: Pârâul Sasului, Tip: sas, Nivel: 4, Județ: Alba, Formă: Vale, ID: 8153 <br /><b>Variante</b><br />Nume: Pârâul Sasului, Hartă: PDT, Limbă: Limba română</description><Point><coordinates>23.903302,46.197083,0</coordinates></Point></Placemark>
<Placemark><name>Pârâul Valea Sasului</name><description>Nume: Pârâul Valea Sasului, Tip: sas, Nivel: 4, Județ: Alba, Formă: Vale, ID: 7353 <br /><b>Variante</b><br />Nume: Pârâul Valea Sasului, Hartă: Geomil 25000, Limbă: Limba română</description><Point><coordinates>24.034363,46.281258,0</coordinates></Point></Placemark>
<Placemark><name>Valea Sasului</name><description>Nume: Valea Sasului, Tip: sas, Nivel: 4, Județ: Alba, Formă: Vale, ID: 1136 <br /><b>Variante</b><br />Nume: Valea Sasului, Hartă: Geomil 25000, Limbă: Limba română</description><Point><coordinates>23.409882,45.795854,0</coordinates></Point></Placemark>
<Placemark><name>Valea Sasului</name><description>Nume: Valea Sasului, Tip: sas, Nivel: 4, Județ: Alba, Formă: Vale, ID: 11829 <br /><b>Variante</b><br />Nume: Valea Sasului, Hartă: Geomil 25000, Limbă: Limba română<br />Nume: Valea Sasului, Hartă: PDT, Limbă: Limba română</description><Point><coordinates>23.667573,46.226462,0</coordinates></Point></Placemark>
<Placemark><name>Valea Sasului</name><description>Nume: Valea Sasului, Tip: sas, Nivel: 4, Județ: Alba, Formă: Vale, ID: 14010 <br /><b>Variante</b><br />Nume: Valea Sasului, Hartă: PDT, Limbă: Limba română</description><Point><coordinates>23.686584,46.425763,0</coordinates></Point></Placemark>
<Placemark><name>Vârfu Gruiu Sasului</name><description>Nume: Vârfu Gruiu Sasului, Tip: sas, Nivel: 4, Județ: Alba, Formă: Înălțime, ID: 6747 <br /><b>Variante</b><br />Nume: Vârfu Gruiu Sasului, Hartă: Geomil 25000, Limbă: Limba română<br />Nume: Gruiul Sasului, Hartă: PDT, Limbă: Limba română</description><Point><coordinates>23.663770,46.098726,0</coordinates></Point></Placemark>
<Placemark><name>Szaszcsor (Săsciori)</name><description>Nume: Szaszcsor (Săsciori), Tip: săsciori, Nivel: 4, Județ: Alba, Formă: Localitate, ID: 13242 <br /><b>Variante</b><br />Nume: Szaszcsor (Săsciori), Hartă: Transilvania (1769-1773), Limbă: Limba română<br />Nume: Săsciori, Hartă: Geomil 25000, Limbă: Limba română</description><Point><coordinates>23.579032,45.879151,0</coordinates></Point></Placemark>
<Placemark><name>Gruețiu Săsăscu</name><description>Nume: Gruețiu Săsăscu, Tip: săsesc, Nivel: 4, Județ: Alba, Formă: Altele, ID: 11836 <br /><b>Variante</b><br />Nume: Gruețiu Săsăscu, Hartă: Geomil 25000, Limbă: Limba română</description><Point><coordinates>23.942909,46.251388,0</coordinates></Point></Placemark>
<Placemark><name>Râtul Săsesc</name><description>Nume: Râtul Săsesc, Tip: săsesc, Nivel: 4, Județ: Alba, Formă: Altele, ID: 8157 <br /><b>Variante</b><br />Nume: Râtul Săsesc, Hartă: PDT, Limbă: Limba română</description><Point><coordinates>23.971336,46.149141,0</coordinates></Point></Placemark>
<Placemark><name>Szaz Pian</name><description>Nume: Szaz Pian, Tip: săsesc, Nivel: 4, Județ: Alba, Formă: Localitate, ID: 10458 <br /><b>Variante</b><br />Nume: Szaz Pian, Hartă: Transilvania (1869-1870), Limbă: Limba maghiară</description><Point><coordinates>23.487641,45.937789,0</coordinates></Point></Placemark>
<Placemark><name>Săsești</name><description>Nume: Săsești, Tip: săsești, Nivel: 4, Județ: Alba, Formă: Altele, ID: 14014 <br /><b>Variante</b><br />Nume: Săsești, Hartă: PDT, Limbă: Limba română</description><Point><coordinates>23.970416,46.372185,0</coordinates></Point></Placemark>
<Placemark><name>Szász-Ujfalu</name><description>Nume: Szász-Ujfalu, Tip: szász, Nivel: 4, Județ: Alba, Formă: Localitate, ID: 10501 <br /><b>Variante</b><br />Nume: Szász-Ujfalu, Hartă: Transilvania (1869-1870), Limbă: Limba maghiară</description><Point><coordinates>23.721020,46.274464,0</coordinates></Point></Placemark>
<Placemark><name>Tătăroaia</name><description>Nume: Tătăroaia, Tip: tătăroaie, Nivel: 3, Județ: Alba, Formă: Altele, ID: 1921 <br /><b>Variante</b><br />Nume: Tătăroaia, Hartă: Geomil 25000, Limbă: Limba română</description><Point><coordinates>23.968959,46.195486,0</coordinates></Point></Placemark>
<Placemark><name>Tăuți</name><description>Nume: Tăuți, Tip: tăuți, Nivel: 3, Județ: Alba, Formă: Localitate, ID: 5572 <br /><b>Variante</b><br />Nume: Tăuți, Hartă: Geomil 25000, Limbă: Limba română</description><Point><coordinates>23.466727,46.095919,0</coordinates></Point></Placemark>
<Placemark><name>Părâul Turcului</name><description>Nume: Părâul Turcului, Tip: turc, Nivel: 3, Județ: Alba, Formă: Vale, ID: 5568 <br /><b>Variante</b><br />Nume: Părâul Turcului, Hartă: PDT, Limbă: Limba română</description><Point><coordinates>23.425763,46.014788,0</coordinates></Point></Placemark>
<Placemark><name>Valea Turcului</name><description>Nume: Valea Turcului, Tip: turc, Nivel: 3, Județ: Alba, Formă: Vale, ID: 8646 <br /><b>Variante</b><br />Nume: Valea Turcului, Hartă: PDT, Limbă: Limba română</description><Point><coordinates>23.422436,46.230282,0</coordinates></Point></Placemark>
<Placemark><name>Dealu Turceștilor</name><description>Nume: Dealu Turceștilor, Tip: turcești, Nivel: 3, Județ: Alba, Formă: Deal, ID: 12762 <br /><b>Variante</b><br />Nume: Dealu Turceștilor, Hartă: Geomil 25000, Limbă: Limba română</description><Point><coordinates>23.340934,46.438274,0</coordinates></Point></Placemark>
<Placemark><name>Dealul Turcilor</name><description>Nume: Dealul Turcilor, Tip: turci, Nivel: 2, Județ: Alba, Formă: Deal, ID: 11764 <br /><b>Variante</b><br />Nume: Dealul Turcilor, Hartă: PDT, Limbă: Limba română</description><Point><coordinates>24.067297,46.098716,0</coordinates></Point></Placemark>
<Placemark><name>La Turci</name><description>Nume: La Turci, Tip: turci, Nivel: 2, Județ: Alba, Formă: Altele, ID: 14042 <br /><b>Variante</b><br />Nume: La Turci, Hartă: Transilvania (1869-1870), Limbă: Limba română</description><Point><coordinates>22.840962,46.451980,0</coordinates></Point></Placemark>
<Placemark><name>Colțu Ungurului</name><description>Nume: Colțu Ungurului, Tip: ungur, Nivel: 3, Județ: Alba, Formă: Înălțime, ID: 2584 <br /><b>Variante</b><br />Nume: Colțu Ungurului, Hartă: Geomil 25000, Limbă: Limba română</description><Point><coordinates>23.290016,46.488821,0</coordinates></Point></Placemark>
<Placemark><name>Pârâul Ungurului</name><description>Nume: Pârâul Ungurului, Tip: ungur, Nivel: 3, Județ: Alba, Formă: Vale, ID: 13694 <br /><b>Variante</b><br />Nume: Pârâul Ungurului, Hartă: Imperiul Habsburgic (1887), Limbă: Limba română</description><Point><coordinates>23.333438,46.341599,0</coordinates></Point></Placemark>
<Placemark><name>Bucerdea Ungurească</name><description>Nume: Bucerdea Ungurească, Tip: ungureasca, Nivel: 3, Județ: Alba, Formă: Localitate, ID: 10673 <br /><b>Variante</b><br />Nume: Bucerdea Ungurească, Hartă: Imperiul Habsburgic (1887), Limbă: Limba română</description><Point><coordinates>23.529388,46.159704,0</coordinates></Point></Placemark>
<Placemark><name>Ghribova unguresce</name><description>Nume: Ghribova unguresce, Tip: ungureasca, Nivel: 3, Județ: Alba, Formă: Localitate, ID: 10502 <br /><b>Variante</b><br />Nume: Ghribova unguresce, Hartă: Transilvania (1869-1870), Limbă: Limba română</description><Point><coordinates>23.669226,46.257931,0</coordinates></Point></Placemark>
<Placemark><name>Lopadea ungureasca</name><description>Nume: Lopadea ungureasca, Tip: ungureasca, Nivel: 3, Județ: Alba, Formă: Localitate, ID: 10543 <br /><b>Variante</b><br />Nume: Lopadea ungureasca, Hartă: Imperiul Habsburgic (1887), Limbă: Limba română</description><Point><coordinates>23.818344,46.291540,0</coordinates></Point></Placemark>
<Placemark><name>Măgura Ungurească</name><description>Nume: Măgura Ungurească, Tip: ungureasca, Nivel: 3, Județ: Alba, Formă: Înălțime, ID: 11952 <br /><b>Variante</b><br />Nume: Măgura Ungurească, Hartă: PDT, Limbă: Limba română</description><Point><coordinates>23.217089,46.118014,0</coordinates></Point></Placemark>
<Placemark><name>Calea Ungureiului</name><description>Nume: Calea Ungureiului, Tip: ungurei (singular), Nivel: 3, Județ: Alba, Formă: Înălțime, ID: 2549 <br /><b>Variante</b><br />Nume: Calea Ungureiului, Hartă: Geomil 25000, Limbă: Limba română</description><Point><coordinates>23.869654,46.041616,0</coordinates></Point></Placemark>
<Placemark><name>Sâmpetrul-German</name><description>Nume: Sâmpetrul-German, Tip: germani, Nivel: 2, Județ: Arad, Formă: Localitate, ID: 5645 <br /><b>Variante</b><br />Nume: Sâmpetrul-German, Hartă: PDT, Limbă: Limba română<br />Nume: Sânpetru German, Hartă: PDT, Limbă: Limba română</description><Point><coordinates>21.046087,46.112196,0</coordinates></Point></Placemark>
<Placemark><name>Dealu Grecului</name><description>Nume: Dealu Grecului, Tip: grec, Nivel: 3, Județ: Arad, Formă: Deal, ID: 6257 <br /><b>Variante</b><br />Nume: Dealu Grecului, Hartă: Geomil 25000, Limbă: Limba română</description><Point><coordinates>22.620866,46.282478,0</coordinates></Point></Placemark>
<Placemark><name>La Viile Maghiare</name><description>Nume: La Viile Maghiare, Tip: maghiar, Nivel: 3, Județ: Arad, Formă: Altele, ID: 11903 <br /><b>Variante</b><br />Nume: La Viile Maghiare, Hartă: Geomil 25000, Limbă: Limba română</description><Point><coordinates>21.010240,46.171362,0</coordinates></Point></Placemark>
<Placemark><name>Cioaca Neamțului</name><description>Nume: Cioaca Neamțului, Tip: neamț, Nivel: 4, Județ: Arad, Formă: Înălțime, ID: 10292 <br /><b>Variante</b><br />Nume: Cioaca Neamțului, Hartă: Geomil 25000, Limbă: Limba română<br />Nume: Cioka Niamtzului, Hartă: Ungară 1869, Limbă: Limba română</description><Point><coordinates>21.732776,46.181206,0</coordinates></Point></Placemark>
<Placemark><name>Dâmbul Neamțului</name><description>Nume: Dâmbul Neamțului, Tip: neamț, Nivel: 4, Județ: Arad, Formă: Înălțime, ID: 4092 <br /><b>Variante</b><br />Nume: Dâmbul Neamțului, Hartă: PDT, Limbă: Limba română</description><Point><coordinates>22.156449,46.596788,0</coordinates></Point></Placemark>
<Placemark><name>Dealul Neamțului</name><description>Nume: Dealul Neamțului, Tip: neamț, Nivel: 4, Județ: Arad, Formă: Deal, ID: 874 <br /><b>Variante</b><br />Nume: Dealul Neamțului, Hartă: Geomil 25000, Limbă: Limba română</description><Point><coordinates>22.409796,45.937152,0</coordinates></Point></Placemark>
<Placemark><name>Fântâna neamțiului</name><description>Nume: Fântâna neamțiului, Tip: neamț, Nivel: 4, Județ: Arad, Formă: Altele, ID: 6286 <br /><b>Variante</b><br />Nume: Fântâna neamțiului, Hartă: PDT, Limbă: Limba română</description><Point><coordinates>21.961223,46.391878,0</coordinates></Point></Placemark>
<Placemark><name>Pârâul Neamțului</name><description>Nume: Pârâul Neamțului, Tip: neamț, Nivel: 4, Județ: Arad, Formă: Vale, ID: 5630 <br /><b>Variante</b><br />Nume: Pârâul Neamțului, Hartă: PDT, Limbă: Limba română<br />Nume: Pârâul Neamțului, Hartă: Geomil 25000, Limbă: Limba română</description><Point><coordinates>21.805827,46.117059,0</coordinates></Point></Placemark>
<Placemark><name>Valea Neamțului</name><description>Nume: Valea Neamțului, Tip: neamț, Nivel: 4, Județ: Arad, Formă: Vale, ID: 1948 <br /><b>Variante</b><br />Nume: Valea Neamțului, Hartă: Geomil 25000, Limbă: Limba română</description><Point><coordinates>21.750099,46.107775,0</coordinates></Point></Placemark>
<Placemark><name>Valea Neamțului</name><description>Nume: Valea Neamțului, Tip: neamț, Nivel: 4, Județ: Arad, Formă: Vale, ID: 6258 <br /><b>Variante</b><br />Nume: Valea Neamțului, Hartă: Geomil 25000, Limbă: Limba română</description><Point><coordinates>22.566537,46.240196,0</coordinates></Point></Placemark>
<Placemark><name>Valea Neamțului</name><description>Nume: Valea Neamțului, Tip: neamț, Nivel: 4, Județ: Arad, Formă: Vale, ID: 9415 <br /><b>Variante</b><br />Nume: Valea Neamțului, Hartă: Geomil 25000, Limbă: Limba română</description><Point><coordinates>21.736051,46.211168,0</coordinates></Point></Placemark>
<Placemark><name>Dealul Nemțesc</name><description>Nume: Dealul Nemțesc, Tip: nemțesc, Nivel: 4, Județ: Arad, Formă: Deal, ID: 9423 <br /><b>Variante</b><br />Nume: Dealul Nemțesc, Hartă: PDT, Limbă: Limba română</description><Point><coordinates>21.697674,46.076894,0</coordinates></Point></Placemark>
<Placemark><name>Băile Nemților</name><description>Nume: Băile Nemților, Tip: nemți, Nivel: 3, Județ: Arad, Formă: Altele, ID: 13936 <br /><b>Variante</b><br />Nume: Băile Nemților, Hartă: PDT, Limbă: Limba română</description><Point><coordinates>22.306851,46.456702,0</coordinates></Point></Placemark>
<Placemark><name>Dealu Nemților</name><description>Nume: Dealu Nemților, Tip: nemți, Nivel: 3, Județ: Arad, Formă: Deal, ID: 6306 <br /><b>Variante</b><br />Nume: Dealu Nemților, Hartă: Geomil 25000, Limbă: Limba română<br />Nume: Dealul Nemților, Hartă: PDT, Limbă: Limba română</description><Point><coordinates>21.722972,46.046457,0</coordinates></Point></Placemark>
<Placemark><name>Izlazul Nemților</name><description>Nume: Izlazul Nemților, Tip: nemți, Nivel: 3, Județ: Arad, Formă: Altele, ID: 12520 <br /><b>Variante</b><br />Nume: Izlazul Nemților, Hartă: ANCPI, Limbă: Limba română</description><Point><coordinates>22.022494,46.433184,0</coordinates></Point></Placemark>
<Placemark><name>La Nemți</name><description>Nume: La Nemți, Tip: nemți, Nivel: 3, Județ: Arad, Formă: Altele, ID: 7600 <br /><b>Variante</b><br />Nume: La Nemți, Hartă: PDT, Limbă: Limba română</description><Point><coordinates>21.898992,46.381251,0</coordinates></Point></Placemark>
<Placemark><name>Dealul Românesc</name><description>Nume: Dealul Românesc, Tip: românesc, Nivel: 3, Județ: Arad, Formă: Deal, ID: 6303 <br /><b>Variante</b><br />Nume: Dealul Românesc, Hartă: PDT, Limbă: Limba română</description><Point><coordinates>21.730760,46.077773,0</coordinates></Point></Placemark>
<Placemark><name>Râtul Românesc</name><description>Nume: Râtul Românesc, Tip: românesc, Nivel: 3, Județ: Arad, Formă: Altele, ID: 5643 <br /><b>Variante</b><br />Nume: Râtul Românesc, Hartă: PDT, Limbă: Limba română</description><Point><coordinates>21.010775,46.154589,0</coordinates></Point></Placemark>
<Placemark><name>Râtu Rusului</name><description>Nume: Râtu Rusului, Tip: rus, Nivel: 3, Județ: Arad, Formă: Altele, ID: 11672 <br /><b>Variante</b><br />Nume: Râtu Rusului, Hartă: Geomil 25000, Limbă: Limba română</description><Point><coordinates>21.814214,46.562672,0</coordinates></Point></Placemark>
<Placemark><name>Duleele Rușilor</name><description>Nume: Duleele Rușilor, Tip: ruși, Nivel: 2, Județ: Arad, Formă: Altele, ID: 11686 <br /><b>Variante</b><br />Nume: Duleele Rușilor, Hartă: Geomil 25000, Limbă: Limba română</description><Point><coordinates>21.026971,46.231669,0</coordinates></Point></Placemark>
<Placemark><name>Dealu Sârbului</name><description>Nume: Dealu Sârbului, Tip: sârb, Nivel: 3, Județ: Arad, Formă: Deal, ID: 948 <br /><b>Variante</b><br />Nume: Dealu Sârbului, Hartă: Geomil 25000, Limbă: Limba română</description><Point><coordinates>22.334367,46.041103,0</coordinates></Point></Placemark>
<Placemark><name>Dealul Sârbului</name><description>Nume: Dealul Sârbului, Tip: sârb, Nivel: 3, Județ: Arad, Formă: Deal, ID: 10211 <br /><b>Variante</b><br />Nume: Dealul Sârbului, Hartă: Geomil 25000, Limbă: Limba română</description><Point><coordinates>21.728754,45.962511,0</coordinates></Point></Placemark>
<Placemark><name>Dialu Sîrbului</name><description>Nume: Dialu Sîrbului, Tip: sârb, Nivel: 3, Județ: Arad, Formă: Deal, ID: 10313 <br /><b>Variante</b><br />Nume: Dialu Sîrbului, Hartă: Ungară 1869, Limbă: Limba română</description><Point><coordinates>22.205321,46.019783,0</coordinates></Point></Placemark>
<Placemark><name>Gruețu Sârbului</name><description>Nume: Gruețu Sârbului, Tip: sârb, Nivel: 3, Județ: Arad, Formă: Altele, ID: 7662 <br /><b>Variante</b><br />Nume: Gruețu Sârbului, Hartă: Geomil 25000, Limbă: Limba română<br />Nume: Gruețul Sârbului, Hartă: PDT, Limbă: Limba română</description><Point><coordinates>22.131529,46.474241,0</coordinates></Point></Placemark>
<Placemark><name>Sârbi</name><description>Nume: Sârbi, Tip: sârbi, Nivel: 2, Județ: Arad, Formă: Localitate, ID: 6256 <br /><b>Variante</b><br />Nume: Sârbi, Hartă: Geomil 25000, Limbă: Limba română</description><Point><coordinates>22.640405,46.288032,0</coordinates></Point></Placemark>
<Placemark><name>Valea Sârbilor</name><description>Nume: Valea Sârbilor, Tip: sârbi, Nivel: 2, Județ: Arad, Formă: Vale, ID: 966 <br /><b>Variante</b><br />Nume: Valea Sârbilor, Hartă: Geomil 25000, Limbă: Limba română</description><Point><coordinates>22.185460,46.122920,0</coordinates></Point></Placemark>
<Placemark><name>Dealu Sasu</name><description>Nume: Dealu Sasu, Tip: sas, Nivel: 4, Județ: Arad, Formă: Deal, ID: 13501 <br /><b>Variante</b><br />Nume: Dealu Sasu, Hartă: Geomil 25000, Limbă: Limba română</description><Point><coordinates>22.129675,46.073214,0</coordinates></Point></Placemark>
<Placemark><name>Pădurea Sasului</name><description>Nume: Pădurea Sasului, Tip: sas, Nivel: 4, Județ: Arad, Formă: Pădure, ID: 8035 <br /><b>Variante</b><br />Nume: Pădurea Sasului, Hartă: PDT, Limbă: Limba română</description><Point><coordinates>21.765391,46.502355,0</coordinates></Point></Placemark>
<Placemark><name>Valea Sasului</name><description>Nume: Valea Sasului, Tip: sas, Nivel: 4, Județ: Arad, Formă: Vale, ID: 5599 <br /><b>Variante</b><br />Nume: Valea Sasului, Hartă: Geomil 25000, Limbă: Limba română</description><Point><coordinates>22.452887,46.322336,0</coordinates></Point></Placemark>
<Placemark><name>Cioaca Tătarului</name><description>Nume: Cioaca Tătarului, Tip: tătar, Nivel: 3, Județ: Arad, Formă: Înălțime, ID: 4296 <br /><b>Variante</b><br />Nume: Cioaca Tătarului, Hartă: Geomil 25000, Limbă: Limba română</description><Point><coordinates>21.948077,45.987037,0</coordinates></Point></Placemark>
<Placemark><name>Dealu Tătarului</name><description>Nume: Dealu Tătarului, Tip: tătar, Nivel: 3, Județ: Arad, Formă: Deal, ID: 10220 <br /><b>Variante</b><br />Nume: Dealu Tătarului, Hartă: Geomil 25000, Limbă: Limba română</description><Point><coordinates>22.337831,46.157890,0</coordinates></Point></Placemark>
<Placemark><name>Tatár halom (Dâmbul Tătarului)</name><description>Nume: Tatár halom (Dâmbul Tătarului), Tip: tătar, Nivel: 3, Județ: Arad, Formă: Înălțime, ID: 10958 <br /><b>Variante</b><br />Nume: Tatár halom (Dâmbul Tătarului), Hartă: Imperiul Habsburgic (1887), Limbă: Limba maghiară</description><Point><coordinates>21.294757,46.408176,0</coordinates></Point></Placemark>
<Placemark><name>Tăuți</name><description>Nume: Tăuți, Tip: tăuți, Nivel: 3, Județ: Arad, Formă: Localitate, ID: 6295 <br /><b>Variante</b><br />Nume: Tăuți, Hartă: PDT, Limbă: Limba română<br />Nume: Tăuț, Hartă: Geomil 25000, Limbă: Limba română</description><Point><coordinates>21.909093,46.290712,0</coordinates></Point></Placemark>
<Placemark><name>Dealu Balta Turcului</name><description>Nume: Dealu Balta Turcului, Tip: turc, Nivel: 3, Județ: Arad, Formă: Deal, ID: 1947 <br /><b>Variante</b><br />Nume: Dealu Balta Turcului, Hartă: Geomil 25000, Limbă: Limba română</description><Point><coordinates>22.004736,46.189619,0</coordinates></Point></Placemark>
<Placemark><name>Dealu Turcului</name><description>Nume: Dealu Turcului, Tip: turc, Nivel: 3, Județ: Arad, Formă: Deal, ID: 11524 <br /><b>Variante</b><br />Nume: Dealu Turcului, Hartă: Geomil 25000, Limbă: Limba română</description><Point><coordinates>22.421484,46.134632,0</coordinates></Point></Placemark>
<Placemark><name>Vârful Turcului</name><description>Nume: Vârful Turcului, Tip: turc, Nivel: 3, Județ: Arad, Formă: Înălțime, ID: 11221 <br /><b>Variante</b><br />Nume: Vârful Turcului, Hartă: ANCPI, Limbă: Limba română</description><Point><coordinates>22.194985,46.234237,0</coordinates></Point></Placemark>
<Placemark><name>Türkenschanze (Șanțurile Turcești)</name><description>Nume: Türkenschanze (Șanțurile Turcești), Tip: turcești, Nivel: 3, Județ: Arad, Formă: Altele, ID: 10293 <br /><b>Variante</b><br />Nume: Türkenschanze (Șanțurile Turcești), Hartă: Ungară 1869, Limbă: Limba germană</description><Point><coordinates>21.482470,46.106649,0</coordinates></Point></Placemark>
<Placemark><name>Dâmbu Ungurului</name><description>Nume: Dâmbu Ungurului, Tip: ungur, Nivel: 3, Județ: Arad, Formă: Înălțime, ID: 5595 <br /><b>Variante</b><br />Nume: Dâmbu Ungurului, Hartă: Geomil 25000, Limbă: Limba română<br />Nume: Dâmbul Ungurului, Hartă: PDT, Limbă: Limba română</description><Point><coordinates>22.522803,46.343007,0</coordinates></Point></Placemark>
<Placemark><name>Valea Ungurului</name><description>Nume: Valea Ungurului, Tip: ungur, Nivel: 3, Județ: Arad, Formă: Vale, ID: 969 <br /><b>Variante</b><br />Nume: Valea Ungurului, Hartă: Geomil 25000, Limbă: Limba română</description><Point><coordinates>22.181169,46.164788,0</coordinates></Point></Placemark>
<Placemark><name>Pârâul Unguresc</name><description>Nume: Pârâul Unguresc, Tip: unguresc, Nivel: 3, Județ: Arad, Formă: Vale, ID: 7659 <br /><b>Variante</b><br />Nume: Pârâul Unguresc, Hartă: PDT, Limbă: Limba română</description><Point><coordinates>22.093448,46.430573,0</coordinates></Point></Placemark>
<Placemark><name>Pădurea Armeneasa</name><description>Nume: Pădurea Armeneasa, Tip: armeneasa, Nivel: 3, Județ: Arges, Formă: Pădure, ID: 6904 <br /><b>Variante</b><br />Nume: Pădurea Armeneasa, Hartă: Geomil 25000, Limbă: Limba română</description><Point><coordinates>24.899544,44.911540,0</coordinates></Point></Placemark>
<Placemark><name>Cazacu</name><description>Nume: Cazacu, Tip: cazac, Nivel: 4, Județ: Arges, Formă: Altele, ID: 5056 <br /><b>Variante</b><br />Nume: Cazacu, Hartă: PDT, Limbă: Limba română</description><Point><coordinates>25.116784,45.256059,0</coordinates></Point></Placemark>
<Placemark><name>Valea Greaca</name><description>Nume: Valea Greaca, Tip: greaca, Nivel: 3, Județ: Arges, Formă: Vale, ID: 1398 <br /><b>Variante</b><br />Nume: Valea Greaca, Hartă: Geomil 25000, Limbă: Limba română</description><Point><coordinates>25.186133,44.680797,0</coordinates></Point></Placemark>
<Placemark><name>Valea Greacă</name><description>Nume: Valea Greacă, Tip: greaca, Nivel: 3, Județ: Arges, Formă: Vale, ID: 9693 <br /><b>Variante</b><br />Nume: Valea Greacă, Hartă: Geomil 25000, Limbă: Limba română</description><Point><coordinates>24.795532,45.047412,0</coordinates></Point></Placemark>
<Placemark><name>Valea Grecii</name><description>Nume: Valea Grecii, Tip: greaca, Nivel: 3, Județ: Arges, Formă: Vale, ID: 5048 <br /><b>Variante</b><br />Nume: Valea Grecii, Hartă: Geomil 25000, Limbă: Limba română</description><Point><coordinates>25.196217,45.220250,0</coordinates></Point></Placemark>
<Placemark><name>Eleșteul Grecului</name><description>Nume: Eleșteul Grecului, Tip: grec, Nivel: 3, Județ: Arges, Formă: Apă-deal-câmpie, ID: 3719 <br /><b>Variante</b><br />Nume: Eleșteul Grecului, Hartă: PDT, Limbă: Limba română</description><Point><coordinates>25.162863,44.584704,0</coordinates></Point></Placemark>
<Placemark><name>Heleșteul Grecului</name><description>Nume: Heleșteul Grecului, Tip: grec, Nivel: 3, Județ: Arges, Formă: Apă-deal-câmpie, ID: 9697 <br /><b>Variante</b><br />Nume: Heleșteul Grecului, Hartă: PDT, Limbă: Limba română</description><Point><coordinates>24.782711,44.952432,0</coordinates></Point></Placemark>
<Placemark><name>Movila Grecului</name><description>Nume: Movila Grecului, Tip: grec, Nivel: 3, Județ: Arges, Formă: Înălțime, ID: 14237 <br /><b>Variante</b><br />Nume: Movila Grecului, Hartă: PDT, Limbă: Limba română</description><Point><coordinates>24.756655,44.608226,0</coordinates></Point></Placemark>
<Placemark><name>Poiana Grecului</name><description>Nume: Poiana Grecului, Tip: grec, Nivel: 3, Județ: Arges, Formă: Poiană, ID: 10160 <br /><b>Variante</b><br />Nume: Poiana Grecului, Hartă: PDT, Limbă: Limba română</description><Point><coordinates>25.055726,44.988761,0</coordinates></Point></Placemark>
<Placemark><name>Coasta Grecului</name><description>Nume: Coasta Grecului, Tip: greci, Nivel: 2, Județ: Arges, Formă: Înălțime, ID: 564 <br /><b>Variante</b><br />Nume: Coasta Grecului, Hartă: Geomil 25000, Limbă: Limba română</description><Point><coordinates>24.930278,45.181454,0</coordinates></Point></Placemark>
<Placemark><name>Dealul Grecilor</name><description>Nume: Dealul Grecilor, Tip: greci, Nivel: 2, Județ: Arges, Formă: Deal, ID: 4777 <br /><b>Variante</b><br />Nume: Dealul Grecilor, Hartă: PDT, Limbă: Limba română</description><Point><coordinates>24.778134,44.651624,0</coordinates></Point></Placemark>
<Placemark><name>Moșteni-Greci</name><description>Nume: Moșteni-Greci, Tip: greci, Nivel: 2, Județ: Arges, Formă: Localitate, ID: 1506 <br /><b>Variante</b><br />Nume: Moșteni-Greci, Hartă: Geomil 25000, Limbă: Limba română</description><Point><coordinates>25.155930,45.005009,0</coordinates></Point></Placemark>
<Placemark><name>Poiana Greci</name><description>Nume: Poiana Greci, Tip: greci, Nivel: 2, Județ: Arges, Formă: Poiană, ID: 8450 <br /><b>Variante</b><br />Nume: Poiana Greci, Hartă: PDT, Limbă: Limba română</description><Point><coordinates>25.074884,45.106862,0</coordinates></Point></Placemark>
<Placemark><name>Valea Grecilor</name><description>Nume: Valea Grecilor, Tip: greci, Nivel: 2, Județ: Arges, Formă: Vale, ID: 557 <br /><b>Variante</b><br />Nume: Valea Grecilor, Hartă: Geomil 25000, Limbă: Limba română</description><Point><coordinates>25.132139,45.184581,0</coordinates></Point></Placemark>
<Placemark><name>Ciuha Neamțului</name><description>Nume: Ciuha Neamțului, Tip: neamț, Nivel: 4, Județ: Arges, Formă: Înălțime, ID: 6909 <br /><b>Variante</b><br />Nume: Ciuha Neamțului, Hartă: PDT, Limbă: Limba română</description><Point><coordinates>24.536021,45.218929,0</coordinates></Point></Placemark>
<Placemark><name>Culmea Neamțului</name><description>Nume: Culmea Neamțului, Tip: neamț, Nivel: 4, Județ: Arges, Formă: Înălțime, ID: 5000 <br /><b>Variante</b><br />Nume: Culmea Neamțului, Hartă: Geomil 25000, Limbă: Limba română</description><Point><coordinates>24.945764,45.373701,0</coordinates></Point></Placemark>
<Placemark><name>Valea Neamțului</name><description>Nume: Valea Neamțului, Tip: neamț, Nivel: 4, Județ: Arges, Formă: Vale, ID: 5065 <br /><b>Variante</b><br />Nume: Valea Neamțului, Hartă: PDT, Limbă: Limba română</description><Point><coordinates>24.923519,45.219973,0</coordinates></Point></Placemark>
<Placemark><name>Neamțoaica Mare</name><description>Nume: Neamțoaica Mare, Tip: nemțoaică, Nivel: 4, Județ: Arges, Formă: Vale, ID: 5078 <br /><b>Variante</b><br />Nume: Neamțoaica Mare, Hartă: Geomil 25000, Limbă: Limba română</description><Point><coordinates>25.115141,45.565558,0</coordinates></Point></Placemark>
<Placemark><name>Culmea Ovreiului</name><description>Nume: Culmea Ovreiului, Tip: ovrei, Nivel: 4, Județ: Arges, Formă: Înălțime, ID: 12276 <br /><b>Variante</b><br />Nume: Culmea Ovreiului, Hartă: Geomil 25000, Limbă: Limba română</description><Point><coordinates>25.026990,45.398671,0</coordinates></Point></Placemark>
<Placemark><name>Valea Ovreiului</name><description>Nume: Valea Ovreiului, Tip: ovrei, Nivel: 4, Județ: Arges, Formă: Vale, ID: 13980 <br /><b>Variante</b><br />Nume: Valea Ovreiului, Hartă: PDT, Limbă: Limba română</description><Point><coordinates>24.890054,45.114332,0</coordinates></Point></Placemark>
<Placemark><name>Valea Românești</name><description>Nume: Valea Românești, Tip: românești, Nivel: 3, Județ: Arges, Formă: Vale, ID: 5067 <br /><b>Variante</b><br />Nume: Valea Românești, Hartă: PDT, Limbă: Limba română</description><Point><coordinates>24.809524,45.181485,0</coordinates></Point></Placemark>
<Placemark><name>Dealu Rumuneștilor</name><description>Nume: Dealu Rumuneștilor, Tip: rumânești, Nivel: 3, Județ: Arges, Formă: Deal, ID: 6011 <br /><b>Variante</b><br />Nume: Dealu Rumuneștilor, Hartă: Austriacă, Limbă: Limba română</description><Point><coordinates>25.007148,44.955260,0</coordinates></Point></Placemark>
<Placemark><name>Rumanești</name><description>Nume: Rumanești, Tip: rumânești, Nivel: 3, Județ: Arges, Formă: Localitate, ID: 6009 <br /><b>Variante</b><br />Nume: Rumanești, Hartă: Austriacă, Limbă: Limba română</description><Point><coordinates>24.949268,45.062849,0</coordinates></Point></Placemark>
<Placemark><name>Valea Rumâneștilor</name><description>Nume: Valea Rumâneștilor, Tip: rumânești, Nivel: 3, Județ: Arges, Formă: Vale, ID: 4960 <br /><b>Variante</b><br />Nume: Valea Rumâneștilor, Hartă: Geomil 25000, Limbă: Limba română</description><Point><coordinates>25.078542,45.265492,0</coordinates></Point></Placemark>
<Placemark><name>Poiana Rusului</name><description>Nume: Poiana Rusului, Tip: rus, Nivel: 3, Județ: Arges, Formă: Poiană, ID: 4992 <br /><b>Variante</b><br />Nume: Poiana Rusului, Hartă: Geomil 25000, Limbă: Limba română</description><Point><coordinates>24.814615,45.377142,0</coordinates></Point></Placemark>
<Placemark><name>Dealul Sârbului</name><description>Nume: Dealul Sârbului, Tip: sârb, Nivel: 3, Județ: Arges, Formă: Deal, ID: 10139 <br /><b>Variante</b><br />Nume: Dealul Sârbului, Hartă: PDT, Limbă: Limba română</description><Point><coordinates>25.180077,44.857370,0</coordinates></Point></Placemark>
<Placemark><name>Piscul Gruia Sârbului</name><description>Nume: Piscul Gruia Sârbului, Tip: sârb, Nivel: 3, Județ: Arges, Formă: Înălțime, ID: 4063 <br /><b>Variante</b><br />Nume: Piscul Gruia Sârbului, Hartă: PDT, Limbă: Limba română</description><Point><coordinates>24.708985,45.224674,0</coordinates></Point></Placemark>
<Placemark><name>Dealul Sârbilor</name><description>Nume: Dealul Sârbilor, Tip: sârbi, Nivel: 2, Județ: Arges, Formă: Deal, ID: 6900 <br /><b>Variante</b><br />Nume: Dealul Sârbilor, Hartă: Geomil 25000, Limbă: Limba română</description><Point><coordinates>24.817078,45.132915,0</coordinates></Point></Placemark>
<Placemark><name>Puțu din Poiana Sârbilor</name><description>Nume: Puțu din Poiana Sârbilor, Tip: sârbi, Nivel: 2, Județ: Arges, Formă: Altele, ID: 11121 <br /><b>Variante</b><br />Nume: Puțu din Poiana Sârbilor, Hartă: PDT, Limbă: Limba română</description><Point><coordinates>24.986820,45.156847,0</coordinates></Point></Placemark>
<Placemark><name>Dealul Sârboaica</name><description>Nume: Dealul Sârboaica, Tip: sârboaica, Nivel: 3, Județ: Arges, Formă: Deal, ID: 14880 <br /><b>Variante</b><br />Nume: Dealul Sârboaica, Hartă: PDT, Limbă: Limba română</description><Point><coordinates>24.496401,45.237804,0</coordinates></Point></Placemark>
<Placemark><name>Dealul Sasu</name><description>Nume: Dealul Sasu, Tip: sas, Nivel: 4, Județ: Arges, Formă: Deal, ID: 599 <br /><b>Variante</b><br />Nume: Dealul Sasu, Hartă: Geomil 25000, Limbă: Limba română</description><Point><coordinates>25.233779,45.508885,0</coordinates></Point></Placemark>
<Placemark><name>Dealul Sasului</name><description>Nume: Dealul Sasului, Tip: sas, Nivel: 4, Județ: Arges, Formă: Deal, ID: 5032 <br /><b>Variante</b><br />Nume: Dealul Sasului, Hartă: Geomil 25000, Limbă: Limba română<br />Nume: Dealul Sasului, Hartă: PDT, Limbă: Limba română</description><Point><coordinates>25.238633,45.410923,0</coordinates></Point></Placemark>
<Placemark><name>Dealul Sasului</name><description>Nume: Dealul Sasului, Tip: sas, Nivel: 4, Județ: Arges, Formă: Deal, ID: 12580 <br /><b>Variante</b><br />Nume: Dealul Sasului, Hartă: British Maps (1944), Limbă: Limba română</description><Point><coordinates>24.511145,45.256366,0</coordinates></Point></Placemark>
<Placemark><name>Piscu Sasului</name><description>Nume: Piscu Sasului, Tip: sas, Nivel: 4, Județ: Arges, Formă: Înălțime, ID: 11045 <br /><b>Variante</b><br />Nume: Piscu Sasului, Hartă: Geomil 25000, Limbă: Limba română</description><Point><coordinates>24.525602,44.921362,0</coordinates></Point></Placemark>
<Placemark><name>Valea Sasului</name><description>Nume: Valea Sasului, Tip: sas, Nivel: 4, Județ: Arges, Formă: Vale, ID: 1424 <br /><b>Variante</b><br />Nume: Valea Sasului, Hartă: Geomil 25000, Limbă: Limba română<br />Nume: Valea Sassului, Hartă: Austriacă, Limbă: Limba română</description><Point><coordinates>24.677472,45.107496,0</coordinates></Point></Placemark>
<Placemark><name>Valea Sasului</name><description>Nume: Valea Sasului, Tip: sas, Nivel: 4, Județ: Arges, Formă: Vale, ID: 4050 <br /><b>Variante</b><br />Nume: Valea Sasului, Hartă: PDT, Limbă: Limba română</description><Point><coordinates>24.695047,45.242279,0</coordinates></Point></Placemark>
<Placemark><name>Valea Sasului</name><description>Nume: Valea Sasului, Tip: sas, Nivel: 4, Județ: Arges, Formă: Vale, ID: 11120 <br /><b>Variante</b><br />Nume: Valea Sasului, Hartă: PDT, Limbă: Limba română</description><Point><coordinates>24.999831,45.241248,0</coordinates></Point></Placemark>
<Placemark><name>Poiana Tătarului</name><description>Nume: Poiana Tătarului, Tip: tătar, Nivel: 3, Județ: Arges, Formă: Poiană, ID: 10997 <br /><b>Variante</b><br />Nume: Poiana Tătarului, Hartă: PDT, Limbă: Limba română</description><Point><coordinates>24.783496,44.604910,0</coordinates></Point></Placemark>
<Placemark><name>Dealul Turcului</name><description>Nume: Dealul Turcului, Tip: turc, Nivel: 3, Județ: Arges, Formă: Deal, ID: 5051 <br /><b>Variante</b><br />Nume: Dealul Turcului, Hartă: Geomil 25000, Limbă: Limba română</description><Point><coordinates>24.894725,45.067365,0</coordinates></Point></Placemark>
<Placemark><name>Movila Turcului</name><description>Nume: Movila Turcului, Tip: turc, Nivel: 3, Județ: Arges, Formă: Înălțime, ID: 8328 <br /><b>Variante</b><br />Nume: Movila Turcului, Hartă: PDT, Limbă: Limba română<br />Nume: La Măgura Turcului, Hartă: Geomil 25000, Limbă: Limba română</description><Point><coordinates>24.988596,44.473155,0</coordinates></Point></Placemark>
<Placemark><name>Pădurea Turcului</name><description>Nume: Pădurea Turcului, Tip: turc, Nivel: 3, Județ: Arges, Formă: Pădure, ID: 3388 <br /><b>Variante</b><br />Nume: Pădurea Turcului, Hartă: Geomil 25000, Limbă: Limba română<br />Nume: Pădurea Turcului, Hartă: PDT, Limbă: Limba română</description><Point><coordinates>25.156302,44.498519,0</coordinates></Point></Placemark>
<Placemark><name>Piscul Turcului</name><description>Nume: Piscul Turcului, Tip: turc, Nivel: 3, Județ: Arges, Formă: Înălțime, ID: 10185 <br /><b>Variante</b><br />Nume: Piscul Turcului, Hartă: Geomil 25000, Limbă: Limba română</description><Point><coordinates>24.777256,45.531831,0</coordinates></Point></Placemark>
<Placemark><name>Puțu Turcului</name><description>Nume: Puțu Turcului, Tip: turc, Nivel: 3, Județ: Arges, Formă: Altele, ID: 8320 <br /><b>Variante</b><br />Nume: Puțu Turcului, Hartă: PDT, Limbă: Limba română</description><Point><coordinates>25.189589,44.442815,0</coordinates></Point></Placemark>
<Placemark><name>Val. Turkului</name><description>Nume: Val. Turkului, Tip: turc, Nivel: 3, Județ: Arges, Formă: Vale, ID: 5819 <br /><b>Variante</b><br />Nume: Val. Turkului, Hartă: Austriacă, Limbă: Limba română<br />Nume: Valea Turcului, Hartă: PDT, Limbă: Limba română</description><Point><coordinates>24.741827,44.611711,0</coordinates></Point></Placemark>
<Placemark><name>Valea Turcului</name><description>Nume: Valea Turcului, Tip: turc, Nivel: 3, Județ: Arges, Formă: Vale, ID: 14422 <br /><b>Variante</b><br />Nume: Valea Turcului, Hartă: PDT, Limbă: Limba română</description><Point><coordinates>24.737649,44.626428,0</coordinates></Point></Placemark>
<Placemark><name>Turcești</name><description>Nume: Turcești, Tip: turcești, Nivel: 3, Județ: Arges, Formă: Localitate, ID: 9358 <br /><b>Variante</b><br />Nume: Turcești, Hartă: PDT, Limbă: Limba română</description><Point><coordinates>24.871006,44.837923,0</coordinates></Point></Placemark>
<Placemark><name>Plaiul Turcilor</name><description>Nume: Plaiul Turcilor, Tip: turci, Nivel: 2, Județ: Arges, Formă: Altele, ID: 628 <br /><b>Variante</b><br />Nume: Plaiul Turcilor, Hartă: Geomil 25000, Limbă: Limba română</description><Point><coordinates>25.154822,45.533279,0</coordinates></Point></Placemark>
<Placemark><name>Perii Ungurului</name><description>Nume: Perii Ungurului, Tip: ungur, Nivel: 3, Județ: Arges, Formă: Altele, ID: 11124 <br /><b>Variante</b><br />Nume: Perii Ungurului, Hartă: PDT, Limbă: Limba română</description><Point><coordinates>25.074244,45.214515,0</coordinates></Point></Placemark>
<Placemark><name>Bâtca Armeanului</name><description>Nume: Bâtca Armeanului, Tip: armean, Nivel: 3, Județ: Bacau, Formă: Înălțime, ID: 7876 <br /><b>Variante</b><br />Nume: Bâtca Armeanului, Hartă: Geomil 25000, Limbă: Limba română</description><Point><coordinates>26.226685,46.625190,0</coordinates></Point></Placemark>
<Placemark><name>Piscu Armeanului</name><description>Nume: Piscu Armeanului, Tip: armean, Nivel: 3, Județ: Bacau, Formă: Înălțime, ID: 13553 <br /><b>Variante</b><br />Nume: Piscu Armeanului, Hartă: Moldova (1892-1898), Limbă: Limba română</description><Point><coordinates>27.021979,46.442747,0</coordinates></Point></Placemark>
<Placemark><name>Plaiul Arnăutu</name><description>Nume: Plaiul Arnăutu, Tip: arnăut, Nivel: 3, Județ: Bacau, Formă: Înălțime, ID: 9598 <br /><b>Variante</b><br />Nume: Plaiul Arnăutu, Hartă: Moldova (1892-1898), Limbă: Limba română</description><Point><coordinates>26.616726,46.645793,0</coordinates></Point></Placemark>
<Placemark><name>Groapa Cazacului</name><description>Nume: Groapa Cazacului, Tip: cazac, Nivel: 4, Județ: Bacau, Formă: Înălțime, ID: 7818 <br /><b>Variante</b><br />Nume: Groapa Cazacului, Hartă: Geomil 25000, Limbă: Limba română</description><Point><coordinates>26.900415,46.404319,0</coordinates></Point></Placemark>
<Placemark><name>Pârâul Cazacului</name><description>Nume: Pârâul Cazacului, Tip: cazac, Nivel: 4, Județ: Bacau, Formă: Vale, ID: 5333 <br /><b>Variante</b><br />Nume: Pârâul Cazacului, Hartă: PDT, Limbă: Limba română</description><Point><coordinates>26.847022,46.154434,0</coordinates></Point></Placemark>
<Placemark><name>Dealul Grecului</name><description>Nume: Dealul Grecului, Tip: grec, Nivel: 3, Județ: Bacau, Formă: Deal, ID: 9514 <br /><b>Variante</b><br />Nume: Dealul Grecului, Hartă: PDT, Limbă: Limba română</description><Point><coordinates>27.367180,46.495726,0</coordinates></Point></Placemark>
<Placemark><name>Dealul Grecului</name><description>Nume: Dealul Grecului, Tip: grec, Nivel: 3, Județ: Bacau, Formă: Deal, ID: 11641 <br /><b>Variante</b><br />Nume: Dealul Grecului, Hartă: Geomil 25000, Limbă: Limba română</description><Point><coordinates>26.626341,46.550398,0</coordinates></Point></Placemark>
<Placemark><name>Poiana Grecului</name><description>Nume: Poiana Grecului, Tip: grec, Nivel: 3, Județ: Bacau, Formă: Poiană, ID: 7835 <br /><b>Variante</b><br />Nume: Poiana Grecului, Hartă: Geomil 25000, Limbă: Limba română</description><Point><coordinates>26.921868,46.219661,0</coordinates></Point></Placemark>
<Placemark><name>Valea Grecului</name><description>Nume: Valea Grecului, Tip: grec, Nivel: 3, Județ: Bacau, Formă: Vale, ID: 9515 <br /><b>Variante</b><br />Nume: Valea Grecului, Hartă: PDT, Limbă: Limba română</description><Point><coordinates>27.092153,46.488745,0</coordinates></Point></Placemark>
<Placemark><name>La Buda Jidanului</name><description>Nume: La Buda Jidanului, Tip: jidan, Nivel: 3, Județ: Bacau, Formă: Altele, ID: 11304 <br /><b>Variante</b><br />Nume: La Buda Jidanului, Hartă: Geomil 25000, Limbă: Limba română</description><Point><coordinates>26.768629,46.180734,0</coordinates></Point></Placemark>
<Placemark><name>Valea Jidovului</name><description>Nume: Valea Jidovului, Tip: jidov, Nivel: 3, Județ: Bacau, Formă: Vale, ID: 5305 <br /><b>Variante</b><br />Nume: Valea Jidovului, Hartă: PDT, Limbă: Limba română<br />Nume: Valea Jidovului, Hartă: Geomil 25000, Limbă: Limba română</description><Point><coordinates>26.970188,46.124194,0</coordinates></Point></Placemark>
<Placemark><name>Groapa Neamțului</name><description>Nume: Groapa Neamțului, Tip: neamț, Nivel: 4, Județ: Bacau, Formă: Altele, ID: 4568 <br /><b>Variante</b><br />Nume: Groapa Neamțului, Hartă: PDT, Limbă: Limba română</description><Point><coordinates>26.487188,46.309797,0</coordinates></Point></Placemark>
<Placemark><name>Poiana Neamțului</name><description>Nume: Poiana Neamțului, Tip: neamț, Nivel: 4, Județ: Bacau, Formă: Poiană, ID: 7887 <br /><b>Variante</b><br />Nume: Poiana Neamțului, Hartă: PDT, Limbă: Limba română</description><Point><coordinates>27.157103,46.379212,0</coordinates></Point></Placemark>
<Placemark><name>Valea Jgheabul Neamțului</name><description>Nume: Valea Jgheabul Neamțului, Tip: neamț, Nivel: 4, Județ: Bacau, Formă: Vale, ID: 7879 <br /><b>Variante</b><br />Nume: Valea Jgheabul Neamțului, Hartă: Geomil 25000, Limbă: Limba română</description><Point><coordinates>26.347604,46.485040,0</coordinates></Point></Placemark>
<Placemark><name>Românești</name><description>Nume: Românești, Tip: românești, Nivel: 3, Județ: Bacau, Formă: Localitate, ID: 3837 <br /><b>Variante</b><br />Nume: Românești, Hartă: Geomil 25000, Limbă: Limba română</description><Point><coordinates>26.663212,46.493040,0</coordinates></Point></Placemark>
<Placemark><name>Dealul Rusului</name><description>Nume: Dealul Rusului, Tip: rus, Nivel: 3, Județ: Bacau, Formă: Deal, ID: 4558 <br /><b>Variante</b><br />Nume: Dealul Rusului, Hartă: Geomil 25000, Limbă: Limba română<br />Nume: Dealul Rusului, Hartă: PDT, Limbă: Limba română</description><Point><coordinates>26.448501,46.375219,0</coordinates></Point></Placemark>
<Placemark><name>Dealul Rusului</name><description>Nume: Dealul Rusului, Tip: rus, Nivel: 3, Județ: Bacau, Formă: Deal, ID: 7820 <br /><b>Variante</b><br />Nume: Dealul Rusului, Hartă: Geomil 25000, Limbă: Limba română</description><Point><coordinates>26.929475,46.391963,0</coordinates></Point></Placemark>
<Placemark><name>Valea Rusului</name><description>Nume: Valea Rusului, Tip: rus, Nivel: 3, Județ: Bacau, Formă: Vale, ID: 5301 <br /><b>Variante</b><br />Nume: Valea Rusului, Hartă: PDT, Limbă: Limba română</description><Point><coordinates>26.724885,46.135185,0</coordinates></Point></Placemark>
<Placemark><name>Pădurea Rusă</name><description>Nume: Pădurea Rusă, Tip: rusă, Nivel: 3, Județ: Bacau, Formă: Pădure, ID: 11541 <br /><b>Variante</b><br />Nume: Pădurea Rusă, Hartă: Geomil 25000, Limbă: Limba română</description><Point><coordinates>27.427971,46.252357,0</coordinates></Point></Placemark>
<Placemark><name>Fundul Rușilor</name><description>Nume: Fundul Rușilor, Tip: ruși, Nivel: 2, Județ: Bacau, Formă: Altele, ID: 11642 <br /><b>Variante</b><br />Nume: Fundul Rușilor, Hartă: Geomil 25000, Limbă: Limba română</description><Point><coordinates>26.672555,46.441842,0</coordinates></Point></Placemark>
<Placemark><name>La Ruși</name><description>Nume: La Ruși, Tip: ruși, Nivel: 2, Județ: Bacau, Formă: Altele, ID: 4576 <br /><b>Variante</b><br />Nume: La Ruși, Hartă: PDT, Limbă: Limba română</description><Point><coordinates>26.723310,46.250231,0</coordinates></Point></Placemark>
<Placemark><name>La Ruși</name><description>Nume: La Ruși, Tip: ruși, Nivel: 2, Județ: Bacau, Formă: Altele, ID: 5314 <br /><b>Variante</b><br />Nume: La Ruși, Hartă: Geomil 25000, Limbă: Limba română</description><Point><coordinates>26.732253,46.247905,0</coordinates></Point></Placemark>
<Placemark><name>Poiana Rușilor</name><description>Nume: Poiana Rușilor, Tip: ruși, Nivel: 2, Județ: Bacau, Formă: Poiană, ID: 6556 <br /><b>Variante</b><br />Nume: Poiana Rușilor, Hartă: PDT, Limbă: Limba română</description><Point><coordinates>26.162057,46.458590,0</coordinates></Point></Placemark>
<Placemark><name>Ruși</name><description>Nume: Ruși, Tip: ruși, Nivel: 2, Județ: Bacau, Formă: Localitate, ID: 9518 <br /><b>Variante</b><br />Nume: Ruși, Hartă: Moldova (1892-1898), Limbă: Limba română<br />Nume: Ruși-Ciutea, Hartă: Geomil 25000, Limbă: Limba română</description><Point><coordinates>26.956690,46.521347,0</coordinates></Point></Placemark>
<Placemark><name>Șesul Rușilor</name><description>Nume: Șesul Rușilor, Tip: ruși, Nivel: 2, Județ: Bacau, Formă: Câmp, ID: 1614 <br /><b>Variante</b><br />Nume: Șesul Rușilor, Hartă: Geomil 25000, Limbă: Limba română</description><Point><coordinates>27.087590,46.714069,0</coordinates></Point></Placemark>
<Placemark><name>Pădurea Sârbului</name><description>Nume: Pădurea Sârbului, Tip: sârb, Nivel: 3, Județ: Bacau, Formă: Pădure, ID: 7865 <br /><b>Variante</b><br />Nume: Pădurea Sârbului, Hartă: Geomil 25000, Limbă: Limba română</description><Point><coordinates>27.239370,46.511892,0</coordinates></Point></Placemark>
<Placemark><name>Sârbu</name><description>Nume: Sârbu, Tip: sârb, Nivel: 3, Județ: Bacau, Formă: Altele, ID: 5312 <br /><b>Variante</b><br />Nume: Sârbu, Hartă: Geomil 25000, Limbă: Limba română</description><Point><coordinates>26.663360,46.169728,0</coordinates></Point></Placemark>
<Placemark><name>Sârba</name><description>Nume: Sârba, Tip: sârba, Nivel: 3, Județ: Bacau, Formă: Localitate, ID: 9526 <br /><b>Variante</b><br />Nume: Sârba, Hartă: Moldova (1892-1898), Limbă: Limba română</description><Point><coordinates>27.243993,46.262801,0</coordinates></Point></Placemark>
<Placemark><name>Dealul Sârbilor</name><description>Nume: Dealul Sârbilor, Tip: sârbi, Nivel: 2, Județ: Bacau, Formă: Deal, ID: 9169 <br /><b>Variante</b><br />Nume: Dealul Sârbilor, Hartă: Geomil 25000, Limbă: Limba română</description><Point><coordinates>26.692382,46.537562,0</coordinates></Point></Placemark>
<Placemark><name>Sârbi</name><description>Nume: Sârbi, Tip: sârbi, Nivel: 2, Județ: Bacau, Formă: Localitate, ID: 7893 <br /><b>Variante</b><br />Nume: Sârbi, Hartă: PDT, Limbă: Limba română<br />Nume: Sârbi, Hartă: Geomil 25000, Limbă: Limba română</description><Point><coordinates>27.332108,46.228070,0</coordinates></Point></Placemark>
<Placemark><name>Valea Sârbilor</name><description>Nume: Valea Sârbilor, Tip: sârbi, Nivel: 2, Județ: Bacau, Formă: Vale, ID: 3926 <br /><b>Variante</b><br />Nume: Valea Sârbilor, Hartă: Geomil 25000, Limbă: Limba română<br />Nume: Valea Sârbilor, Hartă: PDT, Limbă: Limba română</description><Point><coordinates>27.224409,46.187061,0</coordinates></Point></Placemark>
<Placemark><name>Valea Sârbilor</name><description>Nume: Valea Sârbilor, Tip: sârbi, Nivel: 2, Județ: Bacau, Formă: Vale, ID: 12344 <br /><b>Variante</b><br />Nume: Valea Sârbilor, Hartă: PDT, Limbă: Limba română</description><Point><coordinates>26.718991,46.563018,0</coordinates></Point></Placemark>
<Placemark><name>Sârboaia</name><description>Nume: Sârboaia, Tip: sârboaia, Nivel: 3, Județ: Bacau, Formă: Vale, ID: 13600 <br /><b>Variante</b><br />Nume: Sârboaia, Hartă: Geomil 25000, Limbă: Limba română</description><Point><coordinates>26.880111,46.296847,0</coordinates></Point></Placemark>
<Placemark><name>Sasu</name><description>Nume: Sasu, Tip: sas, Nivel: 4, Județ: Bacau, Formă: Localitate, ID: 13642 <br /><b>Variante</b><br />Nume: Sasu, Hartă: Moldova (1892-1898), Limbă: Limba română</description><Point><coordinates>27.040591,46.685866,0</coordinates></Point></Placemark>
<Placemark><name>Sasul</name><description>Nume: Sasul, Tip: sas, Nivel: 4, Județ: Bacau, Formă: Vale, ID: 13851 <br /><b>Variante</b><br />Nume: Sasul, Hartă: Geomil 25000, Limbă: Limba română</description><Point><coordinates>26.434156,46.216040,0</coordinates></Point></Placemark>
<Placemark><name>Poiana Tătarului</name><description>Nume: Poiana Tătarului, Tip: tătar, Nivel: 3, Județ: Bacau, Formă: Poiană, ID: 13286 <br /><b>Variante</b><br />Nume: Poiana Tătarului, Hartă: Moldova (1892-1898), Limbă: Limba română</description><Point><coordinates>26.802157,46.520609,0</coordinates></Point></Placemark>
<Placemark><name>Tătărăști</name><description>Nume: Tătărăști, Tip: tătărăști, Nivel: 3, Județ: Bacau, Formă: Localitate, ID: 7845 <br /><b>Variante</b><br />Nume: Tătărăști, Hartă: Geomil 25000, Limbă: Limba română</description><Point><coordinates>27.201590,46.219180,0</coordinates></Point></Placemark>
<Placemark><name>Dealul Turcului</name><description>Nume: Dealul Turcului, Tip: turc, Nivel: 3, Județ: Bacau, Formă: Deal, ID: 9520 <br /><b>Variante</b><br />Nume: Dealul Turcului, Hartă: Moldova (1892-1898), Limbă: Limba română</description><Point><coordinates>27.128612,46.486693,0</coordinates></Point></Placemark>
<Placemark><name>Dealul Turcului</name><description>Nume: Dealul Turcului, Tip: turc, Nivel: 3, Județ: Bacau, Formă: Deal, ID: 9670 <br /><b>Variante</b><br />Nume: Dealul Turcului, Hartă: Moldova (1892-1898), Limbă: Limba română</description><Point><coordinates>26.818302,46.412190,0</coordinates></Point></Placemark>
<Placemark><name>La Podu Turcului</name><description>Nume: La Podu Turcului, Tip: turc, Nivel: 3, Județ: Bacau, Formă: Altele, ID: 3818 <br /><b>Variante</b><br />Nume: La Podu Turcului, Hartă: PDT, Limbă: Limba română</description><Point><coordinates>26.911581,46.459401,0</coordinates></Point></Placemark>
<Placemark><name>Podu Turcului</name><description>Nume: Podu Turcului, Tip: turc, Nivel: 3, Județ: Bacau, Formă: Localitate, ID: 1712 <br /><b>Variante</b><br />Nume: Podu Turcului, Hartă: Geomil 25000, Limbă: Limba română</description><Point><coordinates>27.385425,46.203997,0</coordinates></Point></Placemark>
<Placemark><name>Valea Turcului</name><description>Nume: Valea Turcului, Tip: turc, Nivel: 3, Județ: Bacau, Formă: Vale, ID: 11644 <br /><b>Variante</b><br />Nume: Valea Turcului, Hartă: Geomil 25000, Limbă: Limba română</description><Point><coordinates>26.815293,46.377197,0</coordinates></Point></Placemark>
<Placemark><name>Dealul Turcilor</name><description>Nume: Dealul Turcilor, Tip: turci, Nivel: 2, Județ: Bacau, Formă: Deal, ID: 4575 <br /><b>Variante</b><br />Nume: Dealul Turcilor, Hartă: PDT, Limbă: Limba română</description><Point><coordinates>26.669893,46.247686,0</coordinates></Point></Placemark>
<Placemark><name>Pârâul Turcilor</name><description>Nume: Pârâul Turcilor, Tip: turci, Nivel: 2, Județ: Bacau, Formă: Vale, ID: 13285 <br /><b>Variante</b><br />Nume: Pârâul Turcilor, Hartă: Geomil 25000, Limbă: Limba română</description><Point><coordinates>26.059382,46.644735,0</coordinates></Point></Placemark>
<Placemark><name>Dealul Ungurului</name><description>Nume: Dealul Ungurului, Tip: ungur, Nivel: 3, Județ: Bacau, Formă: Deal, ID: 1607 <br /><b>Variante</b><br />Nume: Dealul Ungurului, Hartă: Geomil 25000, Limbă: Limba română</description><Point><coordinates>27.148272,46.737633,0</coordinates></Point></Placemark>
<Placemark><name>Dealul Ungurului</name><description>Nume: Dealul Ungurului, Tip: ungur, Nivel: 3, Județ: Bacau, Formă: Deal, ID: 2045 <br /><b>Variante</b><br />Nume: Dealul Ungurului, Hartă: Geomil 25000, Limbă: Limba română<br />Nume: Dealul Ungurului, Hartă: PDT, Limbă: Limba română</description><Point><coordinates>26.735941,46.712117,0</coordinates></Point></Placemark>
<Placemark><name>Dealul Ungurului</name><description>Nume: Dealul Ungurului, Tip: ungur, Nivel: 3, Județ: Bacau, Formă: Deal, ID: 4578 <br /><b>Variante</b><br />Nume: Dealul Ungurului, Hartă: Geomil 25000, Limbă: Limba română</description><Point><coordinates>26.685854,46.336642,0</coordinates></Point></Placemark>
<Placemark><name>Poiana Ungurului</name><description>Nume: Poiana Ungurului, Tip: ungur, Nivel: 3, Județ: Bacau, Formă: Poiană, ID: 3829 <br /><b>Variante</b><br />Nume: Poiana Ungurului, Hartă: Geomil 25000, Limbă: Limba română</description><Point><coordinates>26.658909,46.633162,0</coordinates></Point></Placemark>
<Placemark><name>Dealul Ungurașului</name><description>Nume: Dealul Ungurașului, Tip: unguraș, Nivel: 3, Județ: Bacau, Formă: Deal, ID: 7836 <br /><b>Variante</b><br />Nume: Dealul Ungurașului, Hartă: Geomil 25000, Limbă: Limba română</description><Point><coordinates>26.885431,46.270115,0</coordinates></Point></Placemark>
<Placemark><name>Unguri</name><description>Nume: Unguri, Tip: unguri, Nivel: 2, Județ: Bacau, Formă: Localitate, ID: 7888 <br /><b>Variante</b><br />Nume: Unguri, Hartă: PDT, Limbă: Limba română</description><Point><coordinates>27.186286,46.351948,0</coordinates></Point></Placemark>
<Placemark><name>Unguri ok Lunka Mare</name><description>Nume: Unguri ok Lunka Mare, Tip: unguri, Nivel: 2, Județ: Bacau, Formă: Localitate, ID: 12031 <br /><b>Variante</b><br />Nume: Unguri ok Lunka Mare, Hartă: Moldova (1788-1790), Limbă: Limba română</description><Point><coordinates>26.933599,46.404213,0</coordinates></Point></Placemark>
<Placemark><name>Valea Ungurilor</name><description>Nume: Valea Ungurilor, Tip: unguri, Nivel: 2, Județ: Bacau, Formă: Vale, ID: 7885 <br /><b>Variante</b><br />Nume: Valea Ungurilor, Hartă: PDT, Limbă: Limba română</description><Point><coordinates>27.104307,46.351508,0</coordinates></Point></Placemark>
<Placemark><name>Dealul Grecului</name><description>Nume: Dealul Grecului, Tip: grec, Nivel: 3, Județ: Bihor, Formă: Deal, ID: 10273 <br /><b>Variante</b><br />Nume: Dealul Grecului, Hartă: PDT, Limbă: Limba română<br />Nume: Jrtașu Grekului, Hartă: Ungară 1869, Limbă: Limba română</description><Point><coordinates>22.518575,46.976798,0</coordinates></Point></Placemark>
<Placemark><name>Râtul Grecului</name><description>Nume: Râtul Grecului, Tip: grec, Nivel: 3, Județ: Bihor, Formă: Altele, ID: 4139 <br /><b>Variante</b><br />Nume: Râtul Grecului, Hartă: PDT, Limbă: Limba română</description><Point><coordinates>22.172071,46.849788,0</coordinates></Point></Placemark>
<Placemark><name>Valea Maghiar</name><description>Nume: Valea Maghiar, Tip: maghiar, Nivel: 3, Județ: Bihor, Formă: Vale, ID: 7671 <br /><b>Variante</b><br />Nume: Valea Maghiar, Hartă: PDT, Limbă: Limba română</description><Point><coordinates>22.488844,47.367305,0</coordinates></Point></Placemark>
<Placemark><name>Coliba Neamțului</name><description>Nume: Coliba Neamțului, Tip: neamț, Nivel: 4, Județ: Bihor, Formă: Altele, ID: 4180 <br /><b>Variante</b><br />Nume: Coliba Neamțului, Hartă: PDT, Limbă: Limba română</description><Point><coordinates>22.360295,47.173596,0</coordinates></Point></Placemark>
<Placemark><name>Pârâul Neamțului</name><description>Nume: Pârâul Neamțului, Tip: neamț, Nivel: 4, Județ: Bihor, Formă: Vale, ID: 4112 <br /><b>Variante</b><br />Nume: Pârâul Neamțului, Hartă: PDT, Limbă: Limba română</description><Point><coordinates>22.035064,46.660198,0</coordinates></Point></Placemark>
<Placemark><name>Pârâul Neamțului</name><description>Nume: Pârâul Neamțului, Tip: neamț, Nivel: 4, Județ: Bihor, Formă: Vale, ID: 5627 <br /><b>Variante</b><br />Nume: Pârâul Neamțului, Hartă: Geomil 25000, Limbă: Limba română</description><Point><coordinates>22.513321,46.411536,0</coordinates></Point></Placemark>
<Placemark><name>Oláh Gyantha</name><description>Nume: Oláh Gyantha, Tip: oláh, Nivel: 3, Județ: Bihor, Formă: Localitate, ID: 12138 <br /><b>Variante</b><br />Nume: Oláh Gyantha, Hartă: Ungaria (1782–1785), Limbă: Limba maghiară</description><Point><coordinates>22.097383,46.740687,0</coordinates></Point></Placemark>
<Placemark><name>Oláh hegy (Dealul Românului)</name><description>Nume: Oláh hegy (Dealul Românului), Tip: oláh, Nivel: 3, Județ: Bihor, Formă: Deal, ID: 11866 <br /><b>Variante</b><br />Nume: Oláh hegy (Dealul Românului), Hartă: Imperiul Habsburgic (1887), Limbă: Limba maghiară</description><Point><coordinates>22.191760,47.325989,0</coordinates></Point></Placemark>
<Placemark><name>Româneasa</name><description>Nume: Româneasa, Tip: româneasă, Nivel: 3, Județ: Bihor, Formă: Înălțime, ID: 5622 <br /><b>Variante</b><br />Nume: Româneasa, Hartă: PDT, Limbă: Limba română<br />Nume: Rumâneasa, Hartă: Geomil 25000, Limbă: Limba română</description><Point><coordinates>22.596142,46.594642,0</coordinates></Point></Placemark>
<Placemark><name>Viile Românești</name><description>Nume: Viile Românești, Tip: românești, Nivel: 3, Județ: Bihor, Formă: Altele, ID: 4183 <br /><b>Variante</b><br />Nume: Viile Românești, Hartă: PDT, Limbă: Limba română</description><Point><coordinates>22.114188,47.105088,0</coordinates></Point></Placemark>
<Placemark><name>Dâmbu Rusului</name><description>Nume: Dâmbu Rusului, Tip: rus, Nivel: 3, Județ: Bihor, Formă: Înălțime, ID: 7004 <br /><b>Variante</b><br />Nume: Dâmbu Rusului, Hartă: Geomil 25000, Limbă: Limba română</description><Point><coordinates>22.536164,46.537622,0</coordinates></Point></Placemark>
<Placemark><name>Valea Sârbul</name><description>Nume: Valea Sârbul, Tip: sârb, Nivel: 3, Județ: Bihor, Formă: Vale, ID: 12350 <br /><b>Variante</b><br />Nume: Valea Sârbul, Hartă: PDT, Limbă: Limba română</description><Point><coordinates>22.535730,46.996469,0</coordinates></Point></Placemark>
<Placemark><name>Sârbești</name><description>Nume: Sârbești, Tip: sârbești, Nivel: 3, Județ: Bihor, Formă: Localitate, ID: 7001 <br /><b>Variante</b><br />Nume: Sârbești, Hartă: Geomil 25000, Limbă: Limba română</description><Point><coordinates>22.484663,46.501764,0</coordinates></Point></Placemark>
<Placemark><name>Sârbi</name><description>Nume: Sârbi, Tip: sârbi, Nivel: 2, Județ: Bihor, Formă: Localitate, ID: 11506 <br /><b>Variante</b><br />Nume: Sârbi, Hartă: Geomil 25000, Limbă: Limba română</description><Point><coordinates>22.117592,47.191776,0</coordinates></Point></Placemark>
<Placemark><name>Poiana Sasului</name><description>Nume: Poiana Sasului, Tip: sas, Nivel: 4, Județ: Bihor, Formă: Poiană, ID: 979 <br /><b>Variante</b><br />Nume: Poiana Sasului, Hartă: Geomil 25000, Limbă: Limba română<br />Nume: Poiana Sasului, Hartă: PDT, Limbă: Limba română</description><Point><coordinates>22.181573,46.547876,0</coordinates></Point></Placemark>
<Placemark><name>Szászfalva (Satul Sasului)</name><description>Nume: Szászfalva (Satul Sasului), Tip: sas, Nivel: 4, Județ: Bihor, Formă: Localitate, ID: 10272 <br /><b>Variante</b><br />Nume: Szászfalva (Satul Sasului), Hartă: Ungară 1869, Limbă: Limba maghiară</description><Point><coordinates>22.448533,47.010263,0</coordinates></Point></Placemark>
<Placemark><name>Valea Sasului</name><description>Nume: Valea Sasului, Tip: sas, Nivel: 4, Județ: Bihor, Formă: Vale, ID: 1075 <br /><b>Variante</b><br />Nume: Valea Sasului, Hartă: Geomil 25000, Limbă: Limba română<br />Nume: Valea Sasului, Hartă: PDT, Limbă: Limba română</description><Point><coordinates>22.548973,46.989674,0</coordinates></Point></Placemark>
<Placemark><name>Sváb-Olaszi</name><description>Nume: Sváb-Olaszi, Tip: șvab, Nivel: 3, Județ: Bihor, Formă: Localitate, ID: 12142 <br /><b>Variante</b><br />Nume: Sváb-Olaszi, Hartă: Ungaria (1782–1785), Limbă: Limba maghiară</description><Point><coordinates>22.172547,47.352510,0</coordinates></Point></Placemark>
<Placemark><name>Dâmbul Șvabilor</name><description>Nume: Dâmbul Șvabilor, Tip: șvabi, Nivel: 4, Județ: Bihor, Formă: Înălțime, ID: 7585 <br /><b>Variante</b><br />Nume: Dâmbul Șvabilor, Hartă: PDT, Limbă: Limba română</description><Point><coordinates>22.081411,47.298462,0</coordinates></Point></Placemark>
<Placemark><name>Tătărasca</name><description>Nume: Tătărasca, Tip: tătărasca, Nivel: 3, Județ: Bihor, Formă: Lac, ID: 12044 <br /><b>Variante</b><br />Nume: Tătărasca, Hartă: PDT, Limbă: Limba română</description><Point><coordinates>22.437279,46.548058,0</coordinates></Point></Placemark>
<Placemark><name>Tătăroaia</name><description>Nume: Tătăroaia, Tip: tătăroaie, Nivel: 3, Județ: Bihor, Formă: Înălțime, ID: 1003 <br /><b>Variante</b><br />Nume: Tătăroaia, Hartă: Geomil 25000, Limbă: Limba română</description><Point><coordinates>22.618240,46.563058,0</coordinates></Point></Placemark>
<Placemark><name>Tăut</name><description>Nume: Tăut, Tip: tăut, Nivel: 4, Județ: Bihor, Formă: Localitate, ID: 5987 <br /><b>Variante</b><br />Nume: Tăut, Hartă: Geomil 25000, Limbă: Limba română</description><Point><coordinates>21.838232,46.719646,0</coordinates></Point></Placemark>
<Placemark><name>Valea Tăuțului</name><description>Nume: Valea Tăuțului, Tip: tăuț, Nivel: 4, Județ: Bihor, Formă: Vale, ID: 6999 <br /><b>Variante</b><br />Nume: Valea Tăuțului, Hartă: Geomil 25000, Limbă: Limba română</description><Point><coordinates>22.300397,46.535077,0</coordinates></Point></Placemark>
<Placemark><name>Kis Tótfalu</name><description>Nume: Kis Tótfalu, Tip: tót, Nivel: 3, Județ: Bihor, Formă: Localitate, ID: 13666 <br /><b>Variante</b><br />Nume: Kis Tótfalu, Hartă: Ungară 1869, Limbă: Limba maghiară</description><Point><coordinates>22.218077,47.175438,0</coordinates></Point></Placemark>
<Placemark><name>Dâmbul Turcului</name><description>Nume: Dâmbul Turcului, Tip: turc, Nivel: 3, Județ: Bihor, Formă: Înălțime, ID: 4173 <br /><b>Variante</b><br />Nume: Dâmbul Turcului, Hartă: PDT, Limbă: Limba română<br />Nume: Palantu Turcului, Hartă: Geomil 25000, Limbă: Limba română</description><Point><coordinates>22.370754,47.072137,0</coordinates></Point></Placemark>
<Placemark><name>Dealul Turcului</name><description>Nume: Dealul Turcului, Tip: turc, Nivel: 3, Județ: Bihor, Formă: Deal, ID: 4076 <br /><b>Variante</b><br />Nume: Dealul Turcului, Hartă: PDT, Limbă: Limba română<br />Nume: Dealu Turcului, Hartă: Geomil 25000, Limbă: Limba română</description><Point><coordinates>22.404383,46.578539,0</coordinates></Point></Placemark>
<Placemark><name>La Moara Turcului</name><description>Nume: La Moara Turcului, Tip: turc, Nivel: 3, Județ: Bihor, Formă: Altele, ID: 5919 <br /><b>Variante</b><br />Nume: Moartea Turcului, Hartă: Geomil 25000, Limbă: Limba română<br />Nume: La Moara Turcului, Hartă: PDT, Limbă: Limba română</description><Point><coordinates>22.105121,47.153066,0</coordinates></Point></Placemark>
<Placemark><name>Râtu Turcului</name><description>Nume: Râtu Turcului, Tip: turc, Nivel: 3, Județ: Bihor, Formă: Altele, ID: 4176 <br /><b>Variante</b><br />Nume: Râtu Turcului, Hartă: Geomil 25000, Limbă: Limba română</description><Point><coordinates>22.403807,47.129527,0</coordinates></Point></Placemark>
<Placemark><name>Râtul Turcului</name><description>Nume: Râtul Turcului, Tip: turc, Nivel: 3, Județ: Bihor, Formă: Altele, ID: 8201 <br /><b>Variante</b><br />Nume: Râtul Turcului, Hartă: PDT, Limbă: Limba română</description><Point><coordinates>22.393183,47.105065,0</coordinates></Point></Placemark>
<Placemark><name>Șanțu Turcilor</name><description>Nume: Șanțu Turcilor, Tip: turci, Nivel: 2, Județ: Bihor, Formă: Altele, ID: 7583 <br /><b>Variante</b><br />Nume: Șanțu Turcilor, Hartă: Geomil 25000, Limbă: Limba română</description><Point><coordinates>21.929535,47.169755,0</coordinates></Point></Placemark>
<Placemark><name>Valea Ungurului</name><description>Nume: Valea Ungurului, Tip: ungur, Nivel: 3, Județ: Bihor, Formă: Vale, ID: 1084 <br /><b>Variante</b><br />Nume: Valea Ungurului, Hartă: Geomil 25000, Limbă: Limba română</description><Point><coordinates>22.061595,46.894832,0</coordinates></Point></Placemark>
<Placemark><name>Ungureasca</name><description>Nume: Ungureasca, Tip: ungureasca, Nivel: 3, Județ: Bihor, Formă: Altele, ID: 985 <br /><b>Variante</b><br />Nume: Ungureasca, Hartă: Geomil 25000, Limbă: Limba română</description><Point><coordinates>22.209263,46.677003,0</coordinates></Point></Placemark>
<Placemark><name>Ungurești</name><description>Nume: Ungurești, Tip: ungurești, Nivel: 3, Județ: Bihor, Formă: Altele, ID: 10280 <br /><b>Variante</b><br />Nume: Ungurești, Hartă: PDT, Limbă: Limba română</description><Point><coordinates>22.624352,46.892527,0</coordinates></Point></Placemark>
<Placemark><name>Viile Ungurești</name><description>Nume: Viile Ungurești, Tip: ungurești, Nivel: 3, Județ: Bihor, Formă: Altele, ID: 4184 <br /><b>Variante</b><br />Nume: Viile Ungurești, Hartă: PDT, Limbă: Limba română</description><Point><coordinates>22.094802,47.095666,0</coordinates></Point></Placemark>
<Placemark><name>Valea Ungurilor</name><description>Nume: Valea Ungurilor, Tip: unguri, Nivel: 2, Județ: Bihor, Formă: Vale, ID: 10271 <br /><b>Variante</b><br />Nume: Valea Ungurilor, Hartă: Geomil 25000, Limbă: Limba română</description><Point><coordinates>22.296006,47.040186,0</coordinates></Point></Placemark>
<Placemark><name>Armenischer Brunnen (Fântâna Armeanului)</name><description>Nume: Armenischer Brunnen (Fântâna Armeanului), Tip: armean, Nivel: 3, Județ: Bistrita Nasaud, Formă: Altele, ID: 10580 <br /><b>Variante</b><br />Nume: Armenischer Brunnen (Fântâna Armeanului), Hartă: Imperiul Habsburgic (1887), Limbă: Limba germană</description><Point><coordinates>24.403341,47.012794,0</coordinates></Point></Placemark>
<Placemark><name>Fântâna Armeanului</name><description>Nume: Fântâna Armeanului, Tip: armean, Nivel: 3, Județ: Bistrita Nasaud, Formă: Altele, ID: 2083 <br /><b>Variante</b><br />Nume: Fântâna Armeanului, Hartă: Geomil 25000, Limbă: Limba română</description><Point><coordinates>24.607648,47.032986,0</coordinates></Point></Placemark>
<Placemark><name>Jidovul</name><description>Nume: Jidovul, Tip: jidov, Nivel: 3, Județ: Bistrita Nasaud, Formă: Vale, ID: 12893 <br /><b>Variante</b><br />Nume: Jidovul, Hartă: Geomil 25000, Limbă: Limba română</description><Point><coordinates>25.018067,47.456813,0</coordinates></Point></Placemark>
<Placemark><name>Șieu-Măgheruș</name><description>Nume: Șieu-Măgheruș, Tip: măgheruș, Nivel: 3, Județ: Bistrita Nasaud, Formă: Localitate, ID: 10464 <br /><b>Variante</b><br />Nume: Șieu-Măgheruș, Hartă: Geomil 25000, Limbă: Limba română</description><Point><coordinates>24.374726,47.090815,0</coordinates></Point></Placemark>
<Placemark><name>Dealul Neamțului</name><description>Nume: Dealul Neamțului, Tip: neamț, Nivel: 4, Județ: Bistrita Nasaud, Formă: Deal, ID: 5471 <br /><b>Variante</b><br />Nume: Dealul Neamțului, Hartă: PDT, Limbă: Limba română<br />Nume: Dealul Neamțului, Hartă: Geomil 25000, Limbă: Limba română</description><Point><coordinates>24.398777,46.869380,0</coordinates></Point></Placemark>
<Placemark><name>Dealul Neamțului</name><description>Nume: Dealul Neamțului, Tip: neamț, Nivel: 4, Județ: Bistrita Nasaud, Formă: Deal, ID: 9916 <br /><b>Variante</b><br />Nume: Dealul Neamțului, Hartă: Geomil 25000, Limbă: Limba română</description><Point><coordinates>24.800723,47.393856,0</coordinates></Point></Placemark>
<Placemark><name>Poiana Neamțului</name><description>Nume: Poiana Neamțului, Tip: neamț, Nivel: 4, Județ: Bistrita Nasaud, Formă: Poiană, ID: 1022 <br /><b>Variante</b><br />Nume: Poiana Neamțului, Hartă: Geomil 25000, Limbă: Limba română</description><Point><coordinates>24.431854,47.406480,0</coordinates></Point></Placemark>
<Placemark><name>Olah Budak</name><description>Nume: Olah Budak, Tip: oláh, Nivel: 3, Județ: Bistrita Nasaud, Formă: Localitate, ID: 14476 <br /><b>Variante</b><br />Nume: Olah Budak, Hartă: Transilvania (1769-1773), Limbă: Limba română</description><Point><coordinates>24.537323,47.082364,0</coordinates></Point></Placemark>
<Placemark><name>Mințiu Român</name><description>Nume: Mințiu Român, Tip: român, Nivel: 3, Județ: Bistrita Nasaud, Formă: Localitate, ID: 7126 <br /><b>Variante</b><br />Nume: Mințiu Român, Hartă: PDT, Limbă: Limba română</description><Point><coordinates>24.352164,47.237033,0</coordinates></Point></Placemark>
<Placemark><name>Nimigea română</name><description>Nume: Nimigea română, Tip: română, Nivel: 3, Județ: Bistrita Nasaud, Formă: Localitate, ID: 10586 <br /><b>Variante</b><br />Nume: Nimigea română, Hartă: Imperiul Habsburgic (1887), Limbă: Limba română</description><Point><coordinates>24.328119,47.275233,0</coordinates></Point></Placemark>
<Placemark><name>Valea Româneasa</name><description>Nume: Valea Româneasa, Tip: româneasă, Nivel: 3, Județ: Bistrita Nasaud, Formă: Vale, ID: 11994 <br /><b>Variante</b><br />Nume: Valea Româneasa, Hartă: ANCPI, Limbă: Limba română</description><Point><coordinates>24.229008,47.409946,0</coordinates></Point></Placemark>
<Placemark><name>Budacu Românesc</name><description>Nume: Budacu Românesc, Tip: românesc, Nivel: 3, Județ: Bistrita Nasaud, Formă: Localitate, ID: 10640 <br /><b>Variante</b><br />Nume: Budacu Românesc, Hartă: Imperiul Habsburgic (1887), Limbă: Limba română</description><Point><coordinates>24.657279,47.061494,0</coordinates></Point></Placemark>
<Placemark><name>Culmea Rusului</name><description>Nume: Culmea Rusului, Tip: rus, Nivel: 3, Județ: Bistrita Nasaud, Formă: Înălțime, ID: 9880 <br /><b>Variante</b><br />Nume: Culmea Rusului, Hartă: Geomil 25000, Limbă: Limba română</description><Point><coordinates>24.981206,47.307568,0</coordinates></Point></Placemark>
<Placemark><name>Dealul Rusului</name><description>Nume: Dealul Rusului, Tip: rus, Nivel: 3, Județ: Bistrita Nasaud, Formă: Deal, ID: 9888 <br /><b>Variante</b><br />Nume: Dealul Rusului, Hartă: Geomil 25000, Limbă: Limba română</description><Point><coordinates>24.853001,47.221627,0</coordinates></Point></Placemark>
<Placemark><name>Rusu de Sus</name><description>Nume: Rusu de Sus, Tip: rus, Nivel: 3, Județ: Bistrita Nasaud, Formă: Localitate, ID: 10468 <br /><b>Variante</b><br />Nume: Rusu de Sus, Hartă: Geomil 25000, Limbă: Limba română</description><Point><coordinates>24.179892,47.121781,0</coordinates></Point></Placemark>
<Placemark><name>Rusul Bârgăului</name><description>Nume: Rusul Bârgăului, Tip: rus, Nivel: 3, Județ: Bistrita Nasaud, Formă: Localitate, ID: 9908 <br /><b>Variante</b><br />Nume: Rusul Bârgăului, Hartă: PDT, Limbă: Limba română</description><Point><coordinates>24.637900,47.196769,0</coordinates></Point></Placemark>
<Placemark><name>Valea Rusului</name><description>Nume: Valea Rusului, Tip: rus, Nivel: 3, Județ: Bistrita Nasaud, Formă: Vale, ID: 4513 <br /><b>Variante</b><br />Nume: Valea Rusului, Hartă: Geomil 25000, Limbă: Limba română</description><Point><coordinates>24.500802,47.174974,0</coordinates></Point></Placemark>
<Placemark><name>Valea Rusului</name><description>Nume: Valea Rusului, Tip: rus, Nivel: 3, Județ: Bistrita Nasaud, Formă: Vale, ID: 9869 <br /><b>Variante</b><br />Nume: Valea Rusului, Hartă: PDT, Limbă: Limba română</description><Point><coordinates>24.544943,47.323437,0</coordinates></Point></Placemark>
<Placemark><name>Dealul Sasului</name><description>Nume: Dealul Sasului, Tip: sas, Nivel: 4, Județ: Bistrita Nasaud, Formă: Deal, ID: 7118 <br /><b>Variante</b><br />Nume: Dealul Sasului, Hartă: Geomil 25000, Limbă: Limba română</description><Point><coordinates>24.369222,47.233873,0</coordinates></Point></Placemark>
<Placemark><name>Dealul Sasului</name><description>Nume: Dealul Sasului, Tip: sas, Nivel: 4, Județ: Bistrita Nasaud, Formă: Deal, ID: 10583 <br /><b>Variante</b><br />Nume: Dealul Sasului, Hartă: Imperiul Habsburgic (1887), Limbă: Limba română</description><Point><coordinates>24.565007,47.281064,0</coordinates></Point></Placemark>
<Placemark><name>Dealul Sasului</name><description>Nume: Dealul Sasului, Tip: sas, Nivel: 4, Județ: Bistrita Nasaud, Formă: Deal, ID: 14160 <br /><b>Variante</b><br />Nume: Dealul Sasului, Hartă: Geomil 25000, Limbă: Limba română</description><Point><coordinates>24.060200,47.168313,0</coordinates></Point></Placemark>
<Placemark><name>Dialu sasului</name><description>Nume: Dialu sasului, Tip: sas, Nivel: 4, Județ: Bistrita Nasaud, Formă: Deal, ID: 10496 <br /><b>Variante</b><br />Nume: Dialu sasului, Hartă: Transilvania (1869-1870), Limbă: Limba română</description><Point><coordinates>24.209680,47.219000,0</coordinates></Point></Placemark>
<Placemark><name>Moara Sasului</name><description>Nume: Moara Sasului, Tip: sas, Nivel: 4, Județ: Bistrita Nasaud, Formă: Altele, ID: 7112 <br /><b>Variante</b><br />Nume: Moara Sasului, Hartă: PDT, Limbă: Limba română<br />Nume: La Moara Sasului, Hartă: Geomil 25000, Limbă: Limba română</description><Point><coordinates>24.268377,47.300906,0</coordinates></Point></Placemark>
<Placemark><name>Valea Sasului</name><description>Nume: Valea Sasului, Tip: sas, Nivel: 4, Județ: Bistrita Nasaud, Formă: Vale, ID: 4500 <br /><b>Variante</b><br />Nume: Valea Sasului, Hartă: Geomil 25000, Limbă: Limba română</description><Point><coordinates>24.255397,47.260317,0</coordinates></Point></Placemark>
<Placemark><name>Szász Cegő</name><description>Nume: Szász Cegő, Tip: săsesc, Nivel: 4, Județ: Bistrita Nasaud, Formă: Localitate, ID: 10465 <br /><b>Variante</b><br />Nume: Szász Cegő, Hartă: Transilvania (1869-1870), Limbă: Limba maghiară</description><Point><coordinates>24.332263,47.069246,0</coordinates></Point></Placemark>
<Placemark><name>Szasz Budak</name><description>Nume: Szasz Budak, Tip: szász, Nivel: 4, Județ: Bistrita Nasaud, Formă: Localitate, ID: 14477 <br /><b>Variante</b><br />Nume: Szasz Budak, Hartă: Transilvania (1769-1773), Limbă: Limba română</description><Point><coordinates>24.521906,47.089700,0</coordinates></Point></Placemark>
<Placemark><name>Szasz Uj Öss</name><description>Nume: Szasz Uj Öss, Tip: szász, Nivel: 4, Județ: Bistrita Nasaud, Formă: Localitate, ID: 14481 <br /><b>Variante</b><br />Nume: Szasz Uj Öss, Hartă: Transilvania (1769-1773), Limbă: Limba maghiară</description><Point><coordinates>24.272223,46.939109,0</coordinates></Point></Placemark>
<Placemark><name>Szasz Ujfalu</name><description>Nume: Szasz Ujfalu, Tip: szász, Nivel: 4, Județ: Bistrita Nasaud, Formă: Localitate, ID: 14479 <br /><b>Variante</b><br />Nume: Szasz Ujfalu, Hartă: Transilvania (1769-1773), Limbă: Limba maghiară</description><Point><coordinates>24.260648,47.021476,0</coordinates></Point></Placemark>
<Placemark><name>Szász-Bréte</name><description>Nume: Szász-Bréte, Tip: szász, Nivel: 4, Județ: Bistrita Nasaud, Formă: Localitate, ID: 10467 <br /><b>Variante</b><br />Nume: Szász-Bréte, Hartă: Transilvania (1869-1870), Limbă: Limba maghiară</description><Point><coordinates>24.242708,47.123970,0</coordinates></Point></Placemark>
<Placemark><name>Valea Tătarului</name><description>Nume: Valea Tătarului, Tip: tătar, Nivel: 3, Județ: Bistrita Nasaud, Formă: Vale, ID: 4521 <br /><b>Variante</b><br />Nume: Valea Tătarului, Hartă: Geomil 25000, Limbă: Limba română</description><Point><coordinates>24.627052,47.407141,0</coordinates></Point></Placemark>
<Placemark><name>Tătarca</name><description>Nume: Tătarca, Tip: tătarcă, Nivel: 4, Județ: Bistrita Nasaud, Formă: Înălțime, ID: 10642 <br /><b>Variante</b><br />Nume: Tătarca, Hartă: Geomil 25000, Limbă: Limba română</description><Point><coordinates>24.804241,47.158496,0</coordinates></Point></Placemark>
<Placemark><name>Țigla Tăutului</name><description>Nume: Țigla Tăutului, Tip: tăut, Nivel: 4, Județ: Bistrita Nasaud, Formă: Altele, ID: 5493 <br /><b>Variante</b><br />Nume: Țigla Tăutului, Hartă: Geomil 25000, Limbă: Limba română</description><Point><coordinates>24.257045,46.853366,0</coordinates></Point></Placemark>
<Placemark><name>Dealul Tăuți</name><description>Nume: Dealul Tăuți, Tip: tăuți, Nivel: 3, Județ: Bistrita Nasaud, Formă: Deal, ID: 5862 <br /><b>Variante</b><br />Nume: Dealul Tăuți, Hartă: Geomil 25000, Limbă: Limba română</description><Point><coordinates>24.151331,47.003282,0</coordinates></Point></Placemark>
<Placemark><name>Coasta Turcului</name><description>Nume: Coasta Turcului, Tip: turc, Nivel: 3, Județ: Bistrita Nasaud, Formă: Înălțime, ID: 13387 <br /><b>Variante</b><br />Nume: Coasta Turcului, Hartă: Imperiul Habsburgic (1887), Limbă: Limba română</description><Point><coordinates>24.288331,47.271569,0</coordinates></Point></Placemark>
<Placemark><name>Ungurul</name><description>Nume: Ungurul, Tip: ungur, Nivel: 3, Județ: Bistrita Nasaud, Formă: Vale, ID: 11103 <br /><b>Variante</b><br />Nume: Ungurul, Hartă: Geomil 25000, Limbă: Limba română</description><Point><coordinates>24.929540,47.247650,0</coordinates></Point></Placemark>
<Placemark><name>Ungurul</name><description>Nume: Ungurul, Tip: ungur, Nivel: 3, Județ: Bistrita Nasaud, Formă: Vale, ID: 12892 <br /><b>Variante</b><br />Nume: Ungurul, Hartă: Geomil 25000, Limbă: Limba română</description><Point><coordinates>25.005546,47.469570,0</coordinates></Point></Placemark>
<Placemark><name>Nimigea ungurească</name><description>Nume: Nimigea ungurească, Tip: ungureasca, Nivel: 3, Județ: Bistrita Nasaud, Formă: Localitate, ID: 10584 <br /><b>Variante</b><br />Nume: Nimigea ungurească, Hartă: Imperiul Habsburgic (1887), Limbă: Limba română</description><Point><coordinates>24.299990,47.253421,0</coordinates></Point></Placemark>
<Placemark><name>Via Ungurească</name><description>Nume: Via Ungurească, Tip: ungureasca, Nivel: 3, Județ: Bistrita Nasaud, Formă: Altele, ID: 9053 <br /><b>Variante</b><br />Nume: Via Ungurească, Hartă: PDT, Limbă: Limba română</description><Point><coordinates>24.414391,47.138158,0</coordinates></Point></Placemark>
<Placemark><name>Dealul Ungiurelului</name><description>Nume: Dealul Ungiurelului, Tip: ungurel, Nivel: 3, Județ: Bistrita Nasaud, Formă: Deal, ID: 10588 <br /><b>Variante</b><br />Nume: Dealul Ungiurelului, Hartă: Imperiul Habsburgic (1887), Limbă: Limba română</description><Point><coordinates>24.369756,47.306142,0</coordinates></Point></Placemark>
<Placemark><name>Vervu Unguriloru</name><description>Nume: Vervu Unguriloru, Tip: unguri, Nivel: 2, Județ: Bistrita Nasaud, Formă: Înălțime, ID: 10498 <br /><b>Variante</b><br />Nume: Vervu Unguriloru, Hartă: Transilvania (1869-1870), Limbă: Limba română</description><Point><coordinates>24.376502,47.263672,0</coordinates></Point></Placemark>
<Placemark><name>Dealul Armeanului</name><description>Nume: Dealul Armeanului, Tip: armean, Nivel: 3, Județ: Botosani, Formă: Deal, ID: 3563 <br /><b>Variante</b><br />Nume: Dealul Armeanului, Hartă: PDT, Limbă: Limba română</description><Point><coordinates>26.616343,47.779266,0</coordinates></Point></Placemark>
<Placemark><name>La Podul Armeanului</name><description>Nume: La Podul Armeanului, Tip: armean, Nivel: 3, Județ: Botosani, Formă: Altele, ID: 7263 <br /><b>Variante</b><br />Nume: La Podul Armeanului, Hartă: PDT, Limbă: Limba română</description><Point><coordinates>26.229903,48.002980,0</coordinates></Point></Placemark>
<Placemark><name>Movila Armeanului</name><description>Nume: Movila Armeanului, Tip: armean, Nivel: 3, Județ: Botosani, Formă: Înălțime, ID: 2367 <br /><b>Variante</b><br />Nume: Movila Armeanului, Hartă: Geomil 25000, Limbă: Limba română</description><Point><coordinates>27.153819,47.556874,0</coordinates></Point></Placemark>
<Placemark><name>Podu Armeanului</name><description>Nume: Podu Armeanului, Tip: armean, Nivel: 3, Județ: Botosani, Formă: Altele, ID: 7264 <br /><b>Variante</b><br />Nume: Podu Armeanului, Hartă: PDT, Limbă: Limba română</description><Point><coordinates>26.266161,47.975753,0</coordinates></Point></Placemark>
<Placemark><name>Valea Armeanului</name><description>Nume: Valea Armeanului, Tip: armean, Nivel: 3, Județ: Botosani, Formă: Vale, ID: 1813 <br /><b>Variante</b><br />Nume: Valea Armeanului, Hartă: Geomil 25000, Limbă: Limba română</description><Point><coordinates>26.648296,48.066157,0</coordinates></Point></Placemark>
<Placemark><name>Valea Armeanului</name><description>Nume: Valea Armeanului, Tip: armean, Nivel: 3, Județ: Botosani, Formă: Vale, ID: 2353 <br /><b>Variante</b><br />Nume: Valea Armeanului, Hartă: Geomil 25000, Limbă: Limba română<br />Nume: Valea Armeanului, Hartă: PDT, Limbă: Limba română</description><Point><coordinates>26.737974,47.780860,0</coordinates></Point></Placemark>
<Placemark><name>Fântâna Armencei</name><description>Nume: Fântâna Armencei, Tip: armeancă, Nivel: 3, Județ: Botosani, Formă: Altele, ID: 1810 <br /><b>Variante</b><br />Nume: Fântâna Armencei, Hartă: Geomil 25000, Limbă: Limba română</description><Point><coordinates>26.611042,48.147418,0</coordinates></Point></Placemark>
<Placemark><name>Valea Armeanca</name><description>Nume: Valea Armeanca, Tip: armeancă, Nivel: 3, Județ: Botosani, Formă: Vale, ID: 14590 <br /><b>Variante</b><br />Nume: Valea Armeanca, Hartă: PDT, Limbă: Limba română</description><Point><coordinates>26.922180,47.621569,0</coordinates></Point></Placemark>
<Placemark><name>Valea Armencei</name><description>Nume: Valea Armencei, Tip: armeancă, Nivel: 3, Județ: Botosani, Formă: Vale, ID: 2401 <br /><b>Variante</b><br />Nume: Valea Armencei, Hartă: Geomil 25000, Limbă: Limba română</description><Point><coordinates>26.751411,48.169393,0</coordinates></Point></Placemark>
<Placemark><name>Valea Armenilor</name><description>Nume: Valea Armenilor, Tip: armeni, Nivel: 2, Județ: Botosani, Formă: Vale, ID: 9591 <br /><b>Variante</b><br />Nume: Valea Armenilor, Hartă: Moldova (1892-1898), Limbă: Limba română</description><Point><coordinates>26.793096,47.517104,0</coordinates></Point></Placemark>
<Placemark><name>Puțul Arnăutului</name><description>Nume: Puțul Arnăutului, Tip: arnăut, Nivel: 3, Județ: Botosani, Formă: Altele, ID: 14877 <br /><b>Variante</b><br />Nume: Puțul Arnăutului, Hartă: PDT, Limbă: Limba română</description><Point><coordinates>26.591790,48.145791,0</coordinates></Point></Placemark>
<Placemark><name>Valea Arnăutului</name><description>Nume: Valea Arnăutului, Tip: arnăut, Nivel: 3, Județ: Botosani, Formă: Vale, ID: 1743 <br /><b>Variante</b><br />Nume: Valea Arnăutului, Hartă: Geomil 25000, Limbă: Limba română</description><Point><coordinates>26.712058,47.490056,0</coordinates></Point></Placemark>
<Placemark><name>Valea Bulgarului</name><description>Nume: Valea Bulgarului, Tip: bulgar, Nivel: 3, Județ: Botosani, Formă: Vale, ID: 1819 <br /><b>Variante</b><br />Nume: Valea Bulgarului, Hartă: Geomil 25000, Limbă: Limba română</description><Point><coordinates>26.936737,48.034809,0</coordinates></Point></Placemark>
<Placemark><name>Pârâul Bulgarilor</name><description>Nume: Pârâul Bulgarilor, Tip: bulgari, Nivel: 2, Județ: Botosani, Formă: Vale, ID: 2351 <br /><b>Variante</b><br />Nume: Pârâul Bulgarilor, Hartă: Geomil 25000, Limbă: Limba română</description><Point><coordinates>26.507628,47.764900,0</coordinates></Point></Placemark>
<Placemark><name>Coasta Bulgăriei</name><description>Nume: Coasta Bulgăriei, Tip: bulgărie, Nivel: 3, Județ: Botosani, Formă: Înălțime, ID: 1825 <br /><b>Variante</b><br />Nume: Coasta Bulgăriei, Hartă: Geomil 25000, Limbă: Limba română</description><Point><coordinates>26.728323,47.705274,0</coordinates></Point></Placemark>
<Placemark><name>Cazacu</name><description>Nume: Cazacu, Tip: cazac, Nivel: 4, Județ: Botosani, Formă: Vale, ID: 14088 <br /><b>Variante</b><br />Nume: Cazacu, Hartă: Geomil 25000, Limbă: Limba română</description><Point><coordinates>26.202577,47.950996,0</coordinates></Point></Placemark>
<Placemark><name>Movila Cazacului</name><description>Nume: Movila Cazacului, Tip: cazac, Nivel: 4, Județ: Botosani, Formă: Înălțime, ID: 9583 <br /><b>Variante</b><br />Nume: Movila Cazacului, Hartă: Moldova (1892-1898), Limbă: Limba română</description><Point><coordinates>26.490099,47.882849,0</coordinates></Point></Placemark>
<Placemark><name>Valea Fântâna Cazacului</name><description>Nume: Valea Fântâna Cazacului, Tip: cazac, Nivel: 4, Județ: Botosani, Formă: Vale, ID: 3562 <br /><b>Variante</b><br />Nume: Valea Fântâna Cazacului, Hartă: PDT, Limbă: Limba română</description><Point><coordinates>26.698880,47.769053,0</coordinates></Point></Placemark>
<Placemark><name>Valea Căzăciței</name><description>Nume: Valea Căzăciței, Tip: căzăciță, Nivel: 4, Județ: Botosani, Formă: Vale, ID: 13588 <br /><b>Variante</b><br />Nume: Valea Căzăciței, Hartă: PDT, Limbă: Limba română</description><Point><coordinates>26.406385,48.143314,0</coordinates></Point></Placemark>
<Placemark><name>La Cimitirul Evreiesc</name><description>Nume: La Cimitirul Evreiesc, Tip: evreiesc, Nivel: 3, Județ: Botosani, Formă: Altele, ID: 1815 <br /><b>Variante</b><br />Nume: La Cimitirul Evreiesc, Hartă: Geomil 25000, Limbă: Limba română</description><Point><coordinates>26.860301,47.969190,0</coordinates></Point></Placemark>
<Placemark><name>La Greaca</name><description>Nume: La Greaca, Tip: greaca, Nivel: 3, Județ: Botosani, Formă: Altele, ID: 2432 <br /><b>Variante</b><br />Nume: La Greaca, Hartă: Geomil 25000, Limbă: Limba română</description><Point><coordinates>27.331449,47.619060,0</coordinates></Point></Placemark>
<Placemark><name>Dealul Grecilor</name><description>Nume: Dealul Grecilor, Tip: greci, Nivel: 2, Județ: Botosani, Formă: Deal, ID: 2340 <br /><b>Variante</b><br />Nume: Dealul Grecilor, Hartă: Geomil 25000, Limbă: Limba română</description><Point><coordinates>26.650177,47.870306,0</coordinates></Point></Placemark>
<Placemark><name>Dealul Podul Grecilor</name><description>Nume: Dealul Podul Grecilor, Tip: greci, Nivel: 2, Județ: Botosani, Formă: Deal, ID: 6676 <br /><b>Variante</b><br />Nume: Dealul Podul Grecilor, Hartă: PDT, Limbă: Limba română</description><Point><coordinates>26.640846,48.052656,0</coordinates></Point></Placemark>
<Placemark><name>Mori Grecilor</name><description>Nume: Mori Grecilor, Tip: greci, Nivel: 2, Județ: Botosani, Formă: Altele, ID: 9588 <br /><b>Variante</b><br />Nume: Mori Grecilor, Hartă: Moldova (1892-1898), Limbă: Limba română</description><Point><coordinates>26.754309,47.542467,0</coordinates></Point></Placemark>
<Placemark><name>Valea Grecilor</name><description>Nume: Valea Grecilor, Tip: greci, Nivel: 2, Județ: Botosani, Formă: Vale, ID: 12384 <br /><b>Variante</b><br />Nume: Valea Grecilor, Hartă: Geomil 25000, Limbă: Limba română</description><Point><coordinates>27.167242,47.533173,0</coordinates></Point></Placemark>
<Placemark><name>Dealul Jidanului</name><description>Nume: Dealul Jidanului, Tip: jidan, Nivel: 3, Județ: Botosani, Formă: Deal, ID: 2338 <br /><b>Variante</b><br />Nume: Dealul Jidanului, Hartă: Geomil 25000, Limbă: Limba română</description><Point><coordinates>26.624950,47.891311,0</coordinates></Point></Placemark>
<Placemark><name>Movila Jidanului</name><description>Nume: Movila Jidanului, Tip: jidan, Nivel: 3, Județ: Botosani, Formă: Înălțime, ID: 9581 <br /><b>Variante</b><br />Nume: Movila Jidanului, Hartă: Moldova (1892-1898), Limbă: Limba română</description><Point><coordinates>26.499679,47.892073,0</coordinates></Point></Placemark>
<Placemark><name>Poeana Jidanului</name><description>Nume: Poeana Jidanului, Tip: jidan, Nivel: 3, Județ: Botosani, Formă: Poiană, ID: 14639 <br /><b>Variante</b><br />Nume: Poeana Jidanului, Hartă: PDT, Limbă: Limba română</description><Point><coordinates>26.659864,47.644143,0</coordinates></Point></Placemark>
<Placemark><name>Valea Jidanului</name><description>Nume: Valea Jidanului, Tip: jidan, Nivel: 3, Județ: Botosani, Formă: Vale, ID: 2349 <br /><b>Variante</b><br />Nume: Valea Jidanului, Hartă: Geomil 25000, Limbă: Limba română</description><Point><coordinates>26.532571,47.869984,0</coordinates></Point></Placemark>
<Placemark><name>Dealul Leahului</name><description>Nume: Dealul Leahului, Tip: leah, Nivel: 3, Județ: Botosani, Formă: Deal, ID: 2314 <br /><b>Variante</b><br />Nume: Dealul Leahului, Hartă: Geomil 25000, Limbă: Limba română</description><Point><coordinates>26.401785,48.019250,0</coordinates></Point></Placemark>
<Placemark><name>Dealul Poiana Leahului</name><description>Nume: Dealul Poiana Leahului, Tip: leah, Nivel: 3, Județ: Botosani, Formă: Deal, ID: 4891 <br /><b>Variante</b><br />Nume: Dealul Poiana Leahului, Hartă: Geomil 25000, Limbă: Limba română</description><Point><coordinates>26.312675,48.141532,0</coordinates></Point></Placemark>
<Placemark><name>Dealul Sisiahul Leahului</name><description>Nume: Dealul Sisiahul Leahului, Tip: leah, Nivel: 3, Județ: Botosani, Formă: Deal, ID: 11560 <br /><b>Variante</b><br />Nume: Dealul Sisiahul Leahului, Hartă: Geomil 25000, Limbă: Limba română</description><Point><coordinates>27.008898,48.123628,0</coordinates></Point></Placemark>
<Placemark><name>Odaia Leahului</name><description>Nume: Odaia Leahului, Tip: leah, Nivel: 3, Județ: Botosani, Formă: Altele, ID: 1763 <br /><b>Variante</b><br />Nume: Odaia Leahului, Hartă: Geomil 25000, Limbă: Limba română</description><Point><coordinates>26.780727,47.546130,0</coordinates></Point></Placemark>
<Placemark><name>Valea la Fântâna Leahului</name><description>Nume: Valea la Fântâna Leahului, Tip: leah, Nivel: 3, Județ: Botosani, Formă: Vale, ID: 3578 <br /><b>Variante</b><br />Nume: Valea la Fântâna Leahului, Hartă: PDT, Limbă: Limba română</description><Point><coordinates>26.662895,48.020770,0</coordinates></Point></Placemark>
<Placemark><name>Dealul Lipoveanului</name><description>Nume: Dealul Lipoveanului, Tip: lipovean, Nivel: 3, Județ: Botosani, Formă: Deal, ID: 1818 <br /><b>Variante</b><br />Nume: Dealul Lipoveanului, Hartă: Geomil 25000, Limbă: Limba română</description><Point><coordinates>26.891335,48.016603,0</coordinates></Point></Placemark>
<Placemark><name>Iazul Lipoveanului</name><description>Nume: Iazul Lipoveanului, Tip: lipovean, Nivel: 3, Județ: Botosani, Formă: Apă-deal-câmpie, ID: 2414 <br /><b>Variante</b><br />Nume: Iazul Lipoveanului, Hartă: Geomil 25000, Limbă: Limba română</description><Point><coordinates>26.733835,47.797612,0</coordinates></Point></Placemark>
<Placemark><name>La Iazul Lipoveanului</name><description>Nume: La Iazul Lipoveanului, Tip: lipovean, Nivel: 3, Județ: Botosani, Formă: Apă-deal-câmpie, ID: 2404 <br /><b>Variante</b><br />Nume: La Iazul Lipoveanului, Hartă: Geomil 25000, Limbă: Limba română</description><Point><coordinates>26.978280,48.054532,0</coordinates></Point></Placemark>
<Placemark><name>Valea La Iazul Lipoveanului</name><description>Nume: Valea La Iazul Lipoveanului, Tip: lipovean, Nivel: 3, Județ: Botosani, Formă: Vale, ID: 1817 <br /><b>Variante</b><br />Nume: lipovean, Hartă: Geomil 25000, Limbă: Limba română</description><Point><coordinates>26.897288,48.011360,0</coordinates></Point></Placemark>
<Placemark><name>Valea Lipoveanului</name><description>Nume: Valea Lipoveanului, Tip: lipovean, Nivel: 3, Județ: Botosani, Formă: Vale, ID: 2393 <br /><b>Variante</b><br />Nume: Valea Lipoveanului, Hartă: Geomil 25000, Limbă: Limba română</description><Point><coordinates>27.094552,47.926629,0</coordinates></Point></Placemark>
<Placemark><name>La Lipoveni</name><description>Nume: La Lipoveni, Tip: lipoveni, Nivel: 2, Județ: Botosani, Formă: Altele, ID: 2356 <br /><b>Variante</b><br />Nume: La Lipoveni, Hartă: Geomil 25000, Limbă: Limba română</description><Point><coordinates>26.849568,47.685225,0</coordinates></Point></Placemark>
<Placemark><name>Lacul Lipovenii</name><description>Nume: Lacul Lipovenii, Tip: lipoveni, Nivel: 2, Județ: Botosani, Formă: Lac, ID: 9732 <br /><b>Variante</b><br />Nume: Lacul Lipovenii, Hartă: Moldova (1892-1898), Limbă: Limba română</description><Point><coordinates>26.726429,47.636293,0</coordinates></Point></Placemark>
<Placemark><name>Lipoveni</name><description>Nume: Lipoveni, Tip: lipoveni, Nivel: 2, Județ: Botosani, Formă: Localitate, ID: 7780 <br /><b>Variante</b><br />Nume: Lipoveni, Hartă: PDT, Limbă: Limba română</description><Point><coordinates>26.567655,47.650393,0</coordinates></Point></Placemark>
<Placemark><name>Valea Iazul Lipovenilor</name><description>Nume: Valea Iazul Lipovenilor, Tip: lipoveni, Nivel: 2, Județ: Botosani, Formă: Vale, ID: 2337 <br /><b>Variante</b><br />Nume: Valea Iazul Lipovenilor, Hartă: Geomil 25000, Limbă: Limba română</description><Point><coordinates>26.615284,47.945140,0</coordinates></Point></Placemark>
<Placemark><name>Dealul la Iazul Muscalului</name><description>Nume: Dealul la Iazul Muscalului, Tip: muscal, Nivel: 3, Județ: Botosani, Formă: Deal, ID: 9580 <br /><b>Variante</b><br />Nume: Dealul la Iazul Muscalului, Hartă: Moldova (1892-1898), Limbă: Limba română</description><Point><coordinates>26.489154,47.955818,0</coordinates></Point></Placemark>
<Placemark><name>Pârâul Poarta Muscalului</name><description>Nume: Pârâul Poarta Muscalului, Tip: muscal, Nivel: 3, Județ: Botosani, Formă: Vale, ID: 4908 <br /><b>Variante</b><br />Nume: Pârâul Poarta Muscalului, Hartă: PDT, Limbă: Limba română</description><Point><coordinates>26.292500,47.932968,0</coordinates></Point></Placemark>
<Placemark><name>Valea Muscalului</name><description>Nume: Valea Muscalului, Tip: muscal, Nivel: 3, Județ: Botosani, Formă: Vale, ID: 1751 <br /><b>Variante</b><br />Nume: Valea Muscalului, Hartă: Geomil 25000, Limbă: Limba română</description><Point><coordinates>26.674623,47.564211,0</coordinates></Point></Placemark>
<Placemark><name>Dealul Neamțului</name><description>Nume: Dealul Neamțului, Tip: neamț, Nivel: 4, Județ: Botosani, Formă: Deal, ID: 3571 <br /><b>Variante</b><br />Nume: Dealul Neamțului, Hartă: PDT, Limbă: Limba română<br />Nume: Dealul Neamțului, Hartă: Geomil 25000, Limbă: Limba română</description><Point><coordinates>26.771019,47.805596,0</coordinates></Point></Placemark>
<Placemark><name>Lacul Neamțu</name><description>Nume: Lacul Neamțu, Tip: neamț, Nivel: 4, Județ: Botosani, Formă: Lac, ID: 3576 <br /><b>Variante</b><br />Nume: Lacul Neamțu, Hartă: PDT, Limbă: Limba română</description><Point><coordinates>26.723125,47.964385,0</coordinates></Point></Placemark>