<?xml version="1.0" encoding="UTF-8"?><kml xmlns="http://www.opengis.net/kml/2.2"><Document><Placemark><name>Castelul Tetuchi</name><description>Nume: Castelul Tetuchi, Tip: castel, Nivel: 2, Județ: Alba, Formă: Altele, ID: 5545 <br /><b>Variante</b><br />Nume: Castelul Tetuchi, Hartă: PDT, Limbă: Limba română</description><Point><coordinates>23.744917,45.944025,0</coordinates></Point></Placemark>
<Placemark><name>Valea Castelului</name><description>Nume: Valea Castelului, Tip: castel, Nivel: 2, Județ: Alba, Formă: Vale, ID: 4391 <br /><b>Variante</b><br />Nume: Valea Castelului, Hartă: Geomil 25000, Limbă: Limba română</description><Point><coordinates>23.685750,46.267962,0</coordinates></Point></Placemark>
<Placemark><name>Castelul Mocrea</name><description>Nume: Castelul Mocrea, Tip: castel, Nivel: 2, Județ: Arad, Formă: Altele, ID: 7598 <br /><b>Variante</b><br />Nume: Castelul Mocrea, Hartă: PDT, Limbă: Limba română</description><Point><coordinates>21.811699,46.395024,0</coordinates></Point></Placemark>
<Placemark><name>La Castel</name><description>Nume: La Castel, Tip: castel, Nivel: 2, Județ: Arad, Formă: Altele, ID: 7599 <br /><b>Variante</b><br />Nume: La Castel, Hartă: PDT, Limbă: Limba română</description><Point><coordinates>21.873236,46.383467,0</coordinates></Point></Placemark>
<Placemark><name>Castelul Poiana Florilor</name><description>Nume: Castelul Poiana Florilor, Tip: castel, Nivel: 2, Județ: Bihor, Formă: Altele, ID: 8206 <br /><b>Variante</b><br />Nume: Castelul Poiana Florilor, Hartă: PDT, Limbă: Limba română</description><Point><coordinates>22.378971,47.143283,0</coordinates></Point></Placemark>
<Placemark><name>Pădurea Castelului</name><description>Nume: Pădurea Castelului, Tip: castel, Nivel: 2, Județ: Bistrita Nasaud, Formă: Pădure, ID: 10655 <br /><b>Variante</b><br />Nume: Pădurea Castelului, Hartă: PDT, Limbă: Limba română</description><Point><coordinates>24.344783,46.806729,0</coordinates></Point></Placemark>
<Placemark><name>Movila Castelul Vechi</name><description>Nume: Movila Castelul Vechi, Tip: castel, Nivel: 2, Județ: Constanta, Formă: Înălțime, ID: 3492 <br /><b>Variante</b><br />Nume: Movila Castelul Vechi, Hartă: Geomil 25000, Limbă: Limba română</description><Point><coordinates>28.095524,44.721729,0</coordinates></Point></Placemark>
<Placemark><name>Movila Castelului</name><description>Nume: Movila Castelului, Tip: castel, Nivel: 2, Județ: Constanta, Formă: Înălțime, ID: 2868 <br /><b>Variante</b><br />Nume: Movila Castelului, Hartă: Geomil 25000, Limbă: Limba română</description><Point><coordinates>28.341365,44.231414,0</coordinates></Point></Placemark>
<Placemark><name>Dealul Castelului</name><description>Nume: Dealul Castelului, Tip: castel, Nivel: 2, Județ: Covasna, Formă: Deal, ID: 4381 <br /><b>Variante</b><br />Nume: Dealul Castelului, Hartă: Geomil 25000, Limbă: Limba română</description><Point><coordinates>25.854786,45.993856,0</coordinates></Point></Placemark>
<Placemark><name>Coasta Castelului</name><description>Nume: Coasta Castelului, Tip: castel, Nivel: 2, Județ: Mures, Formă: Înălțime, ID: 5470 <br /><b>Variante</b><br />Nume: Coasta Castelului, Hartă: PDT, Limbă: Limba română</description><Point><coordinates>24.402053,46.749982,0</coordinates></Point></Placemark>
<Placemark><name>Dealul. Castelului</name><description>Nume: Dealul. Castelului, Tip: castel, Nivel: 2, Județ: Mures, Formă: Deal, ID: 5458 <br /><b>Variante</b><br />Nume: Dealul. Castelului, Hartă: PDT, Limbă: Limba română</description><Point><coordinates>24.589063,46.808077,0</coordinates></Point></Placemark>
<Placemark><name>La Castel</name><description>Nume: La Castel, Tip: castel, Nivel: 2, Județ: Mures, Formă: Altele, ID: 7348 <br /><b>Variante</b><br />Nume: La Castel, Hartă: Geomil 25000, Limbă: Limba română</description><Point><coordinates>24.348445,46.462788,0</coordinates></Point></Placemark>
<Placemark><name>La Castel</name><description>Nume: La Castel, Tip: castel, Nivel: 2, Județ: Prahova, Formă: Altele, ID: 2824 <br /><b>Variante</b><br />Nume: La Castel, Hartă: Geomil 25000, Limbă: Limba română</description><Point><coordinates>26.075160,45.391473,0</coordinates></Point></Placemark>
<Placemark><name>Dâmbul Castelului</name><description>Nume: Dâmbul Castelului, Tip: castel, Nivel: 2, Județ: Salaj, Formă: Înălțime, ID: 8988 <br /><b>Variante</b><br />Nume: Dâmbul Castelului, Hartă: PDT, Limbă: Limba română</description><Point><coordinates>23.386743,47.323780,0</coordinates></Point></Placemark>
<Placemark><name>La Castel</name><description>Nume: La Castel, Tip: castel, Nivel: 2, Județ: Sibiu, Formă: Altele, ID: 8621 <br /><b>Variante</b><br />Nume: La Castel, Hartă: Geomil 25000, Limbă: Limba română</description><Point><coordinates>24.644108,46.105167,0</coordinates></Point></Placemark>
<Placemark><name>La Castel</name><description>Nume: La Castel, Tip: castel, Nivel: 2, Județ: Timis, Formă: Altele, ID: 10353 <br /><b>Variante</b><br />Nume: La Castel, Hartă: Geomil 25000, Limbă: Limba română<br />Nume: Castel, Hartă: PDT, Limbă: Limba română</description><Point><coordinates>21.525717,45.898735,0</coordinates></Point></Placemark>
<Placemark><name>La Castel</name><description>Nume: La Castel, Tip: castel, Nivel: 2, Județ: Valcea, Formă: Altele, ID: 7422 <br /><b>Variante</b><br />Nume: La Castel, Hartă: Geomil 25000, Limbă: Limba română</description><Point><coordinates>23.924527,45.470112,0</coordinates></Point></Placemark></Document></kml>