<?xml version="1.0" encoding="UTF-8"?><kml xmlns="http://www.opengis.net/kml/2.2"><Document><Placemark><name>Sîrbu</name><description>Nume: Sîrbu, Tip: sârb, Nivel: 3, Județ: Alba, Formă: Înălțime, ID: 10503 <br /><b>Variante</b><br />Nume: Sîrbu, Hartă: Transilvania (1869-1870), Limbă: Limba română</description><Point><coordinates>23.623261,46.357759,0</coordinates></Point></Placemark>
<Placemark><name>Valea Sârbilor</name><description>Nume: Valea Sârbilor, Tip: sârbi, Nivel: 2, Județ: Alba, Formă: Vale, ID: 1148 <br /><b>Variante</b><br />Nume: Valea Sârbilor, Hartă: Geomil 25000, Limbă: Limba română</description><Point><coordinates>23.637206,45.997080,0</coordinates></Point></Placemark>
<Placemark><name>Dâmbu Sârbului</name><description>Nume: Dâmbu Sârbului, Tip: sârb, Nivel: 3, Județ: Arad, Formă: Înălțime, ID: 10226, ID Părinte: 875 <br /><b>Variante</b><br />Nume: Dâmbu Sârbului, Hartă: Geomil 25000, Limbă: Limba română</description><Point><coordinates>22.395723,45.935805,0</coordinates></Point></Placemark>
<Placemark><LineString id="10226_875"><tessellate>1</tessellate><coordinates>22.395723,45.935805,0.
22.395401,45.926061,0</coordinates></LineString><Style><LineStyle><width>3</width></LineStyle></Style></Placemark>
<Placemark><name>Dealu Sârbului</name><description>Nume: Dealu Sârbului, Tip: sârb, Nivel: 3, Județ: Arad, Formă: Deal, ID: 948 <br /><b>Variante</b><br />Nume: Dealu Sârbului, Hartă: Geomil 25000, Limbă: Limba română</description><Point><coordinates>22.334367,46.041103,0</coordinates></Point></Placemark>
<Placemark><name>Dealul Sârbului</name><description>Nume: Dealul Sârbului, Tip: sârb, Nivel: 3, Județ: Arad, Formă: Deal, ID: 10211 <br /><b>Variante</b><br />Nume: Dealul Sârbului, Hartă: Geomil 25000, Limbă: Limba română</description><Point><coordinates>21.728754,45.962511,0</coordinates></Point></Placemark>
<Placemark><name>Dialu Sîrbului</name><description>Nume: Dialu Sîrbului, Tip: sârb, Nivel: 3, Județ: Arad, Formă: Deal, ID: 10313 <br /><b>Variante</b><br />Nume: Dialu Sîrbului, Hartă: Ungară 1869, Limbă: Limba română</description><Point><coordinates>22.205321,46.019783,0</coordinates></Point></Placemark>
<Placemark><name>Gruețu Sârbului</name><description>Nume: Gruețu Sârbului, Tip: sârb, Nivel: 3, Județ: Arad, Formă: Altele, ID: 7662 <br /><b>Variante</b><br />Nume: Gruețu Sârbului, Hartă: Geomil 25000, Limbă: Limba română<br />Nume: Gruețul Sârbului, Hartă: PDT, Limbă: Limba română</description><Point><coordinates>22.131529,46.474241,0</coordinates></Point></Placemark>
<Placemark><name>Pârâu Sârbului</name><description>Nume: Pârâu Sârbului, Tip: sârb, Nivel: 3, Județ: Arad, Formă: Vale, ID: 10227, ID Părinte: 875 <br /><b>Variante</b><br />Nume: Pârâu Sârbului, Hartă: Geomil 25000, Limbă: Limba română</description><Point><coordinates>22.388054,45.937847,0</coordinates></Point></Placemark>
<Placemark><LineString id="10227_875"><tessellate>1</tessellate><coordinates>22.388054,45.937847,0.
22.395401,45.926061,0</coordinates></LineString><Style><LineStyle><width>3</width></LineStyle></Style></Placemark>
<Placemark><name>Valea Sârbului</name><description>Nume: Valea Sârbului, Tip: sârb, Nivel: 3, Județ: Arad, Formă: Vale, ID: 10223, ID Părinte: 948 <br /><b>Variante</b><br />Nume: Valea Sârbului, Hartă: Geomil 25000, Limbă: Limba română</description><Point><coordinates>22.330542,46.039873,0</coordinates></Point></Placemark>
<Placemark><LineString id="10223_948"><tessellate>1</tessellate><coordinates>22.330542,46.039873,0.
22.334367,46.041103,0</coordinates></LineString><Style><LineStyle><width>3</width></LineStyle></Style></Placemark>
<Placemark><name>Sârbi</name><description>Nume: Sârbi, Tip: sârbi, Nivel: 2, Județ: Arad, Formă: Localitate, ID: 6256 <br /><b>Variante</b><br />Nume: Sârbi, Hartă: Geomil 25000, Limbă: Limba română</description><Point><coordinates>22.640405,46.288032,0</coordinates></Point></Placemark>
<Placemark><name>Valea Sârbilor</name><description>Nume: Valea Sârbilor, Tip: sârbi, Nivel: 2, Județ: Arad, Formă: Vale, ID: 966 <br /><b>Variante</b><br />Nume: Valea Sârbilor, Hartă: Geomil 25000, Limbă: Limba română</description><Point><coordinates>22.185460,46.122920,0</coordinates></Point></Placemark>
<Placemark><name>Dealul Sârbului</name><description>Nume: Dealul Sârbului, Tip: sârb, Nivel: 3, Județ: Arges, Formă: Deal, ID: 10139 <br /><b>Variante</b><br />Nume: Dealul Sârbului, Hartă: PDT, Limbă: Limba română</description><Point><coordinates>25.180077,44.857370,0</coordinates></Point></Placemark>
<Placemark><name>Piscul Gruia Sârbului</name><description>Nume: Piscul Gruia Sârbului, Tip: sârb, Nivel: 3, Județ: Arges, Formă: Înălțime, ID: 4063 <br /><b>Variante</b><br />Nume: Piscul Gruia Sârbului, Hartă: PDT, Limbă: Limba română</description><Point><coordinates>24.708985,45.224674,0</coordinates></Point></Placemark>
<Placemark><name>Dealul Sârbilor</name><description>Nume: Dealul Sârbilor, Tip: sârbi, Nivel: 2, Județ: Arges, Formă: Deal, ID: 6900 <br /><b>Variante</b><br />Nume: Dealul Sârbilor, Hartă: Geomil 25000, Limbă: Limba română</description><Point><coordinates>24.817078,45.132915,0</coordinates></Point></Placemark>
<Placemark><name>Puțu din Poiana Sârbilor</name><description>Nume: Puțu din Poiana Sârbilor, Tip: sârbi, Nivel: 2, Județ: Arges, Formă: Altele, ID: 11121 <br /><b>Variante</b><br />Nume: Puțu din Poiana Sârbilor, Hartă: PDT, Limbă: Limba română</description><Point><coordinates>24.986820,45.156847,0</coordinates></Point></Placemark>
<Placemark><name>Pădurea Sârbului</name><description>Nume: Pădurea Sârbului, Tip: sârb, Nivel: 3, Județ: Bacau, Formă: Pădure, ID: 7865 <br /><b>Variante</b><br />Nume: Pădurea Sârbului, Hartă: Geomil 25000, Limbă: Limba română</description><Point><coordinates>27.239370,46.511892,0</coordinates></Point></Placemark>
<Placemark><name>Sârbu</name><description>Nume: Sârbu, Tip: sârb, Nivel: 3, Județ: Bacau, Formă: Altele, ID: 5312 <br /><b>Variante</b><br />Nume: Sârbu, Hartă: Geomil 25000, Limbă: Limba română</description><Point><coordinates>26.663360,46.169728,0</coordinates></Point></Placemark>
<Placemark><name>Sârba</name><description>Nume: Sârba, Tip: sârba, Nivel: 3, Județ: Bacau, Formă: Localitate, ID: 9526 <br /><b>Variante</b><br />Nume: Sârba, Hartă: Moldova (1892-1898), Limbă: Limba română</description><Point><coordinates>27.243993,46.262801,0</coordinates></Point></Placemark>
<Placemark><name>Dealul Sârbilor</name><description>Nume: Dealul Sârbilor, Tip: sârbi, Nivel: 2, Județ: Bacau, Formă: Deal, ID: 7895, ID Părinte: 7893 <br /><b>Variante</b><br />Nume: Dealul Sârbilor, Hartă: PDT, Limbă: Limba română</description><Point><coordinates>27.346822,46.246800,0</coordinates></Point></Placemark>
<Placemark><LineString id="7895_7893"><tessellate>1</tessellate><coordinates>27.346822,46.246800,0.
27.332108,46.228070,0</coordinates></LineString><Style><LineStyle><width>3</width></LineStyle></Style></Placemark>
<Placemark><name>Dealul Sârbilor</name><description>Nume: Dealul Sârbilor, Tip: sârbi, Nivel: 2, Județ: Bacau, Formă: Deal, ID: 9169 <br /><b>Variante</b><br />Nume: Dealul Sârbilor, Hartă: Geomil 25000, Limbă: Limba română</description><Point><coordinates>26.692382,46.537562,0</coordinates></Point></Placemark>
<Placemark><name>Pârâul Sârbilor</name><description>Nume: Pârâul Sârbilor, Tip: sârbi, Nivel: 2, Județ: Bacau, Formă: Vale, ID: 9170, ID Părinte: 9169 <br /><b>Variante</b><br />Nume: Pârâul Sârbilor, Hartă: Geomil 25000, Limbă: Limba română</description><Point><coordinates>26.678889,46.537087,0</coordinates></Point></Placemark>
<Placemark><LineString id="9170_9169"><tessellate>1</tessellate><coordinates>26.678889,46.537087,0.
26.692382,46.537562,0</coordinates></LineString><Style><LineStyle><width>3</width></LineStyle></Style></Placemark>
<Placemark><name>Sârbi</name><description>Nume: Sârbi, Tip: sârbi, Nivel: 2, Județ: Bacau, Formă: Localitate, ID: 7893 <br /><b>Variante</b><br />Nume: Sârbi, Hartă: PDT, Limbă: Limba română<br />Nume: Sârbi, Hartă: Geomil 25000, Limbă: Limba română</description><Point><coordinates>27.332108,46.228070,0</coordinates></Point></Placemark>
<Placemark><name>Sârbi</name><description>Nume: Sârbi, Tip: sârbi, Nivel: 2, Județ: Bacau, Formă: Localitate, ID: 12346, ID Părinte: 9169 <br /><b>Variante</b><br />Nume: Sârbi, Hartă: PDT, Limbă: Limba română</description><Point><coordinates>26.672564,46.551525,0</coordinates></Point></Placemark>
<Placemark><LineString id="12346_9169"><tessellate>1</tessellate><coordinates>26.672564,46.551525,0.
26.692382,46.537562,0</coordinates></LineString><Style><LineStyle><width>3</width></LineStyle></Style></Placemark>
<Placemark><name>Valea Sârbilor</name><description>Nume: Valea Sârbilor, Tip: sârbi, Nivel: 2, Județ: Bacau, Formă: Vale, ID: 3926 <br /><b>Variante</b><br />Nume: Valea Sârbilor, Hartă: Geomil 25000, Limbă: Limba română<br />Nume: Valea Sârbilor, Hartă: PDT, Limbă: Limba română</description><Point><coordinates>27.224409,46.187061,0</coordinates></Point></Placemark>
<Placemark><name>Valea Sârbilor</name><description>Nume: Valea Sârbilor, Tip: sârbi, Nivel: 2, Județ: Bacau, Formă: Vale, ID: 12344 <br /><b>Variante</b><br />Nume: Valea Sârbilor, Hartă: PDT, Limbă: Limba română</description><Point><coordinates>26.718991,46.563018,0</coordinates></Point></Placemark>
<Placemark><name>Sârboaia</name><description>Nume: Sârboaia, Tip: sârboaia, Nivel: 3, Județ: Bacau, Formă: Vale, ID: 13600 <br /><b>Variante</b><br />Nume: Sârboaia, Hartă: Geomil 25000, Limbă: Limba română</description><Point><coordinates>26.880111,46.296847,0</coordinates></Point></Placemark>
<Placemark><name>Valea Sârbul</name><description>Nume: Valea Sârbul, Tip: sârb, Nivel: 3, Județ: Bihor, Formă: Vale, ID: 12350 <br /><b>Variante</b><br />Nume: Valea Sârbul, Hartă: PDT, Limbă: Limba română</description><Point><coordinates>22.535730,46.996469,0</coordinates></Point></Placemark>
<Placemark><name>Sârbești</name><description>Nume: Sârbești, Tip: sârbești, Nivel: 3, Județ: Bihor, Formă: Localitate, ID: 7001 <br /><b>Variante</b><br />Nume: Sârbești, Hartă: Geomil 25000, Limbă: Limba română</description><Point><coordinates>22.484663,46.501764,0</coordinates></Point></Placemark>
<Placemark><name>Valea Sârbeștilor</name><description>Nume: Valea Sârbeștilor, Tip: sârbești, Nivel: 3, Județ: Bihor, Formă: Vale, ID: 7002, ID Părinte: 7001 <br /><b>Variante</b><br />Nume: Valea Sârbeștilor, Hartă: Geomil 25000, Limbă: Limba română</description><Point><coordinates>22.501856,46.500618,0</coordinates></Point></Placemark>
<Placemark><LineString id="7002_7001"><tessellate>1</tessellate><coordinates>22.501856,46.500618,0.
22.484663,46.501764,0</coordinates></LineString><Style><LineStyle><width>3</width></LineStyle></Style></Placemark>
<Placemark><name>Sârbi</name><description>Nume: Sârbi, Tip: sârbi, Nivel: 2, Județ: Bihor, Formă: Localitate, ID: 11506 <br /><b>Variante</b><br />Nume: Sârbi, Hartă: Geomil 25000, Limbă: Limba română</description><Point><coordinates>22.117592,47.191776,0</coordinates></Point></Placemark>
<Placemark><name>Sârbi</name><description>Nume: Sârbi, Tip: sârbi, Nivel: 2, Județ: Botosani, Formă: Localitate, ID: 2408 <br /><b>Variante</b><br />Nume: Sârbi, Hartă: Geomil 25000, Limbă: Limba română</description><Point><coordinates>26.914871,47.941863,0</coordinates></Point></Placemark>
<Placemark><name>Giulești-Srbi</name><description>Nume: Giulești-Srbi, Tip: sârbi, Nivel: 2, Județ: Bucuresti, Formă: Localitate, ID: 5774 <br /><b>Variante</b><br />Nume: Giulești-Srbi, Hartă: Austriacă, Limbă: Limba română</description><Point><coordinates>26.002770,44.472853,0</coordinates></Point></Placemark>
<Placemark><name>La Roata Sârbului</name><description>Nume: La Roata Sârbului, Tip: sârb, Nivel: 3, Județ: Buzau, Formă: Altele, ID: 11444 <br /><b>Variante</b><br />Nume: La Roata Sârbului, Hartă: Geomil 25000, Limbă: Limba română</description><Point><coordinates>27.165553,45.374274,0</coordinates></Point></Placemark>
<Placemark><name>Sârbești</name><description>Nume: Sârbești, Tip: sârbești, Nivel: 3, Județ: Buzau, Formă: Localitate, ID: 5233 <br /><b>Variante</b><br />Nume: Sârbești, Hartă: Geomil 25000, Limbă: Limba română</description><Point><coordinates>26.702714,45.477388,0</coordinates></Point></Placemark>
<Placemark><name>Cotul Sârbilor</name><description>Nume: Cotul Sârbilor, Tip: sârbi, Nivel: 2, Județ: Buzau, Formă: Apă-deal-câmpie, ID: 11263 <br /><b>Variante</b><br />Nume: Cotul Sârbilor, Hartă: Geomil 25000, Limbă: Limba română</description><Point><coordinates>26.953311,45.072145,0</coordinates></Point></Placemark>
<Placemark><name>Plaiul Sârbilor</name><description>Nume: Plaiul Sârbilor, Tip: sârbi, Nivel: 2, Județ: Buzau, Formă: Înălțime, ID: 1575 <br /><b>Variante</b><br />Nume: Plaiul Sârbilor, Hartă: Geomil 25000, Limbă: Limba română</description><Point><coordinates>26.088604,45.453100,0</coordinates></Point></Placemark>
<Placemark><name>Privalul Sârbului</name><description>Nume: Privalul Sârbului, Tip: sârb, Nivel: 3, Județ: Calarasi, Formă: Apă-deal-câmpie, ID: 3456 <br /><b>Variante</b><br />Nume: Privalul Sârbului, Hartă: PDT, Limbă: Limba română</description><Point><coordinates>27.776539,44.315150,0</coordinates></Point></Placemark>
<Placemark><name>Kiseleti Sârbi</name><description>Nume: Kiseleti Sârbi, Tip: sârbi, Nivel: 2, Județ: Calarasi, Formă: Localitate, ID: 10101 <br /><b>Variante</b><br />Nume: Kiseleti Sârbi, Hartă: Austriacă, Limbă: Limba română</description><Point><coordinates>26.861874,44.173183,0</coordinates></Point></Placemark>
<Placemark><name>Mov. Serbilor</name><description>Nume: Mov. Serbilor, Tip: sârbi, Nivel: 2, Județ: Calarasi, Formă: Înălțime, ID: 4267 <br /><b>Variante</b><br />Nume: Mov. Serbilor, Hartă: Austriacă, Limbă: Limba română</description><Point><coordinates>26.532752,44.448728,0</coordinates></Point></Placemark>
<Placemark><name>Sârbi</name><description>Nume: Sârbi, Tip: sârbi, Nivel: 2, Județ: Calarasi, Formă: Localitate, ID: 8463 <br /><b>Variante</b><br />Nume: Sârbi, Hartă: Austriacă, Limbă: Limba română<br />Nume: Sârbi, Hartă: PDT, Limbă: Limba română</description><Point><coordinates>27.054376,44.199814,0</coordinates></Point></Placemark>
<Placemark><name>Dealu Sârbu</name><description>Nume: Dealu Sârbu, Tip: sârb, Nivel: 3, Județ: Caras Severin, Formă: Deal, ID: 11500 <br /><b>Variante</b><br />Nume: Dealu Sârbu, Hartă: Geomil 25000, Limbă: Limba română</description><Point><coordinates>21.695868,45.216022,0</coordinates></Point></Placemark>
<Placemark><name>Dealu Sârbului</name><description>Nume: Dealu Sârbului, Tip: sârb, Nivel: 3, Județ: Caras Severin, Formă: Deal, ID: 5701 <br /><b>Variante</b><br />Nume: Dealu Sârbului, Hartă: Geomil 25000, Limbă: Limba română</description><Point><coordinates>21.599875,45.174266,0</coordinates></Point></Placemark>
<Placemark><name>Dealul Coliba Sârbului</name><description>Nume: Dealul Coliba Sârbului, Tip: sârb, Nivel: 3, Județ: Caras Severin, Formă: Deal, ID: 10868 <br /><b>Variante</b><br />Nume: Dealul Coliba Sârbului, Hartă: Geomil 25000, Limbă: Limba română</description><Point><coordinates>21.702613,44.782515,0</coordinates></Point></Placemark>
<Placemark><name>Pădurea Sârbului</name><description>Nume: Pădurea Sârbului, Tip: sârb, Nivel: 3, Județ: Caras Severin, Formă: Pădure, ID: 1237, ID Părinte: 1236 <br /><b>Variante</b><br />Nume: Pădurea Sârbului, Hartă: Geomil 25000, Limbă: Limba română</description><Point><coordinates>21.990841,45.380655,0</coordinates></Point></Placemark>
<Placemark><LineString id="1237_1236"><tessellate>1</tessellate><coordinates>21.990841,45.380655,0.
21.985521,45.372555,0</coordinates></LineString><Style><LineStyle><width>3</width></LineStyle></Style></Placemark>
<Placemark><name>Pârâu Cleanțu Sârbului</name><description>Nume: Pârâu Cleanțu Sârbului, Tip: sârb, Nivel: 3, Județ: Caras Severin, Formă: Vale, ID: 6126 <br /><b>Variante</b><br />Nume: Pârâu Cleanțu Sârbului, Hartă: Geomil 25000, Limbă: Limba română</description><Point><coordinates>22.053950,45.245032,0</coordinates></Point></Placemark>
<Placemark><name>Pârâu Sârbu</name><description>Nume: Pârâu Sârbu, Tip: sârb, Nivel: 3, Județ: Caras Severin, Formă: Vale, ID: 5700, ID Părinte: 5701 <br /><b>Variante</b><br />Nume: Pârâu Sârbu, Hartă: Geomil 25000, Limbă: Limba română</description><Point><coordinates>21.607710,45.210487,0</coordinates></Point></Placemark>
<Placemark><LineString id="5700_5701"><tessellate>1</tessellate><coordinates>21.607710,45.210487,0.
21.599875,45.174266,0</coordinates></LineString><Style><LineStyle><width>3</width></LineStyle></Style></Placemark>
<Placemark><name>Poiana Sârbului</name><description>Nume: Poiana Sârbului, Tip: sârb, Nivel: 3, Județ: Caras Severin, Formă: Poiană, ID: 10704 <br /><b>Variante</b><br />Nume: Poiana Sârbului, Hartă: Geomil 25000, Limbă: Limba română</description><Point><coordinates>21.784312,45.033111,0</coordinates></Point></Placemark>
<Placemark><name>Poiana Sârbului</name><description>Nume: Poiana Sârbului, Tip: sârb, Nivel: 3, Județ: Caras Severin, Formă: Poiană, ID: 13487 <br /><b>Variante</b><br />Nume: Poiana Sârbului, Hartă: PDT, Limbă: Limba română</description><Point><coordinates>21.982960,45.056936,0</coordinates></Point></Placemark>
<Placemark><name>Poiana Sirbului</name><description>Nume: Poiana Sirbului, Tip: sârb, Nivel: 3, Județ: Caras Severin, Formă: Poiană, ID: 10254 <br /><b>Variante</b><br />Nume: Poiana Sirbului, Hartă: Ungară 1869, Limbă: Limba română</description><Point><coordinates>22.122076,45.149894,0</coordinates></Point></Placemark>
<Placemark><name>Tâlva Sârbului</name><description>Nume: Tâlva Sârbului, Tip: sârb, Nivel: 3, Județ: Caras Severin, Formă: Înălțime, ID: 1236 <br /><b>Variante</b><br />Nume: Tâlva Sârbului, Hartă: Geomil 25000, Limbă: Limba română</description><Point><coordinates>21.985521,45.372555,0</coordinates></Point></Placemark>
<Placemark><name>Valea Izvoru Sârbului</name><description>Nume: Valea Izvoru Sârbului, Tip: sârb, Nivel: 3, Județ: Caras Severin, Formă: Vale, ID: 6128 <br /><b>Variante</b><br />Nume: Valea Izvoru Sârbului, Hartă: Geomil 25000, Limbă: Limba română</description><Point><coordinates>22.139992,45.133534,0</coordinates></Point></Placemark>
<Placemark><name>Valea Sârbului</name><description>Nume: Valea Sârbului, Tip: sârb, Nivel: 3, Județ: Caras Severin, Formă: Vale, ID: 1245 <br /><b>Variante</b><br />Nume: Valea Sârbului, Hartă: Geomil 25000, Limbă: Limba română</description><Point><coordinates>21.760380,45.506060,0</coordinates></Point></Placemark>
<Placemark><name>Valea Sârbească</name><description>Nume: Valea Sârbească, Tip: sârbească, Nivel: 3, Județ: Caras Severin, Formă: Vale, ID: 12708 <br /><b>Variante</b><br />Nume: Valea Sârbească, Hartă: Geomil 25000, Limbă: Limba română</description><Point><coordinates>21.672816,44.939701,0</coordinates></Point></Placemark>
<Placemark><name>Cioaca Sârbilor</name><description>Nume: Cioaca Sârbilor, Tip: sârbi, Nivel: 2, Județ: Caras Severin, Formă: Altele, ID: 902 <br /><b>Variante</b><br />Nume: Cioaca Sârbilor, Hartă: Geomil 25000, Limbă: Limba română</description><Point><coordinates>21.557636,44.876818,0</coordinates></Point></Placemark>
<Placemark><name>Dealu Poienile Sârbești</name><description>Nume: Dealu Poienile Sârbești, Tip: sârbi, Nivel: 2, Județ: Caras Severin, Formă: Deal, ID: 903 <br /><b>Variante</b><br />Nume: Dealu Poienile Sârbești, Hartă: Geomil 25000, Limbă: Limba română</description><Point><coordinates>21.512661,44.857153,0</coordinates></Point></Placemark>
<Placemark><name>Vârfu Sârbilor</name><description>Nume: Vârfu Sârbilor, Tip: sârbi, Nivel: 2, Județ: Caras Severin, Formă: Înălțime, ID: 1211 <br /><b>Variante</b><br />Nume: Vârfu Sârbilor, Hartă: Geomil 25000, Limbă: Limba română</description><Point><coordinates>22.376916,45.238722,0</coordinates></Point></Placemark>
<Placemark><name>Dealu Sârbului</name><description>Nume: Dealu Sârbului, Tip: sârb, Nivel: 3, Județ: Cluj, Formă: Deal, ID: 14218 <br /><b>Variante</b><br />Nume: Dealu Sârbului, Hartă: Geomil 25000, Limbă: Limba română</description><Point><coordinates>22.859410,46.891508,0</coordinates></Point></Placemark>
<Placemark><name>Dealu Sârbului</name><description>Nume: Dealu Sârbului, Tip: sârb, Nivel: 3, Județ: Cluj, Formă: Deal, ID: 14219 <br /><b>Variante</b><br />Nume: Dealu Sârbului, Hartă: Geomil 25000, Limbă: Limba română</description><Point><coordinates>22.859410,46.891508,0</coordinates></Point></Placemark>
<Placemark><name>Valea Sârbului</name><description>Nume: Valea Sârbului, Tip: sârb, Nivel: 3, Județ: Covasna, Formă: Vale, ID: 2742 <br /><b>Variante</b><br />Nume: Valea Sârbului, Hartă: Geomil 25000, Limbă: Limba română</description><Point><coordinates>25.635086,45.891162,0</coordinates></Point></Placemark>
<Placemark><name>Poiana Livada Sârbului</name><description>Nume: Poiana Livada Sârbului, Tip: sârb, Nivel: 3, Județ: Dambovita, Formă: Poiană, ID: 14178 <br /><b>Variante</b><br />Nume: Poiana Livada Sârbului, Hartă: PDT, Limbă: Limba română</description><Point><coordinates>25.382922,44.746368,0</coordinates></Point></Placemark>
<Placemark><name>Băleni-Sârbi</name><description>Nume: Băleni-Sârbi, Tip: sârbi, Nivel: 2, Județ: Dambovita, Formă: Localitate, ID: 3701 <br /><b>Variante</b><br />Nume: Băleni-Sârbi, Hartă: PDT, Limbă: Limba română<br />Nume: Băleni-Sârbi, Hartă: Geomil 25000, Limbă: Limba română</description><Point><coordinates>25.635852,44.819332,0</coordinates></Point></Placemark>
<Placemark><name>Cimitirul Sârbilor</name><description>Nume: Cimitirul Sârbilor, Tip: sârbi, Nivel: 2, Județ: Dambovita, Formă: Altele, ID: 10079, ID Părinte: 10080 <br /><b>Variante</b><br />Nume: Cimitirul Sârbilor, Hartă: PDT, Limbă: Limba română<br />Nume: Cimitirul Sârbilor, Hartă: Geomil 25000, Limbă: Limba română</description><Point><coordinates>25.479819,44.909889,0</coordinates></Point></Placemark>
<Placemark><LineString id="10079_10080"><tessellate>1</tessellate><coordinates>25.479819,44.909889,0.
25.491085,44.912590,0</coordinates></LineString><Style><LineStyle><width>3</width></LineStyle></Style></Placemark>
<Placemark><name>Dealu Sârbi</name><description>Nume: Dealu Sârbi, Tip: sârbi, Nivel: 2, Județ: Dambovita, Formă: Deal, ID: 1397 <br /><b>Variante</b><br />Nume: Dealu Sârbi, Hartă: Geomil 25000, Limbă: Limba română</description><Point><coordinates>25.297714,44.641777,0</coordinates></Point></Placemark>
<Placemark><name>Dealu Sârbilor</name><description>Nume: Dealu Sârbilor, Tip: sârbi, Nivel: 2, Județ: Dambovita, Formă: Deal, ID: 3383 <br /><b>Variante</b><br />Nume: Dealu Sârbilor, Hartă: Geomil 25000, Limbă: Limba română</description><Point><coordinates>25.319218,44.620301,0</coordinates></Point></Placemark>
<Placemark><name>Mahalaua Sârbilor</name><description>Nume: Mahalaua Sârbilor, Tip: sârbi, Nivel: 2, Județ: Dambovita, Formă: Localitate, ID: 10080 <br /><b>Variante</b><br />Nume: Mahalaua Sârbilor, Hartă: PDT, Limbă: Limba română</description><Point><coordinates>25.491085,44.912590,0</coordinates></Point></Placemark>
<Placemark><name>Srbi de Gratia</name><description>Nume: Srbi de Gratia, Tip: sârbi, Nivel: 2, Județ: Dambovita, Formă: Localitate, ID: 8480 <br /><b>Variante</b><br />Nume: Srbi de Gratia, Hartă: Austriacă, Limbă: Limba română</description><Point><coordinates>25.423606,44.431207,0</coordinates></Point></Placemark>
<Placemark><name>Balta Sârbului</name><description>Nume: Balta Sârbului, Tip: sârb, Nivel: 3, Județ: Dolj, Formă: Apă-deal-câmpie, ID: 10350 <br /><b>Variante</b><br />Nume: Balta Sârbului, Hartă: Geomil 25000, Limbă: Limba română</description><Point><coordinates>23.148164,43.889811,0</coordinates></Point></Placemark>
<Placemark><name>Balta Sârbii</name><description>Nume: Balta Sârbii, Tip: sârba, Nivel: 3, Județ: Dolj, Formă: Apă-deal-câmpie, ID: 12378, ID Părinte: 12377 <br /><b>Variante</b><br />Nume: Balta Sârbii, Hartă: Geomil 25000, Limbă: Limba română</description><Point><coordinates>24.141331,44.077926,0</coordinates></Point></Placemark>
<Placemark><LineString id="12378_12377"><tessellate>1</tessellate><coordinates>24.141331,44.077926,0.
24.134695,44.082048,0</coordinates></LineString><Style><LineStyle><width>3</width></LineStyle></Style></Placemark>
<Placemark><name>Valea Sârba</name><description>Nume: Valea Sârba, Tip: sârba, Nivel: 3, Județ: Dolj, Formă: Vale, ID: 7728 <br /><b>Variante</b><br />Nume: Valea Sârba, Hartă: PDT, Limbă: Limba română<br />Nume: Valea Sârbă, Hartă: Geomil 25000, Limbă: Limba română</description><Point><coordinates>23.913575,44.244941,0</coordinates></Point></Placemark>
<Placemark><name>Valea Sârbii</name><description>Nume: Valea Sârbii, Tip: sârba, Nivel: 3, Județ: Dolj, Formă: Vale, ID: 12377 <br /><b>Variante</b><br />Nume: Valea Sârbii, Hartă: Geomil 25000, Limbă: Limba română</description><Point><coordinates>24.134695,44.082048,0</coordinates></Point></Placemark>
<Placemark><name>Fântâna Sârbilor</name><description>Nume: Fântâna Sârbilor, Tip: sârbi, Nivel: 2, Județ: Dolj, Formă: Altele, ID: 11802 <br /><b>Variante</b><br />Nume: Fântâna Sârbilor, Hartă: PDT, Limbă: Limba română</description><Point><coordinates>23.279051,43.962184,0</coordinates></Point></Placemark>
<Placemark><name>Fântâna sîrbilor</name><description>Nume: Fântâna sîrbilor, Tip: sârbi, Nivel: 2, Județ: Dolj, Formă: Altele, ID: 3648 <br /><b>Variante</b><br />Nume: Fântâna sîrbilor, Hartă: Austriacă, Limbă: Limba română</description><Point><coordinates>23.041917,43.939547,0</coordinates></Point></Placemark>
<Placemark><name>Laku Sîrbesk</name><description>Nume: Laku Sîrbesk, Tip: sârbi, Nivel: 2, Județ: Dolj, Formă: Lac, ID: 6017 <br /><b>Variante</b><br />Nume: Laku Sîrbesk, Hartă: Austriacă, Limbă: Limba română</description><Point><coordinates>23.038394,43.902949,0</coordinates></Point></Placemark>
<Placemark><name>Liwes Sirbi</name><description>Nume: Liwes Sirbi, Tip: sârbi, Nivel: 2, Județ: Dolj, Formă: Localitate, ID: 12172 <br /><b>Variante</b><br />Nume: Liwes Sirbi, Hartă: Oltenia-Muntenia (1790), Limbă: Limba română</description><Point><coordinates>23.796944,44.200986,0</coordinates></Point></Placemark>
<Placemark><name>Sârbi</name><description>Nume: Sârbi, Tip: sârbi, Nivel: 2, Județ: Galati, Formă: Localitate, ID: 9492 <br /><b>Variante</b><br />Nume: Sârbi, Hartă: PDT, Limbă: Limba română<br />Nume: Sârbi, Hartă: Geomil 25000, Limbă: Limba română</description><Point><coordinates>27.326436,45.927815,0</coordinates></Point></Placemark>
<Placemark><name>Valea Sârbilor</name><description>Nume: Valea Sârbilor, Tip: sârbi, Nivel: 2, Județ: Galati, Formă: Vale, ID: 9754 <br /><b>Variante</b><br />Nume: Valea Sârbilor, Hartă: Geomil 25000, Limbă: Limba română<br />Nume: Valea Sârbilor, Hartă: Moldova (1892-1898), Limbă: Limba română</description><Point><coordinates>27.649248,46.111457,0</coordinates></Point></Placemark>
<Placemark><name>La Sârbi</name><description>Nume: La Sârbi, Tip: sârbi, Nivel: 2, Județ: Giurgiu, Formă: Localitate, ID: 12061 <br /><b>Variante</b><br />Nume: La Sârbi, Hartă: PDT, Limbă: Limba română</description><Point><coordinates>26.370638,44.165951,0</coordinates></Point></Placemark>
<Placemark><name>Dealul Poiana Sârbului</name><description>Nume: Dealul Poiana Sârbului, Tip: sârb, Nivel: 3, Județ: Gorj, Formă: Deal, ID: 3673 <br /><b>Variante</b><br />Nume: Dealul Poiana Sârbului, Hartă: PDT, Limbă: Limba română</description><Point><coordinates>22.974241,44.851054,0</coordinates></Point></Placemark>
<Placemark><name>Valea Sârbul</name><description>Nume: Valea Sârbul, Tip: sârb, Nivel: 3, Județ: Gorj, Formă: Vale, ID: 13951 <br /><b>Variante</b><br />Nume: Valea Sârbul, Hartă: PDT, Limbă: Limba română</description><Point><coordinates>23.600353,44.847517,0</coordinates></Point></Placemark>
<Placemark><name>Sârbești</name><description>Nume: Sârbești, Tip: sârbești, Nivel: 3, Județ: Gorj, Formă: Localitate, ID: 12462 <br /><b>Variante</b><br />Nume: Sârbești, Hartă: Austriacă, Limbă: Limba română</description><Point><coordinates>23.467649,45.131749,0</coordinates></Point></Placemark>
<Placemark><name>Sârbești</name><description>Nume: Sârbești, Tip: sârbi, Nivel: 2, Județ: Gorj, Formă: Localitate, ID: 242 <br /><b>Variante</b><br />Nume: Sârbești, Hartă: Geomil 25000, Limbă: Limba română</description><Point><coordinates>23.787387,45.118841,0</coordinates></Point></Placemark>
<Placemark><name>Sârbeni</name><description>Nume: Sârbeni, Tip: sârbeni, Nivel: 3, Județ: Harghita, Formă: Localitate, ID: 7965 <br /><b>Variante</b><br />Nume: Sârbeni, Hartă: PDT, Limbă: Limba română</description><Point><coordinates>25.385270,46.954628,0</coordinates></Point></Placemark>
<Placemark><name>D. Sirbului</name><description>Nume: D. Sirbului, Tip: sârb, Nivel: 3, Județ: Hunedoara, Formă: Deal, ID: 10478 <br /><b>Variante</b><br />Nume: D. Sirbului, Hartă: Transilvania (1869-1870), Limbă: Limba română</description><Point><coordinates>23.207415,45.365965,0</coordinates></Point></Placemark>
<Placemark><name>Sârba</name><description>Nume: Sârba, Tip: sârba, Nivel: 3, Județ: Hunedoara, Formă: Altele, ID: 9848 <br /><b>Variante</b><br />Nume: Sârba, Hartă: PDT, Limbă: Limba română</description><Point><coordinates>23.299524,45.900732,0</coordinates></Point></Placemark>
<Placemark><name>La Sârbești</name><description>Nume: La Sârbești, Tip: sârbești, Nivel: 3, Județ: Hunedoara, Formă: Altele, ID: 927 <br /><b>Variante</b><br />Nume: La Sârbești, Hartă: Geomil 25000, Limbă: Limba română</description><Point><coordinates>22.822200,46.290360,0</coordinates></Point></Placemark>
<Placemark><name>Pârâul Sârbi</name><description>Nume: Pârâul Sârbi, Tip: sârbi, Nivel: 2, Județ: Hunedoara, Formă: Vale, ID: 6219 <br /><b>Variante</b><br />Nume: Pârâul Sârbi, Hartă: PDT, Limbă: Limba română</description><Point><coordinates>22.646173,45.910592,0</coordinates></Point></Placemark>
<Placemark><name>Sârbi</name><description>Nume: Sârbi, Tip: sârbi, Nivel: 2, Județ: Hunedoara, Formă: Localitate, ID: 940 <br /><b>Variante</b><br />Nume: Sârbi, Hartă: Geomil 25000, Limbă: Limba română</description><Point><coordinates>22.706273,45.959983,0</coordinates></Point></Placemark>
<Placemark><name>Mov. Sirbuli</name><description>Nume: Mov. Sirbuli, Tip: sârb, Nivel: 3, Județ: Ialomita, Formă: Înălțime, ID: 12410 <br /><b>Variante</b><br />Nume: Mov. Sirbuli, Hartă: Austriacă, Limbă: Limba română</description><Point><coordinates>27.225781,44.757270,0</coordinates></Point></Placemark>
<Placemark><name>Movila Sârbilor</name><description>Nume: Movila Sârbilor, Tip: sârbi, Nivel: 2, Județ: Ialomita, Formă: Înălțime, ID: 3181 <br /><b>Variante</b><br />Nume: Movila Sârbilor, Hartă: Geomil 25000, Limbă: Limba română</description><Point><coordinates>26.693291,44.718275,0</coordinates></Point></Placemark>
<Placemark><name>Dealul Sârbilor</name><description>Nume: Dealul Sârbilor, Tip: sârbi, Nivel: 2, Județ: Iasi, Formă: Deal, ID: 2234, ID Părinte: 2235 <br /><b>Variante</b><br />Nume: Dealul Sârbilor, Hartă: Geomil 25000, Limbă: Limba română</description><Point><coordinates>27.108728,47.127225,0</coordinates></Point></Placemark>
<Placemark><LineString id="2234_2235"><tessellate>1</tessellate><coordinates>27.108728,47.127225,0.
27.120738,47.136328,0</coordinates></LineString><Style><LineStyle><width>3</width></LineStyle></Style></Placemark>
<Placemark><name>Valea Sârbilor</name><description>Nume: Valea Sârbilor, Tip: sârbi, Nivel: 2, Județ: Iasi, Formă: Vale, ID: 2235 <br /><b>Variante</b><br />Nume: Valea Sârbilor, Hartă: Geomil 25000, Limbă: Limba română<br />Nume: Valea Sârbilor, Hartă: PDT, Limbă: Limba română</description><Point><coordinates>27.120738,47.136328,0</coordinates></Point></Placemark>
<Placemark><name>La Lacu Sârbului</name><description>Nume: La Lacu Sârbului, Tip: sârb, Nivel: 3, Județ: Ilfov, Formă: Lac, ID: 1323 <br /><b>Variante</b><br />Nume: La Lacu Sârbului, Hartă: Geomil 25000, Limbă: Limba română</description><Point><coordinates>26.178786,44.676685,0</coordinates></Point></Placemark>
<Placemark><name>Domnești-Serbi</name><description>Nume: Domnești-Serbi, Tip: sârbi, Nivel: 2, Județ: Ilfov, Formă: Localitate, ID: 4232 <br /><b>Variante</b><br />Nume: Domnești-Serbi, Hartă: PDT, Limbă: Limba română<br />Nume: Srbi Domnești, Hartă: Austriacă, Limbă: Limba română</description><Point><coordinates>25.930532,44.401661,0</coordinates></Point></Placemark>
<Placemark><name>Epurești-Srbi</name><description>Nume: Epurești-Srbi, Tip: sârbi, Nivel: 2, Județ: Ilfov, Formă: Localitate, ID: 9990 <br /><b>Variante</b><br />Nume: Epurești-Srbi, Hartă: Austriacă, Limbă: Limba română</description><Point><coordinates>25.888984,44.255646,0</coordinates></Point></Placemark>
<Placemark><name>Lerodeni srbi</name><description>Nume: Lerodeni srbi, Tip: sârbi, Nivel: 2, Județ: Ilfov, Formă: Localitate, ID: 8468 <br /><b>Variante</b><br />Nume: Lerodeni srbi, Hartă: Austriacă, Limbă: Limba română</description><Point><coordinates>26.210545,44.376519,0</coordinates></Point></Placemark>
<Placemark><name>Groapa Sârbească</name><description>Nume: Groapa Sârbească, Tip: sârbească, Nivel: 3, Județ: Maramures, Formă: Altele, ID: 7195 <br /><b>Variante</b><br />Nume: Groapa Sârbească, Hartă: Geomil 25000, Limbă: Limba română</description><Point><coordinates>24.639569,47.919221,0</coordinates></Point></Placemark>
<Placemark><name>Sârbi</name><description>Nume: Sârbi, Tip: sârbi, Nivel: 2, Județ: Maramures, Formă: Localitate, ID: 7222 <br /><b>Variante</b><br />Nume: Sârbi, Hartă: Geomil 25000, Limbă: Limba română<br />Nume: Sârbi, Hartă: PDT, Limbă: Limba română</description><Point><coordinates>23.941488,47.761678,0</coordinates></Point></Placemark>
<Placemark><name>Sârbi</name><description>Nume: Sârbi, Tip: sârbi, Nivel: 2, Județ: Maramures, Formă: Localitate, ID: 8219 <br /><b>Variante</b><br />Nume: Sârbi, Hartă: PDT, Limbă: Limba română<br />Nume: Sârbi, Hartă: Geomil 25000, Limbă: Limba română</description><Point><coordinates>23.342578,47.594976,0</coordinates></Point></Placemark>
<Placemark><name>Sârboaia</name><description>Nume: Sârboaia, Tip: sârboaia, Nivel: 3, Județ: Maramures, Formă: Altele, ID: 13216 <br /><b>Variante</b><br />Nume: Sârboaia, Hartă: Geomil 25000, Limbă: Limba română</description><Point><coordinates>23.410975,47.568196,0</coordinates></Point></Placemark>
<Placemark><name>Drumu Sârbilor</name><description>Nume: Drumu Sârbilor, Tip: sârbi, Nivel: 2, Județ: Mehedinti, Formă: Înălțime, ID: 171 <br /><b>Variante</b><br />Nume: Drumu Sârbilor, Hartă: Geomil 25000, Limbă: Limba română</description><Point><coordinates>22.533855,44.453397,0</coordinates></Point></Placemark>
<Placemark><name>Ogașul Sârboaicei</name><description>Nume: Ogașul Sârboaicei, Tip: sârbi, Nivel: 2, Județ: Mehedinti, Formă: Altele, ID: 411 <br /><b>Variante</b><br />Nume: Ogașul Sârboaicei, Hartă: Geomil 25000, Limbă: Limba română</description><Point><coordinates>23.357378,44.617147,0</coordinates></Point></Placemark>
<Placemark><name>Bâtca Sârbului</name><description>Nume: Bâtca Sârbului, Tip: sârb, Nivel: 3, Județ: Neamt, Formă: Înălțime, ID: 672 <br /><b>Variante</b><br />Nume: Bâtca Sârbului, Hartă: Geomil 25000, Limbă: Limba română</description><Point><coordinates>26.201831,47.026728,0</coordinates></Point></Placemark>
<Placemark><name>Pârâul Sârbului</name><description>Nume: Pârâul Sârbului, Tip: sârb, Nivel: 3, Județ: Neamt, Formă: Vale, ID: 9707 <br /><b>Variante</b><br />Nume: Pârâul Sârbului, Hartă: Moldova (1892-1898), Limbă: Limba română</description><Point><coordinates>26.066865,47.177798,0</coordinates></Point></Placemark>
<Placemark><name>Poiana Piciorul Sârbului</name><description>Nume: Poiana Piciorul Sârbului, Tip: sârb, Nivel: 3, Județ: Neamt, Formă: Poiană, ID: 7398 <br /><b>Variante</b><br />Nume: Poiana Piciorul Sârbului, Hartă: Geomil 25000, Limbă: Limba română</description><Point><coordinates>26.162017,47.242477,0</coordinates></Point></Placemark>
<Placemark><name>Sârbul</name><description>Nume: Sârbul, Tip: sârb, Nivel: 3, Județ: Neamt, Formă: Vale, ID: 11995 <br /><b>Variante</b><br />Nume: Sârbul, Hartă: Geomil 25000, Limbă: Limba română</description><Point><coordinates>26.361761,47.018260,0</coordinates></Point></Placemark>
<Placemark><name>Bâtca Sârbeni</name><description>Nume: Bâtca Sârbeni, Tip: sârbeni, Nivel: 3, Județ: Neamt, Formă: Înălțime, ID: 6472 <br /><b>Variante</b><br />Nume: Bâtca Sârbeni, Hartă: Geomil 25000, Limbă: Limba română</description><Point><coordinates>25.962538,46.987994,0</coordinates></Point></Placemark>
<Placemark><name>Poiana Sârbenilor</name><description>Nume: Poiana Sârbenilor, Tip: sârbeni, Nivel: 3, Județ: Neamt, Formă: Poiană, ID: 6470, ID Părinte: 6472 <br /><b>Variante</b><br />Nume: Poiana Sârbenilor, Hartă: PDT, Limbă: Limba română</description><Point><coordinates>25.968800,46.989519,0</coordinates></Point></Placemark>
<Placemark><LineString id="6470_6472"><tessellate>1</tessellate><coordinates>25.968800,46.989519,0.
25.962538,46.987994,0</coordinates></LineString><Style><LineStyle><width>3</width></LineStyle></Style></Placemark>
<Placemark><name>Dealul Sârbilor</name><description>Nume: Dealul Sârbilor, Tip: sârbi, Nivel: 2, Județ: Neamt, Formă: Deal, ID: 11392 <br /><b>Variante</b><br />Nume: Dealul Sârbilor, Hartă: Geomil 25000, Limbă: Limba română</description><Point><coordinates>26.847928,46.814307,0</coordinates></Point></Placemark>
<Placemark><name>Sârbi</name><description>Nume: Sârbi, Tip: sârbi, Nivel: 2, Județ: Neamt, Formă: Localitate, ID: 3889 <br /><b>Variante</b><br />Nume: Sârbi, Hartă: PDT, Limbă: Limba română</description><Point><coordinates>26.451255,47.259514,0</coordinates></Point></Placemark>
<Placemark><name>Măgura Sârbului</name><description>Nume: Măgura Sârbului, Tip: sârb, Nivel: 3, Județ: Olt, Formă: Înălțime, ID: 9330 <br /><b>Variante</b><br />Nume: Măgura Sârbului, Hartă: PDT, Limbă: Limba română</description><Point><coordinates>24.288967,43.875695,0</coordinates></Point></Placemark>
<Placemark><name>Valea Sârbului</name><description>Nume: Valea Sârbului, Tip: sârb, Nivel: 3, Județ: Olt, Formă: Vale, ID: 1294 <br /><b>Variante</b><br />Nume: Valea Sârbului, Hartă: Geomil 25000, Limbă: Limba română</description><Point><coordinates>24.211056,44.228234,0</coordinates></Point></Placemark>
<Placemark><name>Balta Sârba</name><description>Nume: Balta Sârba, Tip: sârba, Nivel: 3, Județ: Olt, Formă: Apă-deal-câmpie, ID: 8118 <br /><b>Variante</b><br />Nume: Balta Sârba, Hartă: PDT, Limbă: Limba română</description><Point><coordinates>24.352800,44.301922,0</coordinates></Point></Placemark>
<Placemark><name>Sârbeni</name><description>Nume: Sârbeni, Tip: sârbeni, Nivel: 3, Județ: Olt, Formă: Altele, ID: 10692 <br /><b>Variante</b><br />Nume: Sârbeni, Hartă: Geomil 25000, Limbă: Limba română</description><Point><coordinates>24.305181,44.370271,0</coordinates></Point></Placemark>
<Placemark><name>Brebeni sîrbi</name><description>Nume: Brebeni sîrbi, Tip: sârbi, Nivel: 2, Județ: Olt, Formă: Localitate, ID: 5797 <br /><b>Variante</b><br />Nume: Brebeni sîrbi, Hartă: Austriacă, Limbă: Limba română</description><Point><coordinates>24.442208,44.356657,0</coordinates></Point></Placemark>
<Placemark><name>Corlăteștii Sârbi</name><description>Nume: Corlăteștii Sârbi, Tip: sârbi, Nivel: 2, Județ: Olt, Formă: Localitate, ID: 9485 <br /><b>Variante</b><br />Nume: Corlăteștii Sârbi, Hartă: PDT, Limbă: Limba română</description><Point><coordinates>24.243814,44.184380,0</coordinates></Point></Placemark>
<Placemark><name>Fântâna Sârbilor</name><description>Nume: Fântâna Sârbilor, Tip: sârbi, Nivel: 2, Județ: Olt, Formă: Altele, ID: 3031, ID Părinte: 3030 <br /><b>Variante</b><br />Nume: Fântâna Sârbilor, Hartă: Geomil 25000, Limbă: Limba română</description><Point><coordinates>24.259780,43.806513,0</coordinates></Point></Placemark>
<Placemark><LineString id="3031_3030"><tessellate>1</tessellate><coordinates>24.259780,43.806513,0.
24.272220,43.803205,0</coordinates></LineString><Style><LineStyle><width>3</width></LineStyle></Style></Placemark>
<Placemark><name>Ipotești serbi</name><description>Nume: Ipotești serbi, Tip: sârbi, Nivel: 2, Județ: Olt, Formă: Localitate, ID: 5803 <br /><b>Variante</b><br />Nume: Ipotești serbi, Hartă: Austriacă, Limbă: Limba română</description><Point><coordinates>24.460545,44.299515,0</coordinates></Point></Placemark>
<Placemark><name>Srbi Mâgura</name><description>Nume: Srbi Mâgura, Tip: sârbi, Nivel: 2, Județ: Olt, Formă: Localitate, ID: 5817 <br /><b>Variante</b><br />Nume: Srbi Mâgura, Hartă: Austriacă, Limbă: Limba română</description><Point><coordinates>24.716411,44.541875,0</coordinates></Point></Placemark>
<Placemark><name>Vâlceaua Sârbi</name><description>Nume: Vâlceaua Sârbi, Tip: sârbi, Nivel: 2, Județ: Olt, Formă: Vale, ID: 8020 <br /><b>Variante</b><br />Nume: Vâlceaua Sârbi, Hartă: PDT, Limbă: Limba română</description><Point><coordinates>24.550554,43.785363,0</coordinates></Point></Placemark>
<Placemark><name>Valea Sârbilor</name><description>Nume: Valea Sârbilor, Tip: sârbi, Nivel: 2, Județ: Olt, Formă: Vale, ID: 3030 <br /><b>Variante</b><br />Nume: Valea Sârbilor, Hartă: Geomil 25000, Limbă: Limba română</description><Point><coordinates>24.272220,43.803205,0</coordinates></Point></Placemark>
<Placemark><name>Valea Sârbilor</name><description>Nume: Valea Sârbilor, Tip: sârbi, Nivel: 2, Județ: Olt, Formă: Vale, ID: 7747 <br /><b>Variante</b><br />Nume: Valea Sârbilor, Hartă: Geomil 25000, Limbă: Limba română</description><Point><coordinates>24.521603,44.028157,0</coordinates></Point></Placemark>
<Placemark><name>La Sârbi</name><description>Nume: La Sârbi, Tip: sârbi, Nivel: 2, Județ: Prahova, Formă: Localitate, ID: 10081 <br /><b>Variante</b><br />Nume: La Sârbi, Hartă: PDT, Limbă: Limba română</description><Point><coordinates>25.999766,45.000683,0</coordinates></Point></Placemark>
<Placemark><name>Serbi</name><description>Nume: Serbi, Tip: sârbi, Nivel: 2, Județ: Salaj, Formă: Localitate, ID: 10379 <br /><b>Variante</b><br />Nume: Serbi, Hartă: Ungară 1869, Limbă: Limba română<br />Nume: Sârbi, Hartă: Geomil 25000, Limbă: Limba română</description><Point><coordinates>22.798964,47.067802,0</coordinates></Point></Placemark>
<Placemark><name>Valea Sârbilor</name><description>Nume: Valea Sârbilor, Tip: sârbi, Nivel: 2, Județ: Salaj, Formă: Vale, ID: 1064, ID Părinte: 10379 <br /><b>Variante</b><br />Nume: Valea Sârbilor, Hartă: Geomil 25000, Limbă: Limba română</description><Point><coordinates>22.794377,47.076422,0</coordinates></Point></Placemark>
<Placemark><LineString id="1064_10379"><tessellate>1</tessellate><coordinates>22.794377,47.076422,0.
22.798964,47.067802,0</coordinates></LineString><Style><LineStyle><width>3</width></LineStyle></Style></Placemark>
<Placemark><name>Lunca Sârbului</name><description>Nume: Lunca Sârbului, Tip: sârb, Nivel: 3, Județ: Sibiu, Formă: Apă-deal-câmpie, ID: 2542 <br /><b>Variante</b><br />Nume: Lunca Sârbului, Hartă: Geomil 25000, Limbă: Limba română</description><Point><coordinates>24.115916,45.828939,0</coordinates></Point></Placemark>
<Placemark><name>Valea Sârbilor</name><description>Nume: Valea Sârbilor, Tip: sârbi, Nivel: 2, Județ: Sibiu, Formă: Vale, ID: 8000 <br /><b>Variante</b><br />Nume: Valea Sârbilor, Hartă: PDT, Limbă: Limba română</description><Point><coordinates>24.393706,45.797594,0</coordinates></Point></Placemark>
<Placemark><name>Pârâul Sârbului</name><description>Nume: Pârâul Sârbului, Tip: sârb, Nivel: 3, Județ: Suceava, Formă: Vale, ID: 9557 <br /><b>Variante</b><br />Nume: Pârâul Sârbului, Hartă: Moldova (1892-1898), Limbă: Limba română</description><Point><coordinates>26.217601,47.300820,0</coordinates></Point></Placemark>
<Placemark><name>Sârbii</name><description>Nume: Sârbii, Tip: sârbi, Nivel: 2, Județ: Suceava, Formă: Altele, ID: 10760 <br /><b>Variante</b><br />Nume: Sârbii, Hartă: Imperiul Habsburgic (1887), Limbă: Limba română</description><Point><coordinates>25.776013,47.819064,0</coordinates></Point></Placemark>
<Placemark><name>Laku Srbului</name><description>Nume: Laku Srbului, Tip: sârb, Nivel: 3, Județ: Teleorman, Formă: Lac, ID: 6014 <br /><b>Variante</b><br />Nume: Laku Srbului, Hartă: Austriacă, Limbă: Limba română</description><Point><coordinates>25.334753,44.323406,0</coordinates></Point></Placemark>
<Placemark><name>Mâg. Serbului</name><description>Nume: Mâg. Serbului, Tip: sârb, Nivel: 3, Județ: Teleorman, Formă: Înălțime, ID: 5791 <br /><b>Variante</b><br />Nume: Mâg. Serbului, Hartă: Austriacă, Limbă: Limba română</description><Point><coordinates>24.937882,43.980699,0</coordinates></Point></Placemark>
<Placemark><name>Măgura Sârbului</name><description>Nume: Măgura Sârbului, Tip: sârb, Nivel: 3, Județ: Teleorman, Formă: Înălțime, ID: 1358 <br /><b>Variante</b><br />Nume: Măgura Sârbului, Hartă: Geomil 25000, Limbă: Limba română</description><Point><coordinates>24.906782,43.960183,0</coordinates></Point></Placemark>
<Placemark><name>Puțu Sârbului</name><description>Nume: Puțu Sârbului, Tip: sârb, Nivel: 3, Județ: Teleorman, Formă: Altele, ID: 8321 <br /><b>Variante</b><br />Nume: Puțu Sârbului, Hartă: PDT, Limbă: Limba română</description><Point><coordinates>25.162480,44.400095,0</coordinates></Point></Placemark>
<Placemark><name>Pădurea Sârbeni</name><description>Nume: Pădurea Sârbeni, Tip: sârbeni, Nivel: 3, Județ: Teleorman, Formă: Pădure, ID: 3387 <br /><b>Variante</b><br />Nume: Pădurea Sârbeni, Hartă: PDT, Limbă: Limba română</description><Point><coordinates>25.376930,44.498236,0</coordinates></Point></Placemark>
<Placemark><name>Sârbeni</name><description>Nume: Sârbeni, Tip: sârbeni, Nivel: 3, Județ: Teleorman, Formă: Localitate, ID: 3384, ID Părinte: 3387 <br /><b>Variante</b><br />Nume: Sârbeni, Hartă: Geomil 25000, Limbă: Limba română</description><Point><coordinates>25.384945,44.473741,0</coordinates></Point></Placemark>
<Placemark><LineString id="3384_3387"><tessellate>1</tessellate><coordinates>25.384945,44.473741,0.
25.376930,44.498236,0</coordinates></LineString><Style><LineStyle><width>3</width></LineStyle></Style></Placemark>
<Placemark><name>Sârbeni</name><description>Nume: Sârbeni, Tip: sârbeni, Nivel: 3, Județ: Teleorman, Formă: Înălțime, ID: 3386, ID Părinte: 3384 <br /><b>Variante</b><br />Nume: Sârbeni, Hartă: Geomil 25000, Limbă: Limba română</description><Point><coordinates>25.391288,44.455835,0</coordinates></Point></Placemark>
<Placemark><LineString id="3386_3384"><tessellate>1</tessellate><coordinates>25.391288,44.455835,0.
25.384945,44.473741,0</coordinates></LineString><Style><LineStyle><width>3</width></LineStyle></Style></Placemark>
<Placemark><name>Sârbeni de Jos</name><description>Nume: Sârbeni de Jos, Tip: sârbeni, Nivel: 3, Județ: Teleorman, Formă: Localitate, ID: 3385, ID Părinte: 3384 <br /><b>Variante</b><br />Nume: Sârbeni de Jos, Hartă: Geomil 25000, Limbă: Limba română</description><Point><coordinates>25.405095,44.463189,0</coordinates></Point></Placemark>
<Placemark><LineString id="3385_3384"><tessellate>1</tessellate><coordinates>25.405095,44.463189,0.
25.384945,44.473741,0</coordinates></LineString><Style><LineStyle><width>3</width></LineStyle></Style></Placemark>
<Placemark><name>Fântâna Sârbilor</name><description>Nume: Fântâna Sârbilor, Tip: sârbi, Nivel: 2, Județ: Teleorman, Formă: Altele, ID: 9046 <br /><b>Variante</b><br />Nume: Fântâna Sârbilor, Hartă: PDT, Limbă: Limba română</description><Point><coordinates>24.880116,44.140877,0</coordinates></Point></Placemark>
<Placemark><name>Lacu Sârbilor</name><description>Nume: Lacu Sârbilor, Tip: sârbi, Nivel: 2, Județ: Teleorman, Formă: Lac, ID: 1395, ID Părinte: 8480 <br /><b>Variante</b><br />Nume: Lacu Sârbilor, Hartă: Geomil 25000, Limbă: Limba română<br />Nume: La Lacul Sârbilor, Hartă: PDT, Limbă: Limba română</description><Point><coordinates>25.434786,44.397604,0</coordinates></Point></Placemark>
<Placemark><LineString id="1395_8480"><tessellate>1</tessellate><coordinates>25.434786,44.397604,0.
25.423606,44.431207,0</coordinates></LineString><Style><LineStyle><width>3</width></LineStyle></Style></Placemark>
<Placemark><name>Valea Sârbilor</name><description>Nume: Valea Sârbilor, Tip: sârbi, Nivel: 2, Județ: Teleorman, Formă: Vale, ID: 1381 <br /><b>Variante</b><br />Nume: Valea Sârbilor, Hartă: Geomil 25000, Limbă: Limba română</description><Point><coordinates>25.097232,43.870338,0</coordinates></Point></Placemark>
<Placemark><name>Cioaca Sârbului</name><description>Nume: Cioaca Sârbului, Tip: sârb, Nivel: 3, Județ: Timis, Formă: Înălțime, ID: 875 <br /><b>Variante</b><br />Nume: Cioaca Sârbului, Hartă: Geomil 25000, Limbă: Limba română<br />Nume: Dâmbul Sârbului, Hartă: PDT, Limbă: Limba română</description><Point><coordinates>22.395401,45.926061,0</coordinates></Point></Placemark>
<Placemark><name>Pârâu Sârbului</name><description>Nume: Pârâu Sârbului, Tip: sârb, Nivel: 3, Județ: Timis, Formă: Vale, ID: 10307 <br /><b>Variante</b><br />Nume: Pârâu Sârbului, Hartă: Geomil 25000, Limbă: Limba română</description><Point><coordinates>22.390684,45.784097,0</coordinates></Point></Placemark>
<Placemark><name>Poiana Sârbului</name><description>Nume: Poiana Sârbului, Tip: sârb, Nivel: 3, Județ: Timis, Formă: Poiană, ID: 10866 <br /><b>Variante</b><br />Nume: Poiana Sârbului, Hartă: Imperiul Habsburgic (1887), Limbă: Limba română</description><Point><coordinates>21.858978,45.771251,0</coordinates></Point></Placemark>
<Placemark><name>Valea Sârbului</name><description>Nume: Valea Sârbului, Tip: sârb, Nivel: 3, Județ: Timis, Formă: Vale, ID: 6073 <br /><b>Variante</b><br />Nume: Valea Sârbului, Hartă: Geomil 25000, Limbă: Limba română</description><Point><coordinates>22.119110,45.645101,0</coordinates></Point></Placemark>
<Placemark><name>Valea Sârbului</name><description>Nume: Valea Sârbului, Tip: sârb, Nivel: 3, Județ: Timis, Formă: Vale, ID: 7638 <br /><b>Variante</b><br />Nume: Valea Sârbului, Hartă: PDT, Limbă: Limba română</description><Point><coordinates>21.140116,45.961961,0</coordinates></Point></Placemark>
<Placemark><name>Medjița Sârbească</name><description>Nume: Medjița Sârbească, Tip: sârbească, Nivel: 3, Județ: Timis, Formă: Altele, ID: 7619 <br /><b>Variante</b><br />Nume: Medjița Sârbească, Hartă: PDT, Limbă: Limba română</description><Point><coordinates>20.912288,45.730100,0</coordinates></Point></Placemark>
<Placemark><name>Ohaba sârbească</name><description>Nume: Ohaba sârbească, Tip: sârbească, Nivel: 3, Județ: Timis, Formă: Localitate, ID: 10358 <br /><b>Variante</b><br />Nume: Ohaba Română, Hartă: Geomil 25000, Limbă: Limba română</description><Point><coordinates>21.943474,45.950049,0</coordinates></Point></Placemark>
<Placemark><name>Pârâu Sârbeni</name><description>Nume: Pârâu Sârbeni, Tip: sârbeni, Nivel: 3, Județ: Timis, Formă: Vale, ID: 12835 <br /><b>Variante</b><br />Nume: Pârâu Sârbeni, Hartă: Geomil 25000, Limbă: Limba română</description><Point><coordinates>22.129823,45.873818,0</coordinates></Point></Placemark>
<Placemark><name>Sânmartinu Sârbesc</name><description>Nume: Sânmartinu Sârbesc, Tip: sârbesc, Nivel: 3, Județ: Timis, Formă: Localitate, ID: 7616 <br /><b>Variante</b><br />Nume: Sânmartinu Sârbesc, Hartă: Geomil 25000, Limbă: Limba română</description><Point><coordinates>20.958371,45.604689,0</coordinates></Point></Placemark>
<Placemark><name>Viile Sârbești</name><description>Nume: Viile Sârbești, Tip: sârbești, Nivel: 3, Județ: Timis, Formă: Altele, ID: 5657 <br /><b>Variante</b><br />Nume: Viile Sârbești, Hartă: PDT, Limbă: Limba română</description><Point><coordinates>20.975393,46.025177,0</coordinates></Point></Placemark>
<Placemark><name>La Sârbi</name><description>Nume: La Sârbi, Tip: sârbi, Nivel: 2, Județ: Timis, Formă: Altele, ID: 1960 <br /><b>Variante</b><br />Nume: La Sârbi, Hartă: Geomil 25000, Limbă: Limba română<br />Nume: Sârbi, Hartă: PDT, Limbă: Limba română</description><Point><coordinates>20.274867,46.128860,0</coordinates></Point></Placemark>
<Placemark><name>Sirbowa</name><description>Nume: Sirbowa, Tip: sârbova, Nivel: 3, Județ: Timis, Formă: Localitate, ID: 12053 <br /><b>Variante</b><br />Nume: Sirbowa, Hartă: Banat (1769-1772), Limbă: Limba română<br />Nume: Sârbova, Hartă: Geomil 25000, Limbă: Limba română</description><Point><coordinates>21.552661,45.704937,0</coordinates></Point></Placemark>
<Placemark><name>Câmpul Sârbului</name><description>Nume: Câmpul Sârbului, Tip: sârb, Nivel: 3, Județ: Valcea, Formă: Câmp, ID: 9372 <br /><b>Variante</b><br />Nume: Câmpul Sârbului, Hartă: PDT, Limbă: Limba română</description><Point><coordinates>24.338447,44.854018,0</coordinates></Point></Placemark>
<Placemark><name>Valea Sârbeana</name><description>Nume: Valea Sârbeana, Tip: sârbeana, Nivel: 3, Județ: Valcea, Formă: Vale, ID: 2956, ID Părinte: 2954 <br /><b>Variante</b><br />Nume: Valea Sârbeana, Hartă: Geomil 25000, Limbă: Limba română</description><Point><coordinates>24.055755,44.653874,0</coordinates></Point></Placemark>
<Placemark><LineString id="2956_2954"><tessellate>1</tessellate><coordinates>24.055755,44.653874,0.
24.085361,44.649470,0</coordinates></LineString><Style><LineStyle><width>3</width></LineStyle></Style></Placemark>
<Placemark><name>Dealul Sârbeni</name><description>Nume: Dealul Sârbeni, Tip: sârbeni, Nivel: 3, Județ: Valcea, Formă: Deal, ID: 2955, ID Părinte: 2954 <br /><b>Variante</b><br />Nume: Dealul Sârbeni, Hartă: Geomil 25000, Limbă: Limba română</description><Point><coordinates>24.058498,44.660645,0</coordinates></Point></Placemark>
<Placemark><LineString id="2955_2954"><tessellate>1</tessellate><coordinates>24.058498,44.660645,0.
24.085361,44.649470,0</coordinates></LineString><Style><LineStyle><width>3</width></LineStyle></Style></Placemark>
<Placemark><name>Sârbi</name><description>Nume: Sârbi, Tip: sârbi, Nivel: 2, Județ: Valcea, Formă: Localitate, ID: 2954 <br /><b>Variante</b><br />Nume: Sârbi, Hartă: Geomil 25000, Limbă: Limba română</description><Point><coordinates>24.085361,44.649470,0</coordinates></Point></Placemark>
<Placemark><name>Valea Sârbilor</name><description>Nume: Valea Sârbilor, Tip: sârbi, Nivel: 2, Județ: Valcea, Formă: Vale, ID: 260 <br /><b>Variante</b><br />Nume: Valea Sârbilor, Hartă: Geomil 25000, Limbă: Limba română<br />Nume: Valea Sârbilor, Hartă: PDT, Limbă: Limba română</description><Point><coordinates>23.946513,44.658001,0</coordinates></Point></Placemark>
<Placemark><name>Poiana la Prisaca Sârbului</name><description>Nume: Poiana la Prisaca Sârbului, Tip: sârb, Nivel: 3, Județ: Vaslui, Formă: Poiană, ID: 9543 <br /><b>Variante</b><br />Nume: Poiana la Prisaca Sârbului, Hartă: Moldova (1892-1898), Limbă: Limba română</description><Point><coordinates>27.652756,46.666541,0</coordinates></Point></Placemark>
<Placemark><name>Dealul Sârbilor</name><description>Nume: Dealul Sârbilor, Tip: sârbi, Nivel: 2, Județ: Vaslui, Formă: Deal, ID: 9718 <br /><b>Variante</b><br />Nume: Dealul Sârbilor, Hartă: Moldova (1892-1898), Limbă: Limba română</description><Point><coordinates>27.744072,46.786172,0</coordinates></Point></Placemark>
<Placemark><name>Sârbi</name><description>Nume: Sârbi, Tip: sârbi, Nivel: 2, Județ: Vaslui, Formă: Localitate, ID: 2176 <br /><b>Variante</b><br />Nume: Sârbi, Hartă: Geomil 25000, Limbă: Limba română</description><Point><coordinates>27.810551,46.393175,0</coordinates></Point></Placemark>
<Placemark><name>Valea Sârbilor</name><description>Nume: Valea Sârbilor, Tip: sârbi, Nivel: 2, Județ: Vaslui, Formă: Vale, ID: 13941 <br /><b>Variante</b><br />Nume: Valea Sârbilor, Hartă: Moldova (1892-1898), Limbă: Limba română</description><Point><coordinates>27.787649,46.716505,0</coordinates></Point></Placemark>
<Placemark><name>Piscul Sârbului</name><description>Nume: Piscul Sârbului, Tip: sârb, Nivel: 3, Județ: Vrancea, Formă: Înălțime, ID: 11305 <br /><b>Variante</b><br />Nume: Piscul Sârbului, Hartă: Geomil 25000, Limbă: Limba română</description><Point><coordinates>26.757869,46.076604,0</coordinates></Point></Placemark>
<Placemark><name>Dealul Sârba</name><description>Nume: Dealul Sârba, Tip: sârba, Nivel: 3, Județ: Vrancea, Formă: Deal, ID: 9234 <br /><b>Variante</b><br />Nume: Dealul Sârba, Hartă: PDT, Limbă: Limba română</description><Point><coordinates>27.031567,45.772186,0</coordinates></Point></Placemark>
<Placemark><name>La Sârba</name><description>Nume: La Sârba, Tip: sârba, Nivel: 3, Județ: Vrancea, Formă: Altele, ID: 9233, ID Părinte: 9234 <br /><b>Variante</b><br />Nume: La Sârba, Hartă: PDT, Limbă: Limba română</description><Point><coordinates>27.030202,45.780327,0</coordinates></Point></Placemark>
<Placemark><LineString id="9233_9234"><tessellate>1</tessellate><coordinates>27.030202,45.780327,0.
27.031567,45.772186,0</coordinates></LineString><Style><LineStyle><width>3</width></LineStyle></Style></Placemark>
<Placemark><name>Dealul Sârbii Vechi</name><description>Nume: Dealul Sârbii Vechi, Tip: sârbi, Nivel: 2, Județ: Vrancea, Formă: Deal, ID: 10896 <br /><b>Variante</b><br />Nume: Dealul Sârbii Vechi, Hartă: Geomil 25000, Limbă: Limba română</description><Point><coordinates>27.219998,46.174524,0</coordinates></Point></Placemark>
<Placemark><name>Sârbi</name><description>Nume: Sârbi, Tip: sârbi, Nivel: 2, Județ: Vrancea, Formă: Localitate, ID: 5277 <br /><b>Variante</b><br />Nume: Sârbi, Hartă: Geomil 25000, Limbă: Limba română</description><Point><coordinates>27.062751,45.870420,0</coordinates></Point></Placemark></Document></kml>