<?xml version="1.0" encoding="UTF-8"?><kml xmlns="http://www.opengis.net/kml/2.2"><Document><Placemark><name>Turnul</name><description>Nume: Turnul, Tip: turn, Nivel: 2, Județ: Alba, Formă: Înălțime, ID: 13686 <br /><b>Variante</b><br />Nume: Turnul, Hartă: Imperiul Habsburgic (1887), Limbă: Limba română</description><Point><coordinates>23.481664,46.152320,0</coordinates></Point></Placemark>
<Placemark><name>Valea Turnului</name><description>Nume: Valea Turnului, Tip: turn, Nivel: 2, Județ: Alba, Formă: Vale, ID: 9663 <br /><b>Variante</b><br />Nume: Valea Turnului, Hartă: Geomil 25000, Limbă: Limba română</description><Point><coordinates>23.127954,46.122465,0</coordinates></Point></Placemark>
<Placemark><name>Valea Turnului</name><description>Nume: Valea Turnului, Tip: turn, Nivel: 2, Județ: Arges, Formă: Vale, ID: 10176 <br /><b>Variante</b><br />Nume: Valea Turnului, Hartă: Geomil 25000, Limbă: Limba română</description><Point><coordinates>24.743038,45.338881,0</coordinates></Point></Placemark>
<Placemark><name>Dealul Turnului</name><description>Nume: Dealul Turnului, Tip: turn, Nivel: 2, Județ: Bihor, Formă: Deal, ID: 12368 <br /><b>Variante</b><br />Nume: Dealul Turnului, Hartă: PDT, Limbă: Limba română</description><Point><coordinates>21.971801,46.882302,0</coordinates></Point></Placemark>
<Placemark><name>Muchia Turnului</name><description>Nume: Muchia Turnului, Tip: turn, Nivel: 2, Județ: Brasov, Formă: Înălțime, ID: 1544 <br /><b>Variante</b><br />Nume: Muchia Turnului, Hartă: Geomil 25000, Limbă: Limba română</description><Point><coordinates>25.460484,45.496037,0</coordinates></Point></Placemark>
<Placemark><name>Turnu Mare</name><description>Nume: Turnu Mare, Tip: turn, Nivel: 2, Județ: Caras Severin, Formă: Altele, ID: 8513 <br /><b>Variante</b><br />Nume: Turnu Mare, Hartă: PDT, Limbă: Limba română</description><Point><coordinates>21.763791,44.891325,0</coordinates></Point></Placemark>
<Placemark><name>Turnu Pietroniu</name><description>Nume: Turnu Pietroniu, Tip: turn, Nivel: 2, Județ: Caras Severin, Formă: Altele, ID: 6092 <br /><b>Variante</b><br />Nume: Turnu Pietroniu, Hartă: Geomil 25000, Limbă: Limba română</description><Point><coordinates>22.348524,45.394751,0</coordinates></Point></Placemark>
<Placemark><name>La Turn</name><description>Nume: La Turn, Tip: turn, Nivel: 2, Județ: Hunedoara, Formă: Altele, ID: 9846 <br /><b>Variante</b><br />Nume: La Turn, Hartă: Geomil 25000, Limbă: Limba română</description><Point><coordinates>23.181454,45.800270,0</coordinates></Point></Placemark>
<Placemark><name>Poeana Turnurilor</name><description>Nume: Poeana Turnurilor, Tip: turn, Nivel: 2, Județ: Hunedoara, Formă: Poiană, ID: 10686 <br /><b>Variante</b><br />Nume: Poeana Turnurilor, Hartă: Imperiul Habsburgic (1887), Limbă: Limba română</description><Point><coordinates>22.566528,45.820904,0</coordinates></Point></Placemark>
<Placemark><name>Dealul Turnului</name><description>Nume: Dealul Turnului, Tip: turn, Nivel: 2, Județ: Mures, Formă: Deal, ID: 10063 <br /><b>Variante</b><br />Nume: Dealul Turnului, Hartă: PDT, Limbă: Limba română</description><Point><coordinates>24.815346,46.219678,0</coordinates></Point></Placemark>
<Placemark><name>Turnu Băiței</name><description>Nume: Turnu Băiței, Tip: turn, Nivel: 2, Județ: Mures, Formă: Altele, ID: 5460 <br /><b>Variante</b><br />Nume: Turnu Băiței, Hartă: PDT, Limbă: Limba română<br />Nume: Turnul Băiței, Hartă: Geomil 25000, Limbă: Limba română</description><Point><coordinates>24.540580,46.839577,0</coordinates></Point></Placemark>
<Placemark><name>Turnul Ceasului</name><description>Nume: Turnul Ceasului, Tip: turn, Nivel: 2, Județ: Sibiu, Formă: Altele, ID: 11381 <br /><b>Variante</b><br />Nume: Turnul Ceasului, Hartă: Geomil 25000, Limbă: Limba română</description><Point><coordinates>24.328339,45.650752,0</coordinates></Point></Placemark>
<Placemark><name>Turnul Spart</name><description>Nume: Turnul Spart, Tip: turn, Nivel: 2, Județ: Sibiu, Formă: Altele, ID: 4040 <br /><b>Variante</b><br />Nume: Turnul Spart, Hartă: PDT, Limbă: Limba română</description><Point><coordinates>24.259860,45.588152,0</coordinates></Point></Placemark>
<Placemark><name>Pârâul Turnului</name><description>Nume: Pârâul Turnului, Tip: turn, Nivel: 2, Județ: Suceava, Formă: Vale, ID: 7247 <br /><b>Variante</b><br />Nume: Pârâul Turnului, Hartă: PDT, Limbă: Limba română</description><Point><coordinates>24.986606,47.569365,0</coordinates></Point></Placemark>
<Placemark><name>Alter Thurn (Turn Vechi)</name><description>Nume: Alter Thurn (Turn Vechi), Tip: turn, Nivel: 2, Județ: Timis, Formă: Altele, ID: 11901 <br /><b>Variante</b><br />Nume: Alter Thurn (Turn Vechi), Hartă: Banat (1769-1772), Limbă: Limba germană</description><Point><coordinates>20.364693,46.110622,0</coordinates></Point></Placemark></Document></kml>