<?xml version="1.0" encoding="UTF-8"?><kml xmlns="http://www.opengis.net/kml/2.2"><Document><Placemark><name>Dealul Berindei</name><description>Nume: Dealul Berindei, Tip: berindei, Nivel: 3, Județ: Suceava, Formă: Deal, ID: 1776 <br /><b>Variante</b><br />Nume: Dealul Berindei, Hartă: Geomil 25000, Limbă: Limba română</description><Point><coordinates>26.206248,47.315089</coordinates></Point></Placemark>
<Placemark><name>Berindei</name><description>Nume: Berindei, Tip: berindei, Nivel: 3, Județ: Valcea, Formă: Altele, ID: 3090 <br /><b>Variante</b><br />Nume: Berindei, Hartă: Geomil 25000, Limbă: Limba română</description><Point><coordinates>23.906060,44.701383</coordinates></Point></Placemark>
<Placemark><name>Berindei</name><description>Nume: Berindei, Tip: berindei, Nivel: 3, Județ: Prahova, Formă: Localitate, ID: 7476 <br /><b>Variante</b><br />Nume: Berindei, Hartă: PDT, Limbă: Limba română</description><Point><coordinates>26.113518,45.160080</coordinates></Point></Placemark>
<Placemark><name>Berindei</name><description>Nume: Berindei, Tip: berindei, Nivel: 3, Județ: Olt, Formă: Localitate, ID: 7748 <br /><b>Variante</b><br />Nume: Berindei, Hartă: Geomil 25000, Limbă: Limba română</description><Point><coordinates>24.562740,44.108152</coordinates></Point></Placemark>
<Placemark><name>Cotul Berindei</name><description>Nume: Cotul Berindei, Tip: berindei, Nivel: 3, Județ: Gorj, Formă: Apă-deal-câmpie, ID: 8059 <br /><b>Variante</b><br />Nume: Cotul Berindei, Hartă: PDT, Limbă: Limba română</description><Point><coordinates>23.159606,44.934194</coordinates></Point></Placemark>
<Placemark><name>Pădurea Berindei</name><description>Nume: Pădurea Berindei, Tip: berindei, Nivel: 3, Județ: Alba, Formă: Pădure, ID: 8636 <br /><b>Variante</b><br />Nume: Pădurea Berindei, Hartă: PDT, Limbă: Limba română</description><Point><coordinates>24.083544,46.205658</coordinates></Point></Placemark>
<Placemark><name>Pădurea Berindei</name><description>Nume: Pădurea Berindei, Tip: berindei, Nivel: 3, Județ: Teleorman, Formă: Pădure, ID: 10111 <br /><b>Variante</b><br />Nume: Pădurea Berindei, Hartă: Geomil 25000, Limbă: Limba română</description><Point><coordinates>24.949771,44.270756</coordinates></Point></Placemark>
<Placemark><name>Ferma Berindei</name><description>Nume: Ferma Berindei, Tip: berindei, Nivel: 3, Județ: Satu Mare, Formă: Altele, ID: 10319 <br /><b>Variante</b><br />Nume: Ferma Berindei, Hartă: PDT, Limbă: Limba română</description><Point><coordinates>23.115045,47.894684</coordinates></Point></Placemark>
<Placemark><name>Berindei</name><description>Nume: Berindei, Tip: berindei, Nivel: 3, Județ: Arges, Formă: Localitate, ID: 12638 <br /><b>Variante</b><br />Nume: Berindei, Hartă: British Maps (1944), Limbă: Limba română</description><Point><coordinates>24.776550,44.965568</coordinates></Point></Placemark></Document></kml>