<?xml version="1.0" encoding="UTF-8"?><kml xmlns="http://www.opengis.net/kml/2.2"><Document><Placemark><name>Dealul Grecului</name><description>Nume: Dealul Grecului, Tip: grec, Nivel: 3, Județ: Neamt, Formă: Deal, ID: 675 <br /><b>Variante</b><br />Nume: Dealul Grecului, Hartă: Geomil 25000, Limbă: Limba română</description><Point><coordinates>26.191176,46.960398</coordinates></Point></Placemark>
<Placemark><name>Valea Grecului</name><description>Nume: Valea Grecului, Tip: grec, Nivel: 3, Județ: Galati, Formă: Vale, ID: 742 <br /><b>Variante</b><br />Nume: Valea Grecului, Hartă: Geomil 25000, Limbă: Limba română</description><Point><coordinates>27.546873,45.817155</coordinates></Point></Placemark>
<Placemark><name>La Lacu Grecului</name><description>Nume: La Lacu Grecului, Tip: grec, Nivel: 3, Județ: Teleorman, Formă: Lac, ID: 1394 <br /><b>Variante</b><br />Nume: La Lacu Grecului, Hartă: Geomil 25000, Limbă: Limba română</description><Point><coordinates>25.443492,44.380705</coordinates></Point></Placemark>
<Placemark><name>Dealul Grecului</name><description>Nume: Dealul Grecului, Tip: grec, Nivel: 3, Județ: Vaslui, Formă: Deal, ID: 1695 <br /><b>Variante</b><br />Nume: Dealul Grecului, Hartă: Geomil 25000, Limbă: Limba română</description><Point><coordinates>28.069788,46.736044</coordinates></Point></Placemark>
<Placemark><name>Dealul Grecului</name><description>Nume: Dealul Grecului, Tip: grec, Nivel: 3, Județ: Brasov, Formă: Deal, ID: 2678 <br /><b>Variante</b><br />Nume: Dealul Grecului, Hartă: Geomil 25000, Limbă: Limba română</description><Point><coordinates>24.826217,45.875541</coordinates></Point></Placemark>
<Placemark><name>La Lacul Grecului</name><description>Nume: La Lacul Grecului, Tip: grec, Nivel: 3, Județ: Olt, Formă: Lac, ID: 2988 <br /><b>Variante</b><br />Nume: La Lacul Grecului, Hartă: PDT, Limbă: Limba română</description><Point><coordinates>24.657170,44.237833</coordinates></Point></Placemark>
<Placemark><name>Pădurea Tufele Grecului</name><description>Nume: Pădurea Tufele Grecului, Tip: grec, Nivel: 3, Județ: Calarasi, Formă: Pădure, ID: 3273 <br /><b>Variante</b><br />Nume: Pădurea Tufele Grecului, Hartă: Geomil 25000, Limbă: Limba română</description><Point><coordinates>26.490253,44.132022</coordinates></Point></Placemark>
<Placemark><name>La Crama Grecului</name><description>Nume: La Crama Grecului, Tip: grec, Nivel: 3, Județ: Vrancea, Formă: Altele, ID: 3560 <br /><b>Variante</b><br />Nume: La Crama Grecului, Hartă: PDT, Limbă: Limba română</description><Point><coordinates>27.105892,45.884548</coordinates></Point></Placemark>
<Placemark><name>Fântâna Grecului</name><description>Nume: Fântâna Grecului, Tip: grec, Nivel: 3, Județ: Mehedinti, Formă: Altele, ID: 3655 <br /><b>Variante</b><br />Nume: Fântâna Grecului, Hartă: PDT, Limbă: Limba română</description><Point><coordinates>22.842587,44.283385</coordinates></Point></Placemark>
<Placemark><name>Eleșteul Grecului</name><description>Nume: Eleșteul Grecului, Tip: grec, Nivel: 3, Județ: Arges, Formă: Apă-deal-câmpie, ID: 3719 <br /><b>Variante</b><br />Nume: Eleșteul Grecului, Hartă: PDT, Limbă: Limba română</description><Point><coordinates>25.162863,44.584704</coordinates></Point></Placemark>
<Placemark><name>Lacul Grecului</name><description>Nume: Lacul Grecului, Tip: grec, Nivel: 3, Județ: Teleorman, Formă: Lac, ID: 3727 <br /><b>Variante</b><br />Nume: Lacul Grecului, Hartă: PDT, Limbă: Limba română</description><Point><coordinates>25.101954,44.264960</coordinates></Point></Placemark>
<Placemark><name>Puțul Grecului</name><description>Nume: Puțul Grecului, Tip: grec, Nivel: 3, Județ: Teleorman, Formă: Altele, ID: 3747 <br /><b>Variante</b><br />Nume: Puțul Grecului, Hartă: PDT, Limbă: Limba română</description><Point><coordinates>25.341473,44.394519</coordinates></Point></Placemark>
<Placemark><name>Puțu Grecului</name><description>Nume: Puțu Grecului, Tip: grec, Nivel: 3, Județ: Ilfov, Formă: Altele, ID: 3752 <br /><b>Variante</b><br />Nume: Puțu Grecului, Hartă: PDT, Limbă: Limba română</description><Point><coordinates>25.868902,44.404053</coordinates></Point></Placemark>
<Placemark><name>Râtul Grecului</name><description>Nume: Râtul Grecului, Tip: grec, Nivel: 3, Județ: Bihor, Formă: Altele, ID: 4139 <br /><b>Variante</b><br />Nume: Râtul Grecului, Hartă: PDT, Limbă: Limba română</description><Point><coordinates>22.172071,46.849788</coordinates></Point></Placemark>
<Placemark><name>Poiana Grecului</name><description>Nume: Poiana Grecului, Tip: grec, Nivel: 3, Județ: Ilfov, Formă: Poiană, ID: 4265 <br /><b>Variante</b><br />Nume: Poiana Grecului, Hartă: PDT, Limbă: Limba română<br />Nume: la puana Greku, Hartă: Austriacă, Limbă: Limba română</description><Point><coordinates>26.316342,44.435336</coordinates></Point></Placemark>
<Placemark><name>Dealul Grecului</name><description>Nume: Dealul Grecului, Tip: grec, Nivel: 3, Județ: Dolj, Formă: Deal, ID: 4688 <br /><b>Variante</b><br />Nume: Dealul Grecului, Hartă: Geomil 25000, Limbă: Limba română<br />Nume: Dealul Grecului, Hartă: PDT, Limbă: Limba română</description><Point><coordinates>23.752816,44.430900</coordinates></Point></Placemark>
<Placemark><name>Piscul Grecului</name><description>Nume: Piscul Grecului, Tip: grec, Nivel: 3, Județ: Brasov, Formă: Înălțime, ID: 4953 <br /><b>Variante</b><br />Nume: Piscul Grecului, Hartă: Geomil 25000, Limbă: Limba română<br />Nume: Piscul Grecului, Hartă: PDT, Limbă: Limba română</description><Point><coordinates>25.051220,45.676202</coordinates></Point></Placemark>
<Placemark><name>Mârâcine Grekului</name><description>Nume: Mârâcine Grekului, Tip: grec, Nivel: 3, Județ: Buzau, Formă: Pădure, ID: 5261 <br /><b>Variante</b><br />Nume: Mârâcine Grekului, Hartă: Austriacă, Limbă: Limba română</description><Point><coordinates>27.114125,45.350127</coordinates></Point></Placemark>
<Placemark><name>Pârâul Grecului</name><description>Nume: Pârâul Grecului, Tip: grec, Nivel: 3, Județ: Vrancea, Formă: Vale, ID: 5355 <br /><b>Variante</b><br />Nume: Pârâul Grecului, Hartă: PDT, Limbă: Limba română</description><Point><coordinates>26.779082,45.894298</coordinates></Point></Placemark>
<Placemark><name>Valea Grecului</name><description>Nume: Valea Grecului, Tip: grec, Nivel: 3, Județ: Mures, Formă: Vale, ID: 5373 <br /><b>Variante</b><br />Nume: Valea Grecului, Hartă: Geomil 25000, Limbă: Limba română</description><Point><coordinates>24.393062,46.677686</coordinates></Point></Placemark>
<Placemark><name>Pârâul Fundul Grecului</name><description>Nume: Pârâul Fundul Grecului, Tip: grec, Nivel: 3, Județ: Sibiu, Formă: Vale, ID: 5529 <br /><b>Variante</b><br />Nume: Pârâul Fundul Grecului, Hartă: PDT, Limbă: Limba română</description><Point><coordinates>24.506320,46.083632</coordinates></Point></Placemark>
<Placemark><name>Ogașu Grecului</name><description>Nume: Ogașu Grecului, Tip: grec, Nivel: 3, Județ: Caras Severin, Formă: Vale, ID: 5709 <br /><b>Variante</b><br />Nume: Ogașu Grecului, Hartă: Geomil 25000, Limbă: Limba română</description><Point><coordinates>21.545508,45.098216</coordinates></Point></Placemark>
<Placemark><name>Pârâu Valea Grecului</name><description>Nume: Pârâu Valea Grecului, Tip: grec, Nivel: 3, Județ: Caras Severin, Formă: Vale, ID: 5738 <br /><b>Variante</b><br />Nume: Pârâu Valea Grecului, Hartă: Geomil 25000, Limbă: Limba română</description><Point><coordinates>21.696275,44.758177</coordinates></Point></Placemark>
<Placemark><name>Greku</name><description>Nume: Greku, Tip: grec, Nivel: 3, Județ: Giurgiu, Formă: Apă-deal-câmpie, ID: 5742 <br /><b>Variante</b><br />Nume: Greku, Hartă: Austriacă, Limbă: Limba română</description><Point><coordinates>25.803967,43.756322</coordinates></Point></Placemark>
<Placemark><name>Valea Grecului</name><description>Nume: Valea Grecului, Tip: grec, Nivel: 3, Județ: Olt, Formă: Vale, ID: 5816 <br /><b>Variante</b><br />Nume: Valea Grecului, Hartă: Geomil 25000, Limbă: Limba română</description><Point><coordinates>24.708431,44.563424</coordinates></Point></Placemark>
<Placemark><name>Groapa Grecului</name><description>Nume: Groapa Grecului, Tip: grec, Nivel: 3, Județ: Hunedoara, Formă: Altele, ID: 6109 <br /><b>Variante</b><br />Nume: Groapa Grecului, Hartă: Geomil 25000, Limbă: Limba română</description><Point><coordinates>22.779399,45.605947</coordinates></Point></Placemark>
<Placemark><name>De. Grekului</name><description>Nume: De. Grekului, Tip: grec, Nivel: 3, Județ: Mehedinti, Formă: Deal, ID: 6162 <br /><b>Variante</b><br />Nume: De. Grekului, Hartă: Austriacă, Limbă: Limba română</description><Point><coordinates>23.016358,44.315112</coordinates></Point></Placemark>
<Placemark><name>Dealu Grecului</name><description>Nume: Dealu Grecului, Tip: grec, Nivel: 3, Județ: Arad, Formă: Deal, ID: 6257 <br /><b>Variante</b><br />Nume: Dealu Grecului, Hartă: Geomil 25000, Limbă: Limba română</description><Point><coordinates>22.620866,46.282478</coordinates></Point></Placemark>
<Placemark><name>Valea Grecului</name><description>Nume: Valea Grecului, Tip: grec, Nivel: 3, Județ: Galati, Formă: Vale, ID: 7369 <br /><b>Variante</b><br />Nume: Valea Grecului, Hartă: Geomil 25000, Limbă: Limba română</description><Point><coordinates>27.760700,46.064275</coordinates></Point></Placemark>
<Placemark><name>La Bordeiu Grecului</name><description>Nume: La Bordeiu Grecului, Tip: grec, Nivel: 3, Județ: Dambovita, Formă: Altele, ID: 7454 <br /><b>Variante</b><br />Nume: La Bordeiu Grecului, Hartă: Geomil 25000, Limbă: Limba română</description><Point><coordinates>25.360017,44.776367</coordinates></Point></Placemark>
<Placemark><name>Valea Grecului</name><description>Nume: Valea Grecului, Tip: grec, Nivel: 3, Județ: Prahova, Formă: Vale, ID: 7477 <br /><b>Variante</b><br />Nume: Valea Grecului, Hartă: Geomil 25000, Limbă: Limba română</description><Point><coordinates>26.108585,45.156156</coordinates></Point></Placemark>
<Placemark><name>Lacul Grecului</name><description>Nume: Lacul Grecului, Tip: grec, Nivel: 3, Județ: Dolj, Formă: Lac, ID: 7711 <br /><b>Variante</b><br />Nume: Lacul Grecului, Hartă: PDT, Limbă: Limba română</description><Point><coordinates>23.742311,44.168272</coordinates></Point></Placemark>
<Placemark><name>Poiana Grecului</name><description>Nume: Poiana Grecului, Tip: grec, Nivel: 3, Județ: Bacau, Formă: Poiană, ID: 7835 <br /><b>Variante</b><br />Nume: Poiana Grecului, Hartă: Geomil 25000, Limbă: Limba română</description><Point><coordinates>26.921868,46.219661</coordinates></Point></Placemark>
<Placemark><name>Fântâna Grecului</name><description>Nume: Fântâna Grecului, Tip: grec, Nivel: 3, Județ: Mehedinti, Formă: Altele, ID: 8076 <br /><b>Variante</b><br />Nume: Fântâna Grecului, Hartă: PDT, Limbă: Limba română</description><Point><coordinates>22.859674,44.541617</coordinates></Point></Placemark>
<Placemark><name>Braniștea Grekului</name><description>Nume: Braniștea Grekului, Tip: grec, Nivel: 3, Județ: Dolj, Formă: Altele, ID: 8113 <br /><b>Variante</b><br />Nume: Braniștea Grekului, Hartă: Austriacă, Limbă: Limba română</description><Point><coordinates>23.646871,43.977307</coordinates></Point></Placemark>
<Placemark><name>Culmea Grecu</name><description>Nume: Culmea Grecu, Tip: grec, Nivel: 3, Județ: Valcea, Formă: Înălțime, ID: 8443 <br /><b>Variante</b><br />Nume: Culmea Grecu, Hartă: PDT, Limbă: Limba română</description><Point><coordinates>24.072631,44.980899</coordinates></Point></Placemark>
<Placemark><name>Cracul Grecului</name><description>Nume: Cracul Grecului, Tip: grec, Nivel: 3, Județ: Caras Severin, Formă: Înălțime, ID: 8516 <br /><b>Variante</b><br />Nume: Cracul Grecului, Hartă: PDT, Limbă: Limba română<br />Nume: Cracu Grecului, Hartă: Geomil 25000, Limbă: Limba română</description><Point><coordinates>21.820720,44.893130</coordinates></Point></Placemark>
<Placemark><name>Lazul Grecului</name><description>Nume: Lazul Grecului, Tip: grec, Nivel: 3, Județ: Caras Severin, Formă: Altele, ID: 8676 <br /><b>Variante</b><br />Nume: Lazul Grecului, Hartă: PDT, Limbă: Limba română</description><Point><coordinates>22.424931,45.093323</coordinates></Point></Placemark>
<Placemark><name>Valea Grecului</name><description>Nume: Valea Grecului, Tip: grec, Nivel: 3, Județ: Buzau, Formă: Vale, ID: 8735 <br /><b>Variante</b><br />Nume: Valea Grecului, Hartă: PDT, Limbă: Limba română</description><Point><coordinates>26.622839,45.184888</coordinates></Point></Placemark>
<Placemark><name>Dealul Grecului</name><description>Nume: Dealul Grecului, Tip: grec, Nivel: 3, Județ: Iasi, Formă: Deal, ID: 8901 <br /><b>Variante</b><br />Nume: Dealul Grecului, Hartă: Geomil 25000, Limbă: Limba română</description><Point><coordinates>26.785394,47.279598</coordinates></Point></Placemark>
<Placemark><name>La Lacu Grecu</name><description>Nume: La Lacu Grecu, Tip: grec, Nivel: 3, Județ: Teleorman, Formă: Lac, ID: 9449 <br /><b>Variante</b><br />Nume: La Lacu Grecu, Hartă: Geomil 25000, Limbă: Limba română</description><Point><coordinates>25.161609,44.240964</coordinates></Point></Placemark>
<Placemark><name>Găvanul Grecului</name><description>Nume: Găvanul Grecului, Tip: grec, Nivel: 3, Județ: Teleorman, Formă: Altele, ID: 9475 <br /><b>Variante</b><br />Nume: Găvanul Grecului, Hartă: PDT, Limbă: Limba română</description><Point><coordinates>24.781268,43.894224</coordinates></Point></Placemark>
<Placemark><name>Tufa Grecului</name><description>Nume: Tufa Grecului, Tip: grec, Nivel: 3, Județ: Olt, Formă: Altele, ID: 9486 <br /><b>Variante</b><br />Nume: Tufa Grecului, Hartă: Geomil 25000, Limbă: Limba română<br />Nume: Tufa Grecului, Hartă: PDT, Limbă: Limba română</description><Point><coordinates>24.507881,44.547020</coordinates></Point></Placemark>
<Placemark><name>Dealul Grecului</name><description>Nume: Dealul Grecului, Tip: grec, Nivel: 3, Județ: Bacau, Formă: Deal, ID: 9514 <br /><b>Variante</b><br />Nume: Dealul Grecului, Hartă: PDT, Limbă: Limba română</description><Point><coordinates>27.367180,46.495726</coordinates></Point></Placemark>
<Placemark><name>Valea Grecului</name><description>Nume: Valea Grecului, Tip: grec, Nivel: 3, Județ: Bacau, Formă: Vale, ID: 9515 <br /><b>Variante</b><br />Nume: Valea Grecului, Hartă: PDT, Limbă: Limba română</description><Point><coordinates>27.092153,46.488745</coordinates></Point></Placemark>
<Placemark><name>Heleșteul Grecului</name><description>Nume: Heleșteul Grecului, Tip: grec, Nivel: 3, Județ: Arges, Formă: Apă-deal-câmpie, ID: 9697 <br /><b>Variante</b><br />Nume: Heleșteul Grecului, Hartă: PDT, Limbă: Limba română</description><Point><coordinates>24.782711,44.952432</coordinates></Point></Placemark>
<Placemark><name>Crucea Grecului</name><description>Nume: Crucea Grecului, Tip: grec, Nivel: 3, Județ: Giurgiu, Formă: Altele, ID: 9993 <br /><b>Variante</b><br />Nume: Crucea Grecului, Hartă: PDT, Limbă: Limba română</description><Point><coordinates>26.048832,44.235035</coordinates></Point></Placemark>
<Placemark><name>Poiana Grecului</name><description>Nume: Poiana Grecului, Tip: grec, Nivel: 3, Județ: Arges, Formă: Poiană, ID: 10160 <br /><b>Variante</b><br />Nume: Poiana Grecului, Hartă: PDT, Limbă: Limba română</description><Point><coordinates>25.055726,44.988761</coordinates></Point></Placemark>
<Placemark><name>Dealul Grecului</name><description>Nume: Dealul Grecului, Tip: grec, Nivel: 3, Județ: Bihor, Formă: Deal, ID: 10273 <br /><b>Variante</b><br />Nume: Dealul Grecului, Hartă: PDT, Limbă: Limba română<br />Nume: Jrtașu Grekului, Hartă: Ungară 1869, Limbă: Limba română</description><Point><coordinates>22.518575,46.976798</coordinates></Point></Placemark>
<Placemark><name>Vf. Greku</name><description>Nume: Vf. Greku, Tip: grec, Nivel: 3, Județ: Satu Mare, Formă: Înălțime, ID: 10320 <br /><b>Variante</b><br />Nume: Vf. Greku, Hartă: Ungară 1869, Limbă: Limba română</description><Point><coordinates>23.567748,47.849267</coordinates></Point></Placemark>
<Placemark><name>Calu Grecului</name><description>Nume: Calu Grecului, Tip: grec, Nivel: 3, Județ: Gorj, Formă: Altele, ID: 11010 <br /><b>Variante</b><br />Nume: Calu Grecului, Hartă: Geomil 25000, Limbă: Limba română</description><Point><coordinates>23.346079,44.753062</coordinates></Point></Placemark>
<Placemark><name>Cotul Grecului</name><description>Nume: Cotul Grecului, Tip: grec, Nivel: 3, Județ: Ialomita, Formă: Apă-deal-câmpie, ID: 11061 <br /><b>Variante</b><br />Nume: Cotul Grecului, Hartă: PDT, Limbă: Limba română</description><Point><coordinates>26.394377,44.760697</coordinates></Point></Placemark>
<Placemark><name>La Grecu</name><description>Nume: La Grecu, Tip: grec, Nivel: 3, Județ: Braila, Formă: Altele, ID: 11441 <br /><b>Variante</b><br />Nume: La Grecu, Hartă: Geomil 25000, Limbă: Limba română</description><Point><coordinates>27.641806,45.383216</coordinates></Point></Placemark>
<Placemark><name>Dealul Grecului</name><description>Nume: Dealul Grecului, Tip: grec, Nivel: 3, Județ: Bacau, Formă: Deal, ID: 11641 <br /><b>Variante</b><br />Nume: Dealul Grecului, Hartă: Geomil 25000, Limbă: Limba română</description><Point><coordinates>26.626341,46.550398</coordinates></Point></Placemark>
<Placemark><name>Valea Grecului</name><description>Nume: Valea Grecului, Tip: grec, Nivel: 3, Județ: Olt, Formă: Vale, ID: 11693 <br /><b>Variante</b><br />Nume: Valea Grecului, Hartă: Geomil 25000, Limbă: Limba română</description><Point><coordinates>24.555332,44.415381</coordinates></Point></Placemark>
<Placemark><name>Pisku Grekului</name><description>Nume: Pisku Grekului, Tip: grec, Nivel: 3, Județ: Hunedoara, Formă: Înălțime, ID: 11928 <br /><b>Variante</b><br />Nume: Pisku Grekului, Hartă: Transilvania (1769-1773), Limbă: Limba română</description><Point><coordinates>23.400204,45.616131</coordinates></Point></Placemark>
<Placemark><name>Pârâul Grecu</name><description>Nume: Pârâul Grecu, Tip: grec, Nivel: 3, Județ: Buzau, Formă: Vale, ID: 13564 <br /><b>Variante</b><br />Nume: Pârâul Grecu, Hartă: Geomil 25000, Limbă: Limba română</description><Point><coordinates>26.480750,45.194907</coordinates></Point></Placemark>
<Placemark><name>Valea Grecului</name><description>Nume: Valea Grecului, Tip: grec, Nivel: 3, Județ: Ialomita, Formă: Vale, ID: 14127 <br /><b>Variante</b><br />Nume: Valea Grecului, Hartă: Geomil 25000, Limbă: Limba română</description><Point><coordinates>27.492790,44.555302</coordinates></Point></Placemark>
<Placemark><name>Movila Grecului</name><description>Nume: Movila Grecului, Tip: grec, Nivel: 3, Județ: Arges, Formă: Înălțime, ID: 14237 <br /><b>Variante</b><br />Nume: Movila Grecului, Hartă: PDT, Limbă: Limba română</description><Point><coordinates>24.756655,44.608226</coordinates></Point></Placemark></Document></kml>