<?xml version="1.0" encoding="UTF-8"?><kml xmlns="http://www.opengis.net/kml/2.2"><Document><Placemark><name>Valea Ardelenilor</name><description>Nume: Valea Ardelenilor, Tip: ardeleni, Nivel: 2, Județ: Arad, Formă: Vale, ID: 7635 <br /><b>Variante</b><br />Nume: Valea Ardelenilor, Hartă: Geomil 25000, Limbă: Limba română</description><Point><coordinates>21.280833,46.017048,0</coordinates></Point></Placemark>
<Placemark><name>Plaiul Ardelencei</name><description>Nume: Plaiul Ardelencei, Tip: ardeleancă, Nivel: 3, Județ: Arges, Formă: Înălțime, ID: 4047 <br /><b>Variante</b><br />Nume: Plaiul Ardelencei, Hartă: PDT, Limbă: Limba română</description><Point><coordinates>24.686483,45.254110,0</coordinates></Point></Placemark>
<Placemark><name>Poiana Ardeleanului</name><description>Nume: Poiana Ardeleanului, Tip: ardelean, Nivel: 3, Județ: Bacau, Formă: Poiană, ID: 4550 <br /><b>Variante</b><br />Nume: Poiana Ardeleanului, Hartă: Geomil 25000, Limbă: Limba română<br />Nume: Poiana Ardeleanului, Hartă: PDT, Limbă: Limba română</description><Point><coordinates>26.094639,46.541563,0</coordinates></Point></Placemark>
<Placemark><name>Ardeleni</name><description>Nume: Ardeleni, Tip: ardeleni, Nivel: 2, Județ: Bacau, Formă: Localitate, ID: 14320 <br /><b>Variante</b><br />Nume: Ardeleni, Hartă: PDT, Limbă: Limba română</description><Point><coordinates>26.724123,46.462822,0</coordinates></Point></Placemark>
<Placemark><name>Valea Ardeleni</name><description>Nume: Valea Ardeleni, Tip: ardeleni, Nivel: 2, Județ: Bacau, Formă: Vale, ID: 13861 <br /><b>Variante</b><br />Nume: Valea Ardeleni, Hartă: PDT, Limbă: Limba română<br />Nume: Valea Ardelenilor, Hartă: Geomil 25000, Limbă: Limba română</description><Point><coordinates>26.694344,46.404487,0</coordinates></Point></Placemark>
<Placemark><name>Dealul Ardeleanului</name><description>Nume: Dealul Ardeleanului, Tip: ardelean, Nivel: 3, Județ: Buzau, Formă: Deal, ID: 2087 <br /><b>Variante</b><br />Nume: Dealul Ardeleanului, Hartă: Geomil 25000, Limbă: Limba română</description><Point><coordinates>26.884102,45.274556,0</coordinates></Point></Placemark>
<Placemark><name>Ardeleni</name><description>Nume: Ardeleni, Tip: ardeleni, Nivel: 2, Județ: Giurgiu, Formă: Altele, ID: 1340 <br /><b>Variante</b><br />Nume: Ardeleni, Hartă: Geomil 25000, Limbă: Limba română</description><Point><coordinates>25.648185,43.831760,0</coordinates></Point></Placemark>
<Placemark><name>Vârfu Ardeleanului</name><description>Nume: Vârfu Ardeleanului, Tip: ardelean, Nivel: 3, Județ: Hunedoara, Formă: Înălțime, ID: 6099 <br /><b>Variante</b><br />Nume: Vârfu Ardeleanului, Hartă: Geomil 25000, Limbă: Limba română</description><Point><coordinates>22.667714,45.355126,0</coordinates></Point></Placemark>
<Placemark><name>Dealu Ardeleanului</name><description>Nume: Dealu Ardeleanului, Tip: ardelean, Nivel: 3, Județ: Maramures, Formă: Deal, ID: 10827 <br /><b>Variante</b><br />Nume: Dealu Ardeleanului, Hartă: Imperiul Habsburgic (1887), Limbă: Limba română</description><Point><coordinates>23.096149,47.584407,0</coordinates></Point></Placemark>
<Placemark><name>Moara Ardeleanului</name><description>Nume: Moara Ardeleanului, Tip: ardelean, Nivel: 3, Județ: Maramures, Formă: Altele, ID: 10561 <br /><b>Variante</b><br />Nume: Moara Ardeleanului, Hartă: Imperiul Habsburgic (1887), Limbă: Limba română</description><Point><coordinates>23.489812,47.488940,0</coordinates></Point></Placemark>
<Placemark><name>Valea Ardeleanu</name><description>Nume: Valea Ardeleanu, Tip: ardelean, Nivel: 3, Județ: Maramures, Formă: Vale, ID: 12348 <br /><b>Variante</b><br />Nume: Valea Ardeleanu, Hartă: Geomil 25000, Limbă: Limba română</description><Point><coordinates>23.406021,47.762129,0</coordinates></Point></Placemark>
<Placemark><name>Ardeleanul</name><description>Nume: Ardeleanul, Tip: ardelean, Nivel: 3, Județ: Neamt, Formă: Vale, ID: 13265 <br /><b>Variante</b><br />Nume: Ardeleanul, Hartă: Geomil 25000, Limbă: Limba română<br />Nume: Pârâul Ardeleanului	, Hartă: PDT, Limbă: Limba română</description><Point><coordinates>26.165060,46.959527,0</coordinates></Point></Placemark>
<Placemark><name>Fântâna Ardeleanului</name><description>Nume: Fântâna Ardeleanului, Tip: ardelean, Nivel: 3, Județ: Neamt, Formă: Altele, ID: 3891 <br /><b>Variante</b><br />Nume: Fântâna Ardeleanului, Hartă: PDT, Limbă: Limba română</description><Point><coordinates>26.960816,46.947696,0</coordinates></Point></Placemark>
<Placemark><name>Plaiul Ardeleanului</name><description>Nume: Plaiul Ardeleanului, Tip: ardelean, Nivel: 3, Județ: Vrancea, Formă: Înălțime, ID: 768 <br /><b>Variante</b><br />Nume: Plaiul Ardeleanului, Hartă: Geomil 25000, Limbă: Limba română</description><Point><coordinates>26.955909,45.819693,0</coordinates></Point></Placemark></Document></kml>