<?xml version="1.0" encoding="UTF-8"?><kml xmlns="http://www.opengis.net/kml/2.2"><Document><Placemark><name>Măgheruș</name><description>Nume: Măgheruș, Tip: măgheruș, Nivel: 3, Județ: Harghita, Formă: Localitate, ID: 5415 <br /><b>Variante</b><br />Nume: Măgheruș, Hartă: Geomil 25000, Limbă: Limba română</description><Point><coordinates>25.338093,46.920542</coordinates></Point></Placemark>
<Placemark><name>Pârâu Măgheruș</name><description>Nume: Pârâu Măgheruș, Tip: măgheruș, Nivel: 3, Județ: Timis, Formă: Vale, ID: 5654 <br /><b>Variante</b><br />Nume: Pârâu Măgheruș, Hartă: Geomil 25000, Limbă: Limba română</description><Point><coordinates>21.264480,45.887470</coordinates></Point></Placemark>
<Placemark><name>Măgherușul</name><description>Nume: Măgherușul, Tip: măgheruș, Nivel: 3, Județ: Mures, Formă: Altele, ID: 7347 <br /><b>Variante</b><br />Nume: Măgherușul, Hartă: Geomil 25000, Limbă: Limba română</description><Point><coordinates>24.295182,46.456673</coordinates></Point></Placemark>
<Placemark><name>Pădurea Măgherușului</name><description>Nume: Pădurea Măgherușului, Tip: măgheruș, Nivel: 3, Județ: Cluj, Formă: Pădure, ID: 8133 <br /><b>Variante</b><br />Nume: Pădurea Măgherușului, Hartă: PDT, Limbă: Limba română</description><Point><coordinates>23.888282,46.787781</coordinates></Point></Placemark>
<Placemark><name>Măgheruș</name><description>Nume: Măgheruș, Tip: măgheruș, Nivel: 3, Județ: Maramures, Formă: Localitate, ID: 8227 <br /><b>Variante</b><br />Nume: Măgheruș, Hartă: PDT, Limbă: Limba română</description><Point><coordinates>23.479604,47.665755</coordinates></Point></Placemark>
<Placemark><name>Măgheruș</name><description>Nume: Măgheruș, Tip: măgheruș, Nivel: 3, Județ: Mures, Formă: Localitate, ID: 8656 <br /><b>Variante</b><br />Nume: Măgheruș, Hartă: Geomil 25000, Limbă: Limba română</description><Point><coordinates>24.688064,46.320885</coordinates></Point></Placemark>
<Placemark><name>Dealul Măgheruș</name><description>Nume: Dealul Măgheruș, Tip: măgheruș, Nivel: 3, Județ: Maramures, Formă: Deal, ID: 10257 <br /><b>Variante</b><br />Nume: Dealul Măgheruș, Hartă: Geomil 25000, Limbă: Limba română</description><Point><coordinates>23.678678,47.595284</coordinates></Point></Placemark>
<Placemark><name>Valea Măgherușu</name><description>Nume: Valea Măgherușu, Tip: măgheruș, Nivel: 3, Județ: Cluj, Formă: Vale, ID: 10399 <br /><b>Variante</b><br />Nume: Valea Măgherușu, Hartă: Geomil 25000, Limbă: Limba română</description><Point><coordinates>23.587699,46.986939</coordinates></Point></Placemark>
<Placemark><name>Șieu-Măgheruș</name><description>Nume: Șieu-Măgheruș, Tip: măgheruș, Nivel: 3, Județ: Bistrita Nasaud, Formă: Localitate, ID: 10464 <br /><b>Variante</b><br />Nume: Șieu-Măgheruș, Hartă: Geomil 25000, Limbă: Limba română</description><Point><coordinates>24.374726,47.090815</coordinates></Point></Placemark>
<Placemark><name>Măgheruș</name><description>Nume: Măgheruș, Tip: măgheruș, Nivel: 3, Județ: Covasna, Formă: Localitate, ID: 10476 <br /><b>Variante</b><br />Nume: Măgheruș, Hartă: Geomil 25000, Limbă: Limba română</description><Point><coordinates>25.923158,45.790309</coordinates></Point></Placemark>
<Placemark><name>Valea Moghioruș</name><description>Nume: Valea Moghioruș, Tip: moghioruș, Nivel: 4, Județ: Cluj, Formă: Vale, ID: 5875 <br /><b>Variante</b><br />Nume: Valea Moghioruș, Hartă: Geomil 25000, Limbă: Limba română</description><Point><coordinates>23.862760,46.745371</coordinates></Point></Placemark></Document></kml>