<?xml version="1.0" encoding="UTF-8"?><kml xmlns="http://www.opengis.net/kml/2.2"><Document><Placemark><name>Cetatiu</name><description>Nume: Cetatiu, Tip: cetățuie, Nivel: 2, Județ: Alba, Formă: Altele, ID: 10805 <br /><b>Variante</b><br />Nume: Cetatiu, Hartă: Transilvania (1869-1870), Limbă: Limba română</description><Point><coordinates>23.692083,46.407564,0</coordinates></Point></Placemark>
<Placemark><name>Dealu Gruiu Cetățuii</name><description>Nume: Dealu Gruiu Cetățuii, Tip: cetățuie, Nivel: 2, Județ: Alba, Formă: Deal, ID: 6748 <br /><b>Variante</b><br />Nume: Dealu Gruiu Cetățuii, Hartă: Geomil 25000, Limbă: Limba română<br />Nume: Cetățuia Hepriei, Hartă: PDT, Limbă: Limba română</description><Point><coordinates>23.662497,46.090786,0</coordinates></Point></Placemark>
<Placemark><name>Dealu Cetățuia</name><description>Nume: Dealu Cetățuia, Tip: cetățuie, Nivel: 2, Județ: Arad, Formă: Deal, ID: 1936 <br /><b>Variante</b><br />Nume: Dealu Cetățuia, Hartă: Geomil 25000, Limbă: Limba română</description><Point><coordinates>22.614567,46.387569,0</coordinates></Point></Placemark>
<Placemark><name>Dealu Cetățuia</name><description>Nume: Dealu Cetățuia, Tip: cetățuie, Nivel: 2, Județ: Arad, Formă: Deal, ID: 6200 <br /><b>Variante</b><br />Nume: Dealu Cetățuia, Hartă: Geomil 25000, Limbă: Limba română</description><Point><coordinates>22.227155,46.010312,0</coordinates></Point></Placemark>
<Placemark><name>Pârâul Cetățuia</name><description>Nume: Pârâul Cetățuia, Tip: cetățuie, Nivel: 2, Județ: Arad, Formă: Vale, ID: 6299 <br /><b>Variante</b><br />Nume: Pârâul Cetățuia, Hartă: PDT, Limbă: Limba română</description><Point><coordinates>21.654862,46.109268,0</coordinates></Point></Placemark>
<Placemark><name>Dealul Cetățuia</name><description>Nume: Dealul Cetățuia, Tip: cetățuie, Nivel: 2, Județ: Arges, Formă: Deal, ID: 12576 <br /><b>Variante</b><br />Nume: Dealul Cetățuia, Hartă: British Maps (1944), Limbă: Limba română</description><Point><coordinates>24.578269,45.054500,0</coordinates></Point></Placemark>
<Placemark><name>Măgura Cetățuei</name><description>Nume: Măgura Cetățuei, Tip: cetățuie, Nivel: 2, Județ: Arges, Formă: Înălțime, ID: 4967 <br /><b>Variante</b><br />Nume: Măgura Cetățuei, Hartă: Geomil 25000, Limbă: Limba română</description><Point><coordinates>25.016339,45.204600,0</coordinates></Point></Placemark>
<Placemark><name>Muchia Cetățuei</name><description>Nume: Muchia Cetățuei, Tip: cetățuie, Nivel: 2, Județ: Arges, Formă: Înălțime, ID: 4968, ID Părinte: 4967 <br /><b>Variante</b><br />Nume: Muchia Cetățuei, Hartă: Geomil 25000, Limbă: Limba română</description><Point><coordinates>25.022418,45.209404,0</coordinates></Point></Placemark>
<Placemark><LineString id="4968_4967"><tessellate>1</tessellate><coordinates>25.022418,45.209404,0.
25.016339,45.204600,0</coordinates></LineString><Style><LineStyle><width>3</width></LineStyle></Style></Placemark>
<Placemark><name>Piscul Cetățuia</name><description>Nume: Piscul Cetățuia, Tip: cetățuie, Nivel: 2, Județ: Arges, Formă: Înălțime, ID: 4048 <br /><b>Variante</b><br />Nume: Piscul Cetățuia, Hartă: PDT, Limbă: Limba română</description><Point><coordinates>24.692295,45.250812,0</coordinates></Point></Placemark>
<Placemark><name>Valea Cetățuia</name><description>Nume: Valea Cetățuia, Tip: cetățuie, Nivel: 2, Județ: Arges, Formă: Localitate, ID: 5049, ID Părinte: 5046 <br /><b>Variante</b><br />Nume: Valea Cetățuia, Hartă: Geomil 25000, Limbă: Limba română</description><Point><coordinates>25.199126,45.217598,0</coordinates></Point></Placemark>
<Placemark><LineString id="5049_5046"><tessellate>1</tessellate><coordinates>25.199126,45.217598,0.
25.208835,45.217171,0</coordinates></LineString><Style><LineStyle><width>3</width></LineStyle></Style></Placemark>
<Placemark><name>Valea Cetățuia</name><description>Nume: Valea Cetățuia, Tip: cetățuie, Nivel: 2, Județ: Arges, Formă: Vale, ID: 5055 <br /><b>Variante</b><br />Nume: Valea Cetățuia, Hartă: PDT, Limbă: Limba română</description><Point><coordinates>25.079538,45.245525,0</coordinates></Point></Placemark>
<Placemark><name>Cetățuia</name><description>Nume: Cetățuia, Tip: cetățuie, Nivel: 2, Județ: Bacau, Formă: Localitate, ID: 3836, ID Părinte: 3835 <br /><b>Variante</b><br />Nume: Cetățuia, Hartă: Geomil 25000, Limbă: Limba română</description><Point><coordinates>26.706550,46.555430,0</coordinates></Point></Placemark>
<Placemark><LineString id="3836_3835"><tessellate>1</tessellate><coordinates>26.706550,46.555430,0.
26.714222,46.551905,0</coordinates></LineString><Style><LineStyle><width>3</width></LineStyle></Style></Placemark>
<Placemark><name>Dealul Cetățuei</name><description>Nume: Dealul Cetățuei, Tip: cetățuie, Nivel: 2, Județ: Bacau, Formă: Deal, ID: 7883 <br /><b>Variante</b><br />Nume: Dealul Cetățuei, Hartă: PDT, Limbă: Limba română</description><Point><coordinates>27.012998,46.375211,0</coordinates></Point></Placemark>
<Placemark><name>Dealul Cetățuii</name><description>Nume: Dealul Cetățuii, Tip: cetățuie, Nivel: 2, Județ: Bacau, Formă: Deal, ID: 3835 <br /><b>Variante</b><br />Nume: Dealul Cetățuii, Hartă: Geomil 25000, Limbă: Limba română</description><Point><coordinates>26.714222,46.551905,0</coordinates></Point></Placemark>
<Placemark><name>Dealul Cetățuii</name><description>Nume: Dealul Cetățuii, Tip: cetățuie, Nivel: 2, Județ: Bacau, Formă: Deal, ID: 3914 <br /><b>Variante</b><br />Nume: Dealul Cetățuii, Hartă: Geomil 25000, Limbă: Limba română</description><Point><coordinates>27.085623,46.411426,0</coordinates></Point></Placemark>
<Placemark><name>Dealul Cetățuii</name><description>Nume: Dealul Cetățuii, Tip: cetățuie, Nivel: 2, Județ: Bacau, Formă: Deal, ID: 7859 <br /><b>Variante</b><br />Nume: Dealul Cetățuii, Hartă: Geomil 25000, Limbă: Limba română</description><Point><coordinates>27.280037,46.605726,0</coordinates></Point></Placemark>
<Placemark><name>Dealul Cetățuii</name><description>Nume: Dealul Cetățuii, Tip: cetățuie, Nivel: 2, Județ: Bacau, Formă: Deal, ID: 9601 <br /><b>Variante</b><br />Nume: Dealul Cetățuii, Hartă: Geomil 25000, Limbă: Limba română</description><Point><coordinates>27.324499,46.504477,0</coordinates></Point></Placemark>
<Placemark><name>Dial Cittetuey</name><description>Nume: Dial Cittetuey, Tip: cetățuie, Nivel: 2, Județ: Bacau, Formă: Deal, ID: 13604 <br /><b>Variante</b><br />Nume: Dial Cittetuey, Hartă: Moldova (1788-1790), Limbă: Limba română</description><Point><coordinates>26.787139,46.287940,0</coordinates></Point></Placemark>
<Placemark><name>Fundul Cetățuii</name><description>Nume: Fundul Cetățuii, Tip: cetățuie, Nivel: 2, Județ: Bacau, Formă: Altele, ID: 4599, ID Părinte: 4596 <br /><b>Variante</b><br />Nume: Fundul Cetățuii, Hartă: Geomil 25000, Limbă: Limba română</description><Point><coordinates>26.435553,46.504695,0</coordinates></Point></Placemark>
<Placemark><LineString id="4599_4596"><tessellate>1</tessellate><coordinates>26.435553,46.504695,0.
26.463324,46.498705,0</coordinates></LineString><Style><LineStyle><width>3</width></LineStyle></Style></Placemark>
<Placemark><name>La Cetățuie</name><description>Nume: La Cetățuie, Tip: cetățuie, Nivel: 2, Județ: Bacau, Formă: Altele, ID: 4589 <br /><b>Variante</b><br />Nume: La Cetățuie, Hartă: Geomil 25000, Limbă: Limba română<br />Nume: Cetățuia, Hartă: PDT, Limbă: Limba română</description><Point><coordinates>26.471282,46.426801,0</coordinates></Point></Placemark>
<Placemark><name>Lanul la Cetățuie</name><description>Nume: Lanul la Cetățuie, Tip: cetățuie, Nivel: 2, Județ: Bacau, Formă: Altele, ID: 7884 <br /><b>Variante</b><br />Nume: Lanul la Cetățuie, Hartă: Geomil 25000, Limbă: Limba română</description><Point><coordinates>27.005566,46.324201,0</coordinates></Point></Placemark>
<Placemark><name>Movila Cetățuia</name><description>Nume: Movila Cetățuia, Tip: cetățuie, Nivel: 2, Județ: Bacau, Formă: Înălțime, ID: 9522 <br /><b>Variante</b><br />Nume: Movila Cetățuia, Hartă: Moldova (1892-1898), Limbă: Limba română</description><Point><coordinates>27.137851,46.305688,0</coordinates></Point></Placemark>
<Placemark><name>Pârâul Cetățuia</name><description>Nume: Pârâul Cetățuia, Tip: cetățuie, Nivel: 2, Județ: Bacau, Formă: , ID: 4598, ID Părinte: 4596 <br /><b>Variante</b><br />Nume: Pârâul Cetățuia, Hartă: PDT, Limbă: Limba română</description><Point><coordinates>26.455165,46.500047,0</coordinates></Point></Placemark>
<Placemark><LineString id="4598_4596"><tessellate>1</tessellate><coordinates>26.455165,46.500047,0.
26.463324,46.498705,0</coordinates></LineString><Style><LineStyle><width>3</width></LineStyle></Style></Placemark>
<Placemark><name>Poiana Cetățuia</name><description>Nume: Poiana Cetățuia, Tip: cetățuie, Nivel: 2, Județ: Bacau, Formă: Poiană, ID: 4597, ID Părinte: 4596 <br /><b>Variante</b><br />Nume: Poiana Cetățuia, Hartă: PDT, Limbă: Limba română</description><Point><coordinates>26.446182,46.504471,0</coordinates></Point></Placemark>
<Placemark><LineString id="4597_4596"><tessellate>1</tessellate><coordinates>26.446182,46.504471,0.
26.463324,46.498705,0</coordinates></LineString><Style><LineStyle><width>3</width></LineStyle></Style></Placemark>
<Placemark><name>Râpa Cetățuia</name><description>Nume: Râpa Cetățuia, Tip: cetățuie, Nivel: 2, Județ: Bacau, Formă: Înălțime, ID: 9519 <br /><b>Variante</b><br />Nume: Râpa Cetățuia, Hartă: Moldova (1892-1898), Limbă: Limba română</description><Point><coordinates>27.068316,46.493257,0</coordinates></Point></Placemark>
<Placemark><name>Vârful Cetățuii</name><description>Nume: Vârful Cetățuii, Tip: cetățuie, Nivel: 2, Județ: Bacau, Formă: Înălțime, ID: 4596 <br /><b>Variante</b><br />Nume: Vârful Cetățuii, Hartă: Geomil 25000, Limbă: Limba română<br />Nume: Cetățuia, Hartă: PDT, Limbă: Limba română</description><Point><coordinates>26.463324,46.498705,0</coordinates></Point></Placemark>
<Placemark><name>Dealul Cetățuia</name><description>Nume: Dealul Cetățuia, Tip: cetățuie, Nivel: 2, Județ: Bihor, Formă: Deal, ID: 4146 <br /><b>Variante</b><br />Nume: Dealul Cetățuia, Hartă: PDT, Limbă: Limba română</description><Point><coordinates>22.221680,46.911688,0</coordinates></Point></Placemark>
<Placemark><name>Cetățuia</name><description>Nume: Cetățuia, Tip: cetățuie, Nivel: 2, Județ: Bistrita Nasaud, Formă: Altele, ID: 9906 <br /><b>Variante</b><br />Nume: Cetățuia, Hartă: Geomil 25000, Limbă: Limba română</description><Point><coordinates>24.707223,47.144168,0</coordinates></Point></Placemark>
<Placemark><name>Dealul Cetățuii</name><description>Nume: Dealul Cetățuii, Tip: cetățuie, Nivel: 2, Județ: Bistrita Nasaud, Formă: Deal, ID: 7310 <br /><b>Variante</b><br />Nume: Dealul Cetățuii, Hartă: Geomil 25000, Limbă: Limba română</description><Point><coordinates>24.555074,46.955329,0</coordinates></Point></Placemark>
<Placemark><name>Pe Cetățuie</name><description>Nume: Pe Cetățuie, Tip: cetățuie, Nivel: 2, Județ: Bistrita Nasaud, Formă: Altele, ID: 7072 <br /><b>Variante</b><br />Nume: Pe Cetățuie, Hartă: Geomil 25000, Limbă: Limba română</description><Point><coordinates>24.294202,47.097010,0</coordinates></Point></Placemark>
<Placemark><name>Cetățuia</name><description>Nume: Cetățuia, Tip: cetățuie, Nivel: 2, Județ: Botosani, Formă: Altele, ID: 1829 <br /><b>Variante</b><br />Nume: Cetățuia, Hartă: Geomil 25000, Limbă: Limba română<br />Nume: Cetățuea, Hartă: PDT, Limbă: Limba română</description><Point><coordinates>26.617145,47.651797,0</coordinates></Point></Placemark>
<Placemark><name>Dealul Cetățuii</name><description>Nume: Dealul Cetățuii, Tip: cetățuie, Nivel: 2, Județ: Botosani, Formă: Deal, ID: 2010 <br /><b>Variante</b><br />Nume: Dealul Cetățuii, Hartă: Geomil 25000, Limbă: Limba română<br />Nume: Dealul Cetățuia, Hartă: PDT, Limbă: Limba română</description><Point><coordinates>26.455176,48.186841,0</coordinates></Point></Placemark>
<Placemark><name>Cetațuea Rusului</name><description>Nume: Cetațuea Rusului, Tip: cetățuie, Nivel: 2, Județ: Braila, Formă: Altele, ID: 9259 <br /><b>Variante</b><br />Nume: Cetațuea Rusului, Hartă: PDT, Limbă: Limba română</description><Point><coordinates>27.929329,45.277830,0</coordinates></Point></Placemark>
<Placemark><name>Cetâtzui</name><description>Nume: Cetâtzui, Tip: cetățuie, Nivel: 2, Județ: Braila, Formă: Altele, ID: 3615 <br /><b>Variante</b><br />Nume: Cetâtzui, Hartă: Austriacă, Limbă: Limba română</description><Point><coordinates>27.733851,45.417764,0</coordinates></Point></Placemark>
<Placemark><name>Cetățuia</name><description>Nume: Cetățuia, Tip: cetățuie, Nivel: 2, Județ: Brasov, Formă: Înălțime, ID: 4937 <br /><b>Variante</b><br />Nume: Cetățuia, Hartă: Geomil 25000, Limbă: Limba română</description><Point><coordinates>25.354999,45.865792,0</coordinates></Point></Placemark>
<Placemark><name>Dealul Cetățuii</name><description>Nume: Dealul Cetățuii, Tip: cetățuie, Nivel: 2, Județ: Brasov, Formă: Deal, ID: 2706 <br /><b>Variante</b><br />Nume: Dealul Cetățuii, Hartă: Geomil 25000, Limbă: Limba română</description><Point><coordinates>25.360685,45.681215,0</coordinates></Point></Placemark>
<Placemark><name>Dealul Cetățuii</name><description>Nume: Dealul Cetățuii, Tip: cetățuie, Nivel: 2, Județ: Brasov, Formă: Deal, ID: 6050 <br /><b>Variante</b><br />Nume: Dealul Cetățuii, Hartă: Geomil 25000, Limbă: Limba română</description><Point><coordinates>25.865708,45.706366,0</coordinates></Point></Placemark>
<Placemark><name>Dealul Cetățuii</name><description>Nume: Dealul Cetățuii, Tip: cetățuie, Nivel: 2, Județ: Brasov, Formă: Deal, ID: 6838 <br /><b>Variante</b><br />Nume: Dealul Cetățuii, Hartă: PDT, Limbă: Limba română</description><Point><coordinates>25.592098,45.649084,0</coordinates></Point></Placemark>
<Placemark><name>La Cetățuie</name><description>Nume: La Cetățuie, Tip: cetățuie, Nivel: 2, Județ: Brasov, Formă: Înălțime, ID: 5036 <br /><b>Variante</b><br />Nume: La Cetățuie, Hartă: Geomil 25000, Limbă: Limba română<br />Nume: La Cetățue, Hartă: PDT, Limbă: Limba română</description><Point><coordinates>25.309836,45.480191,0</coordinates></Point></Placemark>
<Placemark><name>Livada Cetățuii</name><description>Nume: Livada Cetățuii, Tip: cetățuie, Nivel: 2, Județ: Brasov, Formă: Altele, ID: 6833 <br /><b>Variante</b><br />Nume: Livada Cetățuii, Hartă: PDT, Limbă: Limba română</description><Point><coordinates>25.406739,45.696167,0</coordinates></Point></Placemark>
<Placemark><name>Valea Cetățuii</name><description>Nume: Valea Cetățuii, Tip: cetățuie, Nivel: 2, Județ: Brasov, Formă: Vale, ID: 2707, ID Părinte: 2706 <br /><b>Variante</b><br />Nume: Valea Cetățuii, Hartă: Geomil 25000, Limbă: Limba română</description><Point><coordinates>25.382032,45.686595,0</coordinates></Point></Placemark>
<Placemark><LineString id="2707_2706"><tessellate>1</tessellate><coordinates>25.382032,45.686595,0.
25.360685,45.681215,0</coordinates></LineString><Style><LineStyle><width>3</width></LineStyle></Style></Placemark>
<Placemark><name>Vârful Cetățuii</name><description>Nume: Vârful Cetățuii, Tip: cetățuie, Nivel: 2, Județ: Brasov, Formă: Înălțime, ID: 12669 <br /><b>Variante</b><br />Nume: Vârful Cetățuii, Hartă: Geomil 25000, Limbă: Limba română</description><Point><coordinates>25.332775,45.651323,0</coordinates></Point></Placemark>
<Placemark><name>Cetățuia</name><description>Nume: Cetățuia, Tip: cetățuie, Nivel: 2, Județ: Buzau, Formă: Altele, ID: 4008 <br /><b>Variante</b><br />Nume: Cetățuia, Hartă: Geomil 25000, Limbă: Limba română</description><Point><coordinates>26.542628,45.246800,0</coordinates></Point></Placemark>
<Placemark><name>Cetățuia</name><description>Nume: Cetățuia, Tip: cetățuie, Nivel: 2, Județ: Buzau, Formă: Altele, ID: 8743 <br /><b>Variante</b><br />Nume: Cetățuia, Hartă: PDT, Limbă: Limba română</description><Point><coordinates>27.005776,45.444823,0</coordinates></Point></Placemark>
<Placemark><name>Vârful Cetățuiei</name><description>Nume: Vârful Cetățuiei, Tip: cetățuie, Nivel: 2, Județ: Buzau, Formă: Înălțime, ID: 1581 <br /><b>Variante</b><br />Nume: Vârful Cetățuiei, Hartă: Geomil 25000, Limbă: Limba română<br />Nume: Vârful Cetățuia, Hartă: PDT, Limbă: Limba română</description><Point><coordinates>26.274423,45.284689,0</coordinates></Point></Placemark>
<Placemark><name>La Cetățuie</name><description>Nume: La Cetățuie, Tip: cetățuie, Nivel: 2, Județ: Calarasi, Formă: Altele, ID: 3459 <br /><b>Variante</b><br />Nume: La Cetățuie, Hartă: Geomil 25000, Limbă: Limba română<br />Nume: La Cetă, Hartă: PDT, Limbă: Limba română</description><Point><coordinates>27.805190,44.281436,0</coordinates></Point></Placemark>
<Placemark><name>Movila Hotar la Cetățuia</name><description>Nume: Movila Hotar la Cetățuia, Tip: cetățuie, Nivel: 2, Județ: Calarasi, Formă: Înălțime, ID: 3308 <br /><b>Variante</b><br />Nume: Movila Hotar la Cetățuia, Hartă: PDT, Limbă: Limba română</description><Point><coordinates>27.503013,44.378304,0</coordinates></Point></Placemark>
<Placemark><name>Dealul Cetățuiei</name><description>Nume: Dealul Cetățuiei, Tip: cetățuie, Nivel: 2, Județ: Cluj, Formă: Deal, ID: 10431 <br /><b>Variante</b><br />Nume: Dealul Cetățuiei, Hartă: PDT, Limbă: Limba română<br />Nume: Várhegy, Hartă: Transilvania (1869-1870), Limbă: Limba maghiară</description><Point><coordinates>23.107091,46.760596,0</coordinates></Point></Placemark>
<Placemark><name>Pârâul Dealului Cetățuei</name><description>Nume: Pârâul Dealului Cetățuei, Tip: cetățuie, Nivel: 2, Județ: Cluj, Formă: Vale, ID: 10432, ID Părinte: 10431 <br /><b>Variante</b><br />Nume: Pârâul Dealului Cetățuei, Hartă: PDT, Limbă: Limba română</description><Point><coordinates>23.098806,46.755862,0</coordinates></Point></Placemark>
<Placemark><LineString id="10432_10431"><tessellate>1</tessellate><coordinates>23.098806,46.755862,0.
23.107091,46.760596,0</coordinates></LineString><Style><LineStyle><width>3</width></LineStyle></Style></Placemark>
<Placemark><name>Cetățuea mare</name><description>Nume: Cetățuea mare, Tip: cetățuie, Nivel: 2, Județ: Dambovita, Formă: Altele, ID: 8823 <br /><b>Variante</b><br />Nume: Cetățuea mare, Hartă: PDT, Limbă: Limba română</description><Point><coordinates>25.294975,45.124377,0</coordinates></Point></Placemark>
<Placemark><name>Cetățuea mică</name><description>Nume: Cetățuea mică, Tip: cetățuie, Nivel: 2, Județ: Dambovita, Formă: Altele, ID: 8824 <br /><b>Variante</b><br />Nume: Cetățuea mică, Hartă: PDT, Limbă: Limba română</description><Point><coordinates>25.288122,45.122598,0</coordinates></Point></Placemark>
<Placemark><name>Cetățuia</name><description>Nume: Cetățuia, Tip: cetățuie, Nivel: 2, Județ: Dambovita, Formă: Localitate, ID: 1492 <br /><b>Variante</b><br />Nume: Cetățuia, Hartă: Geomil 25000, Limbă: Limba română</description><Point><coordinates>25.295173,45.161498,0</coordinates></Point></Placemark>
<Placemark><name>Dealul Cetățuia</name><description>Nume: Dealul Cetățuia, Tip: cetățuie, Nivel: 2, Județ: Dambovita, Formă: Deal, ID: 10162 <br /><b>Variante</b><br />Nume: Dealul Cetățuia, Hartă: PDT, Limbă: Limba română<br />Nume: Dealul Cetățuia, Hartă: Geomil 25000, Limbă: Limba română</description><Point><coordinates>25.141989,45.048329,0</coordinates></Point></Placemark>
<Placemark><name>Valea Cetățuia</name><description>Nume: Valea Cetățuia, Tip: cetățuie, Nivel: 2, Județ: Dambovita, Formă: Vale, ID: 1491, ID Părinte: 1492 <br /><b>Variante</b><br />Nume: Valea Cetățuia, Hartă: Geomil 25000, Limbă: Limba română</description><Point><coordinates>25.287667,45.155083,0</coordinates></Point></Placemark>
<Placemark><LineString id="1491_1492"><tessellate>1</tessellate><coordinates>25.287667,45.155083,0.
25.295173,45.161498,0</coordinates></LineString><Style><LineStyle><width>3</width></LineStyle></Style></Placemark>
<Placemark><name>Valea Cetățuia Mare</name><description>Nume: Valea Cetățuia Mare, Tip: cetățuie, Nivel: 2, Județ: Dambovita, Formă: Vale, ID: 525 <br /><b>Variante</b><br />Nume: Valea Cetățuia Mare, Hartă: Geomil 25000, Limbă: Limba română<br />Nume: Valea Cetățuia Mare, Hartă: PDT, Limbă: Limba română</description><Point><coordinates>25.674181,45.041119,0</coordinates></Point></Placemark>
<Placemark><name>Valea Cetățuia mică</name><description>Nume: Valea Cetățuia mică, Tip: cetățuie, Nivel: 2, Județ: Dambovita, Formă: Vale, ID: 8810 <br /><b>Variante</b><br />Nume: Valea Cetățuia mică, Hartă: PDT, Limbă: Limba română</description><Point><coordinates>25.678404,45.043586,0</coordinates></Point></Placemark>
<Placemark><name>Vârful Cetățuia</name><description>Nume: Vârful Cetățuia, Tip: cetățuie, Nivel: 2, Județ: Dambovita, Formă: Înălțime, ID: 1493 <br /><b>Variante</b><br />Nume: Vârful Cetățuia, Hartă: Geomil 25000, Limbă: Limba română</description><Point><coordinates>25.284302,45.128503,0</coordinates></Point></Placemark>
<Placemark><name>Cetățuia</name><description>Nume: Cetățuia, Tip: cetățuie, Nivel: 2, Județ: Dolj, Formă: Localitate, ID: 4662 <br /><b>Variante</b><br />Nume: Cetățuia, Hartă: Geomil 25000, Limbă: Limba română<br />Nume: Cetățuia, Hartă: PDT, Limbă: Limba română</description><Point><coordinates>23.468817,44.110488,0</coordinates></Point></Placemark>
<Placemark><name>Cetățuia</name><description>Nume: Cetățuia, Tip: cetățuie, Nivel: 2, Județ: Dolj, Formă: Altele, ID: 4713 <br /><b>Variante</b><br />Nume: Cetățuia, Hartă: PDT, Limbă: Limba română<br />Nume: Cetățuia, Hartă: Geomil 25000, Limbă: Limba română</description><Point><coordinates>23.633093,44.416130,0</coordinates></Point></Placemark>
<Placemark><name>Cetâțuia</name><description>Nume: Cetâțuia, Tip: cetățuie, Nivel: 2, Județ: Dolj, Formă: Localitate, ID: 5183 <br /><b>Variante</b><br />Nume: Cetâțuia, Hartă: Geomil 25000, Limbă: Limba română</description><Point><coordinates>23.386121,44.294384,0</coordinates></Point></Placemark>
<Placemark><name>Dealul Cetățui</name><description>Nume: Dealul Cetățui, Tip: cetățuie, Nivel: 2, Județ: Dolj, Formă: Deal, ID: 9758 <br /><b>Variante</b><br />Nume: Dealul Cetățui, Hartă: PDT, Limbă: Limba română</description><Point><coordinates>23.405712,44.274226,0</coordinates></Point></Placemark>
<Placemark><name>La Cetățue</name><description>Nume: La Cetățue, Tip: cetățuie, Nivel: 2, Județ: Dolj, Formă: Altele, ID: 7709 <br /><b>Variante</b><br />Nume: La Cetățue, Hartă: PDT, Limbă: Limba română</description><Point><coordinates>23.625924,44.128980,0</coordinates></Point></Placemark>
<Placemark><name>La Cetățui</name><description>Nume: La Cetățui, Tip: cetățuie, Nivel: 2, Județ: Dolj, Formă: Altele, ID: 163 <br /><b>Variante</b><br />Nume: La Cetățui, Hartă: Geomil 25000, Limbă: Limba română</description><Point><coordinates>23.020802,44.011378,0</coordinates></Point></Placemark>
<Placemark><name>Pădurea Cetățuii</name><description>Nume: Pădurea Cetățuii, Tip: cetățuie, Nivel: 2, Județ: Dolj, Formă: Pădure, ID: 5184, ID Părinte: 5183 <br /><b>Variante</b><br />Nume: Pădurea Cetățuii, Hartă: Geomil 25000, Limbă: Limba română</description><Point><coordinates>23.391986,44.301750,0</coordinates></Point></Placemark>
<Placemark><LineString id="5184_5183"><tessellate>1</tessellate><coordinates>23.391986,44.301750,0.
23.386121,44.294384,0</coordinates></LineString><Style><LineStyle><width>3</width></LineStyle></Style></Placemark>
<Placemark><name>Valea Cetățuii</name><description>Nume: Valea Cetățuii, Tip: cetățuie, Nivel: 2, Județ: Dolj, Formă: Vale, ID: 5185, ID Părinte: 5183 <br /><b>Variante</b><br />Nume: Valea Cetățuii, Hartă: Geomil 25000, Limbă: Limba română</description><Point><coordinates>23.420155,44.292364,0</coordinates></Point></Placemark>
<Placemark><LineString id="5185_5183"><tessellate>1</tessellate><coordinates>23.420155,44.292364,0.
23.386121,44.294384,0</coordinates></LineString><Style><LineStyle><width>3</width></LineStyle></Style></Placemark>
<Placemark><name>Cetățuia</name><description>Nume: Cetățuia, Tip: cetățuie, Nivel: 2, Județ: Galati, Formă: Altele, ID: 11427 <br /><b>Variante</b><br />Nume: Cetățuia, Hartă: Geomil 25000, Limbă: Limba română</description><Point><coordinates>27.370362,46.063417,0</coordinates></Point></Placemark>
<Placemark><name>Cetățuia</name><description>Nume: Cetățuia, Tip: cetățuie, Nivel: 2, Județ: Galati, Formă: Altele, ID: 13948 <br /><b>Variante</b><br />Nume: Cetățuia, Hartă: Moldova (1892-1898), Limbă: Limba română</description><Point><coordinates>28.078368,45.704598,0</coordinates></Point></Placemark>
<Placemark><name>Dealul Cetățuii</name><description>Nume: Dealul Cetățuii, Tip: cetățuie, Nivel: 2, Județ: Galati, Formă: Deal, ID: 11428, ID Părinte: 11427 <br /><b>Variante</b><br />Nume: Dealul Cetățuii, Hartă: Geomil 25000, Limbă: Limba română</description><Point><coordinates>27.375767,46.062060,0</coordinates></Point></Placemark>
<Placemark><LineString id="11428_11427"><tessellate>1</tessellate><coordinates>27.375767,46.062060,0.
27.370362,46.063417,0</coordinates></LineString><Style><LineStyle><width>3</width></LineStyle></Style></Placemark>
<Placemark><name>Dealul Cetățuii</name><description>Nume: Dealul Cetățuii, Tip: cetățuie, Nivel: 2, Județ: Galati, Formă: Deal, ID: 14144 <br /><b>Variante</b><br />Nume: Dealul Cetățuii, Hartă: Geomil 25000, Limbă: Limba română</description><Point><coordinates>27.718491,46.003814,0</coordinates></Point></Placemark>
<Placemark><name>Movila Cetățuea</name><description>Nume: Movila Cetățuea, Tip: cetățuie, Nivel: 2, Județ: Galati, Formă: , ID: 5340 <br /><b>Variante</b><br />Nume: Movila Cetățuea, Hartă: PDT, Limbă: Limba română</description><Point><coordinates>27.257203,46.001820,0</coordinates></Point></Placemark>
<Placemark><name>Movila Cetățuia</name><description>Nume: Movila Cetățuia, Tip: cetățuie, Nivel: 2, Județ: Galati, Formă: Înălțime, ID: 10904 <br /><b>Variante</b><br />Nume: Movila Cetățuia, Hartă: Moldova (1892-1898), Limbă: Limba română</description><Point><coordinates>27.820920,45.637018,0</coordinates></Point></Placemark>
<Placemark><name>Cetățuia</name><description>Nume: Cetățuia, Tip: cetățuie, Nivel: 2, Județ: Giurgiu, Formă: Localitate, ID: 445 <br /><b>Variante</b><br />Nume: Cetățuia, Hartă: Geomil 25000, Limbă: Limba română</description><Point><coordinates>25.741518,43.757748,0</coordinates></Point></Placemark>
<Placemark><name>Dealu Cetățuia</name><description>Nume: Dealu Cetățuia, Tip: cetățuie, Nivel: 2, Județ: Gorj, Formă: Deal, ID: 229 <br /><b>Variante</b><br />Nume: Dealu Cetățuia, Hartă: Geomil 25000, Limbă: Limba română</description><Point><coordinates>22.990697,45.073009,0</coordinates></Point></Placemark>
<Placemark><name>Măgura Cetățuii</name><description>Nume: Măgura Cetățuii, Tip: cetățuie, Nivel: 2, Județ: Harghita, Formă: Înălțime, ID: 4667 <br /><b>Variante</b><br />Nume: Măgura Cetățuii, Hartă: Geomil 25000, Limbă: Limba română<br />Nume: Cetățuia, Hartă: PDT, Limbă: Limba română<br />Nume: la cetâtzui, Hartă: Austriacă, Limbă: Limba română</description><Point><coordinates>23.611892,44.047393,0</coordinates></Point></Placemark>
<Placemark><name>Piciorul Cetățuii</name><description>Nume: Piciorul Cetățuii, Tip: cetățuie, Nivel: 2, Județ: Harghita, Formă: Înălțime, ID: 2076 <br /><b>Variante</b><br />Nume: Piciorul Cetățuii, Hartă: Geomil 25000, Limbă: Limba română</description><Point><coordinates>25.515939,47.064056,0</coordinates></Point></Placemark>
<Placemark><name>Vârful Cetățuia</name><description>Nume: Vârful Cetățuia, Tip: cetățuie, Nivel: 2, Județ: Harghita, Formă: Înălțime, ID: 10625 <br /><b>Variante</b><br />Nume: Vârful Cetățuia, Hartă: PDT, Limbă: Limba română</description><Point><coordinates>24.919458,46.309354,0</coordinates></Point></Placemark>
<Placemark><name>Cetățuia</name><description>Nume: Cetățuia, Tip: cetățuie, Nivel: 2, Județ: Hunedoara, Formă: Altele, ID: 5548 <br /><b>Variante</b><br />Nume: Cetățuia, Hartă: Geomil 25000, Limbă: Limba română</description><Point><coordinates>22.844064,45.622559,0</coordinates></Point></Placemark>
<Placemark><name>Cetățuia</name><description>Nume: Cetățuia, Tip: cetățuie, Nivel: 2, Județ: Hunedoara, Formă: Altele, ID: 10341 <br /><b>Variante</b><br />Nume: Cetățuia, Hartă: Geomil 25000, Limbă: Limba română</description><Point><coordinates>23.153770,45.679977,0</coordinates></Point></Placemark>
<Placemark><name>Cetățuia-Chircești</name><description>Nume: Cetățuia-Chircești, Tip: cetățuie, Nivel: 2, Județ: Iasi, Formă: Altele, ID: 6575 <br /><b>Variante</b><br />Nume: Cetățuia-Chircești, Hartă: PDT, Limbă: Limba română</description><Point><coordinates>27.863432,46.856068,0</coordinates></Point></Placemark>
<Placemark><name>Cotul Cetățuii</name><description>Nume: Cotul Cetățuii, Tip: cetățuie, Nivel: 2, Județ: Iasi, Formă: Altele, ID: 1706 <br /><b>Variante</b><br />Nume: Cotul Cetățuii, Hartă: Geomil 25000, Limbă: Limba română</description><Point><coordinates>28.058913,46.967695,0</coordinates></Point></Placemark>
<Placemark><name>Dealu Cetățuii</name><description>Nume: Dealu Cetățuii, Tip: cetățuie, Nivel: 2, Județ: Iasi, Formă: Deal, ID: 6581 <br /><b>Variante</b><br />Nume: Dealu Cetățuii, Hartă: Geomil 25000, Limbă: Limba română</description><Point><coordinates>27.921881,46.921939,0</coordinates></Point></Placemark>
<Placemark><name>Dealul Cetățuia</name><description>Nume: Dealul Cetățuia, Tip: cetățuie, Nivel: 2, Județ: Iasi, Formă: Deal, ID: 9859 <br /><b>Variante</b><br />Nume: Dealul Cetățuia, Hartă: Moldova (1892-1898), Limbă: Limba română</description><Point><coordinates>27.757037,46.976883,0</coordinates></Point></Placemark>
<Placemark><name>Dealul Cetățuii</name><description>Nume: Dealul Cetățuii, Tip: cetățuie, Nivel: 2, Județ: Iasi, Formă: Deal, ID: 2213 <br /><b>Variante</b><br />Nume: Dealul Cetățuii, Hartă: Geomil 25000, Limbă: Limba română</description><Point><coordinates>27.712416,46.947003,0</coordinates></Point></Placemark>
<Placemark><name>Dealul Cetățuii</name><description>Nume: Dealul Cetățuii, Tip: cetățuie, Nivel: 2, Județ: Iasi, Formă: Deal, ID: 6598, ID Părinte: 4827 <br /><b>Variante</b><br />Nume: Dealul Cetățuii, Hartă: Geomil 25000, Limbă: Limba română</description><Point><coordinates>27.582175,47.122408,0</coordinates></Point></Placemark>
<Placemark><LineString id="6598_4827"><tessellate>1</tessellate><coordinates>27.582175,47.122408,0.
27.582382,47.124515,0</coordinates></LineString><Style><LineStyle><width>3</width></LineStyle></Style></Placemark>
<Placemark><name>La Cetățuie</name><description>Nume: La Cetățuie, Tip: cetățuie, Nivel: 2, Județ: Iasi, Formă: Altele, ID: 4827 <br /><b>Variante</b><br />Nume: La Cetățuie, Hartă: Geomil 25000, Limbă: Limba română<br />Nume: Cetățuia, Hartă: PDT, Limbă: Limba română</description><Point><coordinates>27.582382,47.124515,0</coordinates></Point></Placemark>
<Placemark><name>Lunca Cetățuiei</name><description>Nume: Lunca Cetățuiei, Tip: cetățuie, Nivel: 2, Județ: Iasi, Formă: Apă-deal-câmpie, ID: 6597, ID Părinte: 4827 <br /><b>Variante</b><br />Nume: Lunca Cetățuiei, Hartă: PDT, Limbă: Limba română</description><Point><coordinates>27.587537,47.118646,0</coordinates></Point></Placemark>
<Placemark><LineString id="6597_4827"><tessellate>1</tessellate><coordinates>27.587537,47.118646,0.
27.582382,47.124515,0</coordinates></LineString><Style><LineStyle><width>3</width></LineStyle></Style></Placemark>
<Placemark><name>Pădurea Cetățuii</name><description>Nume: Pădurea Cetățuii, Tip: cetățuie, Nivel: 2, Județ: Iasi, Formă: Pădure, ID: 1702, ID Părinte: 6581 <br /><b>Variante</b><br />Nume: Pădurea Cetățuii, Hartă: Geomil 25000, Limbă: Limba română</description><Point><coordinates>27.897537,46.940465,0</coordinates></Point></Placemark>
<Placemark><LineString id="1702_6581"><tessellate>1</tessellate><coordinates>27.897537,46.940465,0.
27.921881,46.921939,0</coordinates></LineString><Style><LineStyle><width>3</width></LineStyle></Style></Placemark>
<Placemark><name>Pădurea Cetățuii</name><description>Nume: Pădurea Cetățuii, Tip: cetățuie, Nivel: 2, Județ: Iasi, Formă: Pădure, ID: 2205, ID Părinte: 6575 <br /><b>Variante</b><br />Nume: Pădurea Cetățuii, Hartă: Geomil 25000, Limbă: Limba română</description><Point><coordinates>27.880169,46.861623,0</coordinates></Point></Placemark>
<Placemark><LineString id="2205_6575"><tessellate>1</tessellate><coordinates>27.880169,46.861623,0.
27.863432,46.856068,0</coordinates></LineString><Style><LineStyle><width>3</width></LineStyle></Style></Placemark>
<Placemark><name>Pădurea Cetățuii</name><description>Nume: Pădurea Cetățuii, Tip: cetățuie, Nivel: 2, Județ: Iasi, Formă: Pădure, ID: 2243 <br /><b>Variante</b><br />Nume: Pădurea Cetățuii, Hartă: Geomil 25000, Limbă: Limba română</description><Point><coordinates>26.554851,47.320463,0</coordinates></Point></Placemark>
<Placemark><name>Valea Cetățuia</name><description>Nume: Valea Cetățuia, Tip: cetățuie, Nivel: 2, Județ: Iasi, Formă: Vale, ID: 6576, ID Părinte: 6575 <br /><b>Variante</b><br />Nume: Valea Cetățuia, Hartă: PDT, Limbă: Limba română</description><Point><coordinates>27.879394,46.858445,0</coordinates></Point></Placemark>
<Placemark><LineString id="6576_6575"><tessellate>1</tessellate><coordinates>27.879394,46.858445,0.
27.863432,46.856068,0</coordinates></LineString><Style><LineStyle><width>3</width></LineStyle></Style></Placemark>
<Placemark><name>Valea Cetățuia</name><description>Nume: Valea Cetățuia, Tip: cetățuie, Nivel: 2, Județ: Iasi, Formă: Vale, ID: 6579, ID Părinte: 6581 <br /><b>Variante</b><br />Nume: Valea Cetățuia, Hartă: PDT, Limbă: Limba română<br />Nume: Valea Cetățuii, Hartă: Geomil 25000, Limbă: Limba română</description><Point><coordinates>27.933867,46.919926,0</coordinates></Point></Placemark>
<Placemark><LineString id="6579_6581"><tessellate>1</tessellate><coordinates>27.933867,46.919926,0.
27.921881,46.921939,0</coordinates></LineString><Style><LineStyle><width>3</width></LineStyle></Style></Placemark>
<Placemark><name>Cetățuie</name><description>Nume: Cetățuie, Tip: cetățuie, Nivel: 2, Județ: Maramures, Formă: Altele, ID: 8254 <br /><b>Variante</b><br />Nume: Cetățuie, Hartă: Geomil 25000, Limbă: Limba română<br />Nume: Cetățile, Hartă: PDT, Limbă: Limba română</description><Point><coordinates>24.192316,47.623964,0</coordinates></Point></Placemark>
<Placemark><name>Cetățuia</name><description>Nume: Cetățuia, Tip: cetățuie, Nivel: 2, Județ: Mehedinti, Formă: Altele, ID: 8090 <br /><b>Variante</b><br />Nume: Cetățuia, Hartă: PDT, Limbă: Limba română</description><Point><coordinates>23.070915,44.206440,0</coordinates></Point></Placemark>
<Placemark><name>Dealul Cetățuii</name><description>Nume: Dealul Cetățuii, Tip: cetățuie, Nivel: 2, Județ: Mehedinti, Formă: Deal, ID: 8415 <br /><b>Variante</b><br />Nume: Dealul Cetățuii, Hartă: PDT, Limbă: Limba română</description><Point><coordinates>22.801130,44.897658,0</coordinates></Point></Placemark>
<Placemark><name>La Cetățue</name><description>Nume: La Cetățue, Tip: cetățuie, Nivel: 2, Județ: Mehedinti, Formă: Altele, ID: 8079 <br /><b>Variante</b><br />Nume: La Cetățue, Hartă: PDT, Limbă: Limba română</description><Point><coordinates>22.720514,44.492600,0</coordinates></Point></Placemark>
<Placemark><name>Valea Cetățuii</name><description>Nume: Valea Cetățuii, Tip: cetățuie, Nivel: 2, Județ: Mehedinti, Formă: Vale, ID: 5192, ID Părinte: 8090 <br /><b>Variante</b><br />Nume: Valea Cetățuii, Hartă: Geomil 25000, Limbă: Limba română</description><Point><coordinates>23.062488,44.209440,0</coordinates></Point></Placemark>
<Placemark><LineString id="5192_8090"><tessellate>1</tessellate><coordinates>23.062488,44.209440,0.
23.070915,44.206440,0</coordinates></LineString><Style><LineStyle><width>3</width></LineStyle></Style></Placemark>
<Placemark><name>Cetățuia</name><description>Nume: Cetățuia, Tip: cetățuie, Nivel: 2, Județ: Mures, Formă: Vale, ID: 9898, ID Părinte: 7316 <br /><b>Variante</b><br />Nume: Cetățuia, Hartă: Geomil 25000, Limbă: Limba română</description><Point><coordinates>24.699486,46.893702,0</coordinates></Point></Placemark>
<Placemark><LineString id="9898_7316"><tessellate>1</tessellate><coordinates>24.699486,46.893702,0.
24.692699,46.888834,0</coordinates></LineString><Style><LineStyle><width>3</width></LineStyle></Style></Placemark>
<Placemark><name>Cetățuie</name><description>Nume: Cetățuie, Tip: cetățuie, Nivel: 2, Județ: Mures, Formă: Înălțime, ID: 2466 <br /><b>Variante</b><br />Nume: Cetățuie, Hartă: Geomil 25000, Limbă: Limba română</description><Point><coordinates>24.887368,46.201701,0</coordinates></Point></Placemark>
<Placemark><name>Dealul Cetățuia Mare</name><description>Nume: Dealul Cetățuia Mare, Tip: cetățuie, Nivel: 2, Județ: Mures, Formă: Deal, ID: 10848 <br /><b>Variante</b><br />Nume: Dealul Cetățuia Mare, Hartă: Geomil 25000, Limbă: Limba română</description><Point><coordinates>24.963416,46.692141,0</coordinates></Point></Placemark>
<Placemark><name>Dealul Cetățuii</name><description>Nume: Dealul Cetățuii, Tip: cetățuie, Nivel: 2, Județ: Mures, Formă: Deal, ID: 7316 <br /><b>Variante</b><br />Nume: Dealul Cetățuii, Hartă: Geomil 25000, Limbă: Limba română<br />Nume: Burgberg, Hartă: Transilvania (1869-1870), Limbă: Limba germană</description><Point><coordinates>24.692699,46.888834,0</coordinates></Point></Placemark>
<Placemark><name>Dealul Cetățuii</name><description>Nume: Dealul Cetățuii, Tip: cetățuie, Nivel: 2, Județ: Mures, Formă: Deal, ID: 7333 <br /><b>Variante</b><br />Nume: Dealul Cetățuii, Hartă: Geomil 25000, Limbă: Limba română</description><Point><coordinates>24.838643,46.527601,0</coordinates></Point></Placemark>
<Placemark><name>La Cetățuie</name><description>Nume: La Cetățuie, Tip: cetățuie, Nivel: 2, Județ: Mures, Formă: Altele, ID: 7312 <br /><b>Variante</b><br />Nume: La Cetățuie, Hartă: Geomil 25000, Limbă: Limba română<br />Nume: La Cetățuie, Hartă: PDT, Limbă: Limba română</description><Point><coordinates>24.784088,46.802001,0</coordinates></Point></Placemark>
<Placemark><name>Vârful Cetățuia</name><description>Nume: Vârful Cetățuia, Tip: cetățuie, Nivel: 2, Județ: Mures, Formă: Înălțime, ID: 9895 <br /><b>Variante</b><br />Nume: Vârful Cetățuia, Hartă: PDT, Limbă: Limba română</description><Point><coordinates>24.724075,46.934894,0</coordinates></Point></Placemark>
<Placemark><name>Zăpodea Cetățuei</name><description>Nume: Zăpodea Cetățuei, Tip: cetățuie, Nivel: 2, Județ: Mures, Formă: Înălțime, ID: 5442 <br /><b>Variante</b><br />Nume: Zăpodea Cetățuei, Hartă: PDT, Limbă: Limba română</description><Point><coordinates>24.894559,46.990373,0</coordinates></Point></Placemark>
<Placemark><name>Dealul Cetățuilor</name><description>Nume: Dealul Cetățuilor, Tip: cetățui, Nivel: 3, Județ: Neamt, Formă: Deal, ID: 13156 <br /><b>Variante</b><br />Nume: Dealul Cetățuilor, Hartă: Geomil 25000, Limbă: Limba română</description><Point><coordinates>26.517206,47.048265,0</coordinates></Point></Placemark>
<Placemark><name>Cetățuia</name><description>Nume: Cetățuia, Tip: cetățuie, Nivel: 2, Județ: Neamt, Formă: Altele, ID: 3896 <br /><b>Variante</b><br />Nume: Cetățuia, Hartă: Geomil 25000, Limbă: Limba română<br />Nume: La Cetățue, Hartă: PDT, Limbă: Limba română</description><Point><coordinates>26.778290,46.957466,0</coordinates></Point></Placemark>
<Placemark><name>Cetățuia</name><description>Nume: Cetățuia, Tip: cetățuie, Nivel: 2, Județ: Neamt, Formă: Localitate, ID: 9116, ID Părinte: 9114 <br /><b>Variante</b><br />Nume: Cetățuia, Hartă: PDT, Limbă: Limba română</description><Point><coordinates>26.041784,47.040876,0</coordinates></Point></Placemark>
<Placemark><LineString id="9116_9114"><tessellate>1</tessellate><coordinates>26.041784,47.040876,0.
26.047278,47.042352,0</coordinates></LineString><Style><LineStyle><width>3</width></LineStyle></Style></Placemark>
<Placemark><name>Dealul Cetățuia</name><description>Nume: Dealul Cetățuia, Tip: cetățuie, Nivel: 2, Județ: Neamt, Formă: Deal, ID: 11298 <br /><b>Variante</b><br />Nume: Dealul Cetățuia, Hartă: ANCPI, Limbă: Limba română</description><Point><coordinates>27.120331,46.816164,0</coordinates></Point></Placemark>
<Placemark><name>Dealul Cetățuia Mare</name><description>Nume: Dealul Cetățuia Mare, Tip: cetățuie, Nivel: 2, Județ: Neamt, Formă: Deal, ID: 8909 <br /><b>Variante</b><br />Nume: Dealul Cetățuia Mare, Hartă: PDT, Limbă: Limba română</description><Point><coordinates>26.302014,47.247492,0</coordinates></Point></Placemark>
<Placemark><name>Dealul Cetățuia Mică</name><description>Nume: Dealul Cetățuia Mică, Tip: cetățuie, Nivel: 2, Județ: Neamt, Formă: Deal, ID: 8910 <br /><b>Variante</b><br />Nume: Dealul Cetățuia Mică, Hartă: PDT, Limbă: Limba română</description><Point><coordinates>26.305353,47.249631,0</coordinates></Point></Placemark>
<Placemark><name>Dealul Cetățuii</name><description>Nume: Dealul Cetățuii, Tip: cetățuie, Nivel: 2, Județ: Neamt, Formă: Deal, ID: 11390 <br /><b>Variante</b><br />Nume: Dealul Cetățuii, Hartă: Geomil 25000, Limbă: Limba română</description><Point><coordinates>26.469908,46.994170,0</coordinates></Point></Placemark>
<Placemark><name>Dealul la Cetățue</name><description>Nume: Dealul la Cetățue, Tip: cetățuie, Nivel: 2, Județ: Neamt, Formă: Deal, ID: 3881 <br /><b>Variante</b><br />Nume: Dealul la Cetățue, Hartă: PDT, Limbă: Limba română</description><Point><coordinates>26.457334,47.197959,0</coordinates></Point></Placemark>
<Placemark><name>La Cetățue</name><description>Nume: La Cetățue, Tip: cetățuie, Nivel: 2, Județ: Neamt, Formă: Altele, ID: 9621 <br /><b>Variante</b><br />Nume: La Cetățue, Hartă: Moldova (1892-1898), Limbă: Limba română</description><Point><coordinates>26.711502,47.016479,0</coordinates></Point></Placemark>
<Placemark><name>La Cetățuia</name><description>Nume: La Cetățuia, Tip: cetățuie, Nivel: 2, Județ: Neamt, Formă: Altele, ID: 2021 <br /><b>Variante</b><br />Nume: La Cetățuia, Hartă: Geomil 25000, Limbă: Limba română</description><Point><coordinates>26.309627,46.952842,0</coordinates></Point></Placemark>
<Placemark><name>La Cetățuie</name><description>Nume: La Cetățuie, Tip: cetățuie, Nivel: 2, Județ: Neamt, Formă: Altele, ID: 3868 <br /><b>Variante</b><br />Nume: La Cetățuie, Hartă: Geomil 25000, Limbă: Limba română</description><Point><coordinates>26.519385,47.119777,0</coordinates></Point></Placemark>
<Placemark><name>Pârâul Cetățuei</name><description>Nume: Pârâul Cetățuei, Tip: cetățuie, Nivel: 2, Județ: Neamt, Formă: Vale, ID: 9115, ID Părinte: 9114 <br /><b>Variante</b><br />Nume: Pârâul Cetățuei, Hartă: PDT, Limbă: Limba română</description><Point><coordinates>26.051782,47.043542,0</coordinates></Point></Placemark>
<Placemark><LineString id="9115_9114"><tessellate>1</tessellate><coordinates>26.051782,47.043542,0.
26.047278,47.042352,0</coordinates></LineString><Style><LineStyle><width>3</width></LineStyle></Style></Placemark>
<Placemark><name>Pe Cetățuie</name><description>Nume: Pe Cetățuie, Tip: cetățuie, Nivel: 2, Județ: Neamt, Formă: Înălțime, ID: 2035 <br /><b>Variante</b><br />Nume: Pe Cetățuie, Hartă: Geomil 25000, Limbă: Limba română</description><Point><coordinates>26.727389,46.794044,0</coordinates></Point></Placemark>
<Placemark><name>Piscul Cetățuia Bârjoveni</name><description>Nume: Piscul Cetățuia Bârjoveni, Tip: cetățuie, Nivel: 2, Județ: Neamt, Formă: Înălțime, ID: 2036, ID Părinte: 2035 <br /><b>Variante</b><br />Nume: Piscul Cetățuia Bârjoveni, Hartă: Geomil 25000, Limbă: Limba română</description><Point><coordinates>26.728764,46.789935,0</coordinates></Point></Placemark>
<Placemark><LineString id="2036_2035"><tessellate>1</tessellate><coordinates>26.728764,46.789935,0.
26.727389,46.794044,0</coordinates></LineString><Style><LineStyle><width>3</width></LineStyle></Style></Placemark>
<Placemark><name>Vârful Cetățuei</name><description>Nume: Vârful Cetățuei, Tip: cetățuie, Nivel: 2, Județ: Neamt, Formă: Înălțime, ID: 9114 <br /><b>Variante</b><br />Nume: Vârful Cetățuei, Hartă: PDT, Limbă: Limba română<br />Nume: Vârful Cetățuii, Hartă: Geomil 25000, Limbă: Limba română</description><Point><coordinates>26.047278,47.042352,0</coordinates></Point></Placemark>
<Placemark><name>Cetățuia</name><description>Nume: Cetățuia, Tip: cetățuie, Nivel: 2, Județ: Prahova, Formă: Altele, ID: 812 <br /><b>Variante</b><br />Nume: Cetățuia, Hartă: Geomil 25000, Limbă: Limba română</description><Point><coordinates>26.035554,45.270946,0</coordinates></Point></Placemark>
<Placemark><name>Valea Cetățuii</name><description>Nume: Valea Cetățuii, Tip: cetățuie, Nivel: 2, Județ: Prahova, Formă: Vale, ID: 813, ID Părinte: 812 <br /><b>Variante</b><br />Nume: Valea Cetățuii, Hartă: Geomil 25000, Limbă: Limba română</description><Point><coordinates>26.047676,45.270467,0</coordinates></Point></Placemark>
<Placemark><LineString id="813_812"><tessellate>1</tessellate><coordinates>26.047676,45.270467,0.
26.035554,45.270946,0</coordinates></LineString><Style><LineStyle><width>3</width></LineStyle></Style></Placemark>
<Placemark><name>Cetățuia</name><description>Nume: Cetățuia, Tip: cetățuie, Nivel: 2, Județ: Salaj, Formă: Altele, ID: 13107 <br /><b>Variante</b><br />Nume: Cetățuia, Hartă: Geomil 25000, Limbă: Limba română</description><Point><coordinates>23.478356,47.327906,0</coordinates></Point></Placemark>
<Placemark><name>Dealul Cetățuiei</name><description>Nume: Dealul Cetățuiei, Tip: cetățuie, Nivel: 2, Județ: Salaj, Formă: Deal, ID: 12784 <br /><b>Variante</b><br />Nume: Dealul Cetățuiei, Hartă: PDT, Limbă: Limba română</description><Point><coordinates>23.066547,47.145735,0</coordinates></Point></Placemark>
<Placemark><name>Dealul Cetățuiei</name><description>Nume: Dealul Cetățuiei, Tip: cetățuie, Nivel: 2, Județ: Salaj, Formă: Deal, ID: 12785 <br /><b>Variante</b><br />Nume: Dealul Cetățuiei, Hartă: PDT, Limbă: Limba română</description><Point><coordinates>23.067930,47.133687,0</coordinates></Point></Placemark>
<Placemark><name>Dealu Cetățuia Mare</name><description>Nume: Dealu Cetățuia Mare, Tip: cetățuie, Nivel: 2, Județ: Satu Mare, Formă: Deal, ID: 4458 <br /><b>Variante</b><br />Nume: Dealu Cetățuia Mare, Hartă: Geomil 25000, Limbă: Limba română</description><Point><coordinates>23.285280,48.019967,0</coordinates></Point></Placemark>
<Placemark><name>Dealu Cetățuia Mică</name><description>Nume: Dealu Cetățuia Mică, Tip: cetățuie, Nivel: 2, Județ: Satu Mare, Formă: Deal, ID: 4459 <br /><b>Variante</b><br />Nume: Dealu Cetățuia Mică, Hartă: Geomil 25000, Limbă: Limba română</description><Point><coordinates>23.290546,48.012436,0</coordinates></Point></Placemark>
<Placemark><name>Cetățuia</name><description>Nume: Cetățuia, Tip: cetățuie, Nivel: 2, Județ: Sibiu, Formă: Altele, ID: 1472 <br /><b>Variante</b><br />Nume: Cetățuia, Hartă: Geomil 25000, Limbă: Limba română<br />Nume: Cetățeaua, Hartă: PDT, Limbă: Limba română</description><Point><coordinates>24.434065,45.726965,0</coordinates></Point></Placemark>
<Placemark><name>Cetățuia</name><description>Nume: Cetățuia, Tip: cetățuie, Nivel: 2, Județ: Sibiu, Formă: Înălțime, ID: 7519 <br /><b>Variante</b><br />Nume: Cetățuia, Hartă: Geomil 25000, Limbă: Limba română</description><Point><coordinates>24.625012,45.730240,0</coordinates></Point></Placemark>
<Placemark><name>Cetățuie</name><description>Nume: Cetățuie, Tip: cetățuie, Nivel: 2, Județ: Sibiu, Formă: Înălțime, ID: 11841 <br /><b>Variante</b><br />Nume: Cetățuie, Hartă: ANCPI, Limbă: Limba română</description><Point><coordinates>24.217313,45.899450,0</coordinates></Point></Placemark>
<Placemark><name>Czetezuia</name><description>Nume: Czetezuia, Tip: cetățuie, Nivel: 2, Județ: Sibiu, Formă: Înălțime, ID: 10965 <br /><b>Variante</b><br />Nume: Czetezuia, Hartă: Transilvania (1869-1870), Limbă: Limba română</description><Point><coordinates>24.188617,45.997338,0</coordinates></Point></Placemark>
<Placemark><name>Cetățuia</name><description>Nume: Cetățuia, Tip: cetățuie, Nivel: 2, Județ: Suceava, Formă: Înălțime, ID: 6320 <br /><b>Variante</b><br />Nume: Cetățuia, Hartă: Geomil 25000, Limbă: Limba română</description><Point><coordinates>26.001035,47.631465,0</coordinates></Point></Placemark>
<Placemark><name>Cetățuia</name><description>Nume: Cetățuia, Tip: cetățuie, Nivel: 2, Județ: Suceava, Formă: Altele, ID: 11997 <br /><b>Variante</b><br />Nume: Cetățuia, Hartă: Moldova (1892-1898), Limbă: Limba română</description><Point><coordinates>26.531300,47.316467,0</coordinates></Point></Placemark>
<Placemark><name>Dealul Cetățuii</name><description>Nume: Dealul Cetățuii, Tip: cetățuie, Nivel: 2, Județ: Suceava, Formă: Deal, ID: 1767 <br /><b>Variante</b><br />Nume: Dealul Cetățuii, Hartă: Geomil 25000, Limbă: Limba română</description><Point><coordinates>26.387426,47.468564,0</coordinates></Point></Placemark>
<Placemark><name>Dealul Cetățuii</name><description>Nume: Dealul Cetățuii, Tip: cetățuie, Nivel: 2, Județ: Suceava, Formă: Deal, ID: 1769 <br /><b>Variante</b><br />Nume: Dealul Cetățuii, Hartă: Geomil 25000, Limbă: Limba română</description><Point><coordinates>26.260001,47.465998,0</coordinates></Point></Placemark>
<Placemark><name>Dealul Cetățuii</name><description>Nume: Dealul Cetățuii, Tip: cetățuie, Nivel: 2, Județ: Suceava, Formă: Deal, ID: 2259 <br /><b>Variante</b><br />Nume: Dealul Cetățuii, Hartă: Geomil 25000, Limbă: Limba română</description><Point><coordinates>26.250002,47.393389,0</coordinates></Point></Placemark>
<Placemark><name>Dealul Cetățuii</name><description>Nume: Dealul Cetățuii, Tip: cetățuie, Nivel: 2, Județ: Suceava, Formă: Deal, ID: 2267 <br /><b>Variante</b><br />Nume: Dealul Cetățuii, Hartă: Geomil 25000, Limbă: Limba română<br />Nume: Dealul Cetățui, Hartă: PDT, Limbă: Limba română</description><Point><coordinates>26.413625,47.555314,0</coordinates></Point></Placemark>
<Placemark><name>Pârâul Cetățuii</name><description>Nume: Pârâul Cetățuii, Tip: cetățuie, Nivel: 2, Județ: Suceava, Formă: Vale, ID: 6332 <br /><b>Variante</b><br />Nume: Pârâul Cetățuii, Hartă: PDT, Limbă: Limba română</description><Point><coordinates>25.799671,47.559974,0</coordinates></Point></Placemark>
<Placemark><name>La Cetățuie</name><description>Nume: La Cetățuie, Tip: cetățuie, Nivel: 2, Județ: Timis, Formă: Altele, ID: 5655 <br /><b>Variante</b><br />Nume: La Cetățuie, Hartă: Geomil 25000, Limbă: Limba română</description><Point><coordinates>21.212656,45.856747,0</coordinates></Point></Placemark>
<Placemark><name>Cetățuia</name><description>Nume: Cetățuia, Tip: cetățuie, Nivel: 2, Județ: Tulcea, Formă: Altele, ID: 1591 <br /><b>Variante</b><br />Nume: Cetățuia, Hartă: Geomil 25000, Limbă: Limba română<br />Nume: Cetățuia, Hartă: PDT, Limbă: Limba română</description><Point><coordinates>28.306608,45.235462,0</coordinates></Point></Placemark>
<Placemark><name>Cetățuia</name><description>Nume: Cetățuia, Tip: cetățuie, Nivel: 2, Județ: Tulcea, Formă: Altele, ID: 2906 <br /><b>Variante</b><br />Nume: Cetățuia, Hartă: Geomil 25000, Limbă: Limba română</description><Point><coordinates>29.150576,44.981572,0</coordinates></Point></Placemark>
<Placemark><name>Cetățuia</name><description>Nume: Cetățuia, Tip: cetățuie, Nivel: 2, Județ: Tulcea, Formă: Altele, ID: 6704 <br /><b>Variante</b><br />Nume: Cetățuia, Hartă: PDT, Limbă: Limba română</description><Point><coordinates>28.173198,44.952725,0</coordinates></Point></Placemark>
<Placemark><name>Culmea Cetățuia</name><description>Nume: Culmea Cetățuia, Tip: cetățuie, Nivel: 2, Județ: Tulcea, Formă: Înălțime, ID: 2892 <br /><b>Variante</b><br />Nume: Culmea Cetățuia, Hartă: Geomil 25000, Limbă: Limba română</description><Point><coordinates>28.344078,45.216234,0</coordinates></Point></Placemark>
<Placemark><name>Dealul Cetățuii</name><description>Nume: Dealul Cetățuii, Tip: cetățuie, Nivel: 2, Județ: Tulcea, Formă: Deal, ID: 2905 <br /><b>Variante</b><br />Nume: Dealul Cetățuii, Hartă: Geomil 25000, Limbă: Limba română</description><Point><coordinates>29.050126,45.098465,0</coordinates></Point></Placemark>
<Placemark><name>Ruinele Cetățuei Ghermea</name><description>Nume: Ruinele Cetățuei Ghermea, Tip: cetățuie, Nivel: 2, Județ: Tulcea, Formă: Altele, ID: 6682 <br /><b>Variante</b><br />Nume: Ruinele Cetățuei Ghermea, Hartă: PDT, Limbă: Limba română</description><Point><coordinates>28.152834,45.314869,0</coordinates></Point></Placemark>
<Placemark><name>Cetățeaua</name><description>Nume: Cetățeaua, Tip: cetățuie, Nivel: 2, Județ: Valcea, Formă: Localitate, ID: 370, ID Părinte: 369 <br /><b>Variante</b><br />Nume: Cetățeaua, Hartă: Geomil 25000, Limbă: Limba română<br />Nume: Cetățeaua, Hartă: PDT, Limbă: Limba română</description><Point><coordinates>24.196584,44.765090,0</coordinates></Point></Placemark>
<Placemark><LineString id="370_369"><tessellate>1</tessellate><coordinates>24.196584,44.765090,0.
24.183094,44.770852,0</coordinates></LineString><Style><LineStyle><width>3</width></LineStyle></Style></Placemark>
<Placemark><name>Cetățuia</name><description>Nume: Cetățuia, Tip: cetățuie, Nivel: 2, Județ: Valcea, Formă: Altele, ID: 4766 <br /><b>Variante</b><br />Nume: Cetățuia, Hartă: PDT, Limbă: Limba română</description><Point><coordinates>24.364426,45.121109,0</coordinates></Point></Placemark>
<Placemark><name>Dealu Cetățelei</name><description>Nume: Dealu Cetățelei, Tip: cetățuie, Nivel: 2, Județ: Valcea, Formă: Deal, ID: 369 <br /><b>Variante</b><br />Nume: Dealu Cetățelei, Hartă: Geomil 25000, Limbă: Limba română</description><Point><coordinates>24.183094,44.770852,0</coordinates></Point></Placemark>
<Placemark><name>Gruiul Cetățuii</name><description>Nume: Gruiul Cetățuii, Tip: cetățuie, Nivel: 2, Județ: Valcea, Formă: Înălțime, ID: 12558 <br /><b>Variante</b><br />Nume: Gruiul Cetățuii, Hartă: Geomil 25000, Limbă: Limba română</description><Point><coordinates>24.252811,45.482574,0</coordinates></Point></Placemark>
<Placemark><name>Valea Cetățelei</name><description>Nume: Valea Cetățelei, Tip: cetățuie, Nivel: 2, Județ: Valcea, Formă: Vale, ID: 371, ID Părinte: 369 <br /><b>Variante</b><br />Nume: Valea Cetățelei, Hartă: Geomil 25000, Limbă: Limba română</description><Point><coordinates>24.184466,44.763487,0</coordinates></Point></Placemark>
<Placemark><LineString id="371_369"><tessellate>1</tessellate><coordinates>24.184466,44.763487,0.
24.183094,44.770852,0</coordinates></LineString><Style><LineStyle><width>3</width></LineStyle></Style></Placemark>
<Placemark><name>Cetățuia</name><description>Nume: Cetățuia, Tip: cetățuie, Nivel: 2, Județ: Vaslui, Formă: Localitate, ID: 9635, ID Părinte: 11545 <br /><b>Variante</b><br />Nume: Cetățuia, Hartă: Geomil 25000, Limbă: Limba română</description><Point><coordinates>27.437075,46.431532,0</coordinates></Point></Placemark>
<Placemark><LineString id="9635_11545"><tessellate>1</tessellate><coordinates>27.437075,46.431532,0.
27.425952,46.434336,0</coordinates></LineString><Style><LineStyle><width>3</width></LineStyle></Style></Placemark>
<Placemark><name>Dealul Cetățuei</name><description>Nume: Dealul Cetățuei, Tip: cetățuie, Nivel: 2, Județ: Vaslui, Formă: Deal, ID: 8852 <br /><b>Variante</b><br />Nume: Dealul Cetățuei, Hartă: PDT, Limbă: Limba română<br />Nume: Dealul Cetățuii, Hartă: Geomil 25000, Limbă: Limba română</description><Point><coordinates>27.976571,46.604534,0</coordinates></Point></Placemark>
<Placemark><name>Dealul Cetățuii</name><description>Nume: Dealul Cetățuii, Tip: cetățuie, Nivel: 2, Județ: Vaslui, Formă: Deal, ID: 7288 <br /><b>Variante</b><br />Nume: Dealul Cetățuii, Hartă: Geomil 25000, Limbă: Limba română</description><Point><coordinates>27.297522,46.631378,0</coordinates></Point></Placemark>
<Placemark><name>Dealul Cetățuii</name><description>Nume: Dealul Cetățuii, Tip: cetățuie, Nivel: 2, Județ: Vaslui, Formă: Deal, ID: 11545 <br /><b>Variante</b><br />Nume: Dealul Cetățuii, Hartă: Geomil 25000, Limbă: Limba română</description><Point><coordinates>27.425952,46.434336,0</coordinates></Point></Placemark>
<Placemark><name>Dealul Movila Cetățuia</name><description>Nume: Dealul Movila Cetățuia, Tip: cetățuie, Nivel: 2, Județ: Vaslui, Formă: Deal, ID: 8845, ID Părinte: 8844 <br /><b>Variante</b><br />Nume: Dealul Movila Cetățuia, Hartă: PDT, Limbă: Limba română</description><Point><coordinates>27.997369,46.640309,0</coordinates></Point></Placemark>
<Placemark><LineString id="8845_8844"><tessellate>1</tessellate><coordinates>27.997369,46.640309,0.
27.995560,46.644400,0</coordinates></LineString><Style><LineStyle><width>3</width></LineStyle></Style></Placemark>
<Placemark><name>Hârtopul Cetățuei</name><description>Nume: Hârtopul Cetățuei, Tip: cetățuie, Nivel: 2, Județ: Vaslui, Formă: Înălțime, ID: 8854, ID Părinte: 8852 <br /><b>Variante</b><br />Nume: Hârtopul Cetățuei, Hartă: PDT, Limbă: Limba română</description><Point><coordinates>27.984836,46.599268,0</coordinates></Point></Placemark>
<Placemark><LineString id="8854_8852"><tessellate>1</tessellate><coordinates>27.984836,46.599268,0.
27.976571,46.604534,0</coordinates></LineString><Style><LineStyle><width>3</width></LineStyle></Style></Placemark>
<Placemark><name>La Cetățuia</name><description>Nume: La Cetățuia, Tip: cetățuie, Nivel: 2, Județ: Vaslui, Formă: Altele, ID: 7377 <br /><b>Variante</b><br />Nume: La Cetățuia, Hartă: Geomil 25000, Limbă: Limba română</description><Point><coordinates>27.815669,46.182825,0</coordinates></Point></Placemark>
<Placemark><name>Movila Cetățuia</name><description>Nume: Movila Cetățuia, Tip: cetățuie, Nivel: 2, Județ: Vaslui, Formă: Înălțime, ID: 8844 <br /><b>Variante</b><br />Nume: Movila Cetățuia, Hartă: PDT, Limbă: Limba română</description><Point><coordinates>27.995560,46.644400,0</coordinates></Point></Placemark>
<Placemark><name>Pădurea Cetățuii</name><description>Nume: Pădurea Cetățuii, Tip: cetățuie, Nivel: 2, Județ: Vaslui, Formă: Pădure, ID: 1683 <br /><b>Variante</b><br />Nume: Pădurea Cetățuii, Hartă: Geomil 25000, Limbă: Limba română</description><Point><coordinates>27.904751,46.509866,0</coordinates></Point></Placemark>
<Placemark><name>Pădurea Cetățuii</name><description>Nume: Pădurea Cetățuii, Tip: cetățuie, Nivel: 2, Județ: Vaslui, Formă: Pădure, ID: 7287, ID Părinte: 7288 <br /><b>Variante</b><br />Nume: Pădurea Cetățuii, Hartă: Geomil 25000, Limbă: Limba română</description><Point><coordinates>27.290044,46.619222,0</coordinates></Point></Placemark>
<Placemark><LineString id="7287_7288"><tessellate>1</tessellate><coordinates>27.290044,46.619222,0.
27.297522,46.631378,0</coordinates></LineString><Style><LineStyle><width>3</width></LineStyle></Style></Placemark>
<Placemark><name>Valea Cetățuii</name><description>Nume: Valea Cetățuii, Tip: cetățuie, Nivel: 2, Județ: Vaslui, Formă: Vale, ID: 1684, ID Părinte: 1683 <br /><b>Variante</b><br />Nume: Valea Cetățuii, Hartă: Geomil 25000, Limbă: Limba română</description><Point><coordinates>27.910658,46.511532,0</coordinates></Point></Placemark>
<Placemark><LineString id="1684_1683"><tessellate>1</tessellate><coordinates>27.910658,46.511532,0.
27.904751,46.509866,0</coordinates></LineString><Style><LineStyle><width>3</width></LineStyle></Style></Placemark>
<Placemark><name>Cetățuia</name><description>Nume: Cetățuia, Tip: cetățuie, Nivel: 2, Județ: Vrancea, Formă: Înălțime, ID: 1724 <br /><b>Variante</b><br />Nume: Cetățuia, Hartă: Geomil 25000, Limbă: Limba română</description><Point><coordinates>27.269282,46.145309,0</coordinates></Point></Placemark>
<Placemark><name>Cetățuia</name><description>Nume: Cetățuia, Tip: cetățuie, Nivel: 2, Județ: Vrancea, Formă: Altele, ID: 9182 <br /><b>Variante</b><br />Nume: Cetățuia, Hartă: Geomil 25000, Limbă: Limba română<br />Nume: Cetățuia, Hartă: PDT, Limbă: Limba română</description><Point><coordinates>27.089174,46.080071,0</coordinates></Point></Placemark>
<Placemark><name>Dealul Cetățuii</name><description>Nume: Dealul Cetățuii, Tip: cetățuie, Nivel: 2, Județ: Vrancea, Formă: Deal, ID: 1723, ID Părinte: 1724 <br /><b>Variante</b><br />Nume: Dealul Cetățuii, Hartă: Geomil 25000, Limbă: Limba română</description><Point><coordinates>27.263013,46.163171,0</coordinates></Point></Placemark>
<Placemark><LineString id="1723_1724"><tessellate>1</tessellate><coordinates>27.263013,46.163171,0.
27.269282,46.145309,0</coordinates></LineString><Style><LineStyle><width>3</width></LineStyle></Style></Placemark>
<Placemark><name>La Ceățue</name><description>Nume: La Ceățue, Tip: cetățuie, Nivel: 2, Județ: Vrancea, Formă: Altele, ID: 9235 <br /><b>Variante</b><br />Nume: La Ceățue, Hartă: PDT, Limbă: Limba română</description><Point><coordinates>27.045534,45.767266,0</coordinates></Point></Placemark>
<Placemark><name>La Cetățu</name><description>Nume: La Cetățu, Tip: cetățuie, Nivel: 2, Județ: Vrancea, Formă: Altele, ID: 9676 <br /><b>Variante</b><br />Nume: La Cetățu, Hartă: Moldova (1892-1898), Limbă: Limba română</description><Point><coordinates>27.201407,46.038431,0</coordinates></Point></Placemark>
<Placemark><name>Pârâul Cetățuia</name><description>Nume: Pârâul Cetățuia, Tip: cetățuie, Nivel: 2, Județ: Vrancea, Formă: Vale, ID: 5360 <br /><b>Variante</b><br />Nume: Pârâul Cetățuia, Hartă: Geomil 25000, Limbă: Limba română<br />Nume: Pârâul Cetățuia, Hartă: PDT, Limbă: Limba română</description><Point><coordinates>26.912102,45.840497,0</coordinates></Point></Placemark>
<Placemark><name>Plaiul Cetățuia</name><description>Nume: Plaiul Cetățuia, Tip: cetățuie, Nivel: 2, Județ: Vrancea, Formă: Altele, ID: 5358, ID Părinte: 5360 <br /><b>Variante</b><br />Nume: Plaiul Cetățuia, Hartă: PDT, Limbă: Limba română</description><Point><coordinates>26.911847,45.846566,0</coordinates></Point></Placemark>
<Placemark><LineString id="5358_5360"><tessellate>1</tessellate><coordinates>26.911847,45.846566,0.
26.912102,45.840497,0</coordinates></LineString><Style><LineStyle><width>3</width></LineStyle></Style></Placemark></Document></kml>