<?xml version="1.0" encoding="UTF-8"?><kml xmlns="http://www.opengis.net/kml/2.2"><Document><Placemark><name>Culmea Lupoaicei</name><description>Nume: Culmea Lupoaicei, Tip: lupoaică, Nivel: 4, Județ: Arges, Formă: Înălțime, ID: 637 <br /><b>Variante</b><br />Nume: Culmea Lupoaicei, Hartă: Geomil 25000, Limbă: Limba română</description><Point><coordinates>24.639852,45.378471,0</coordinates></Point></Placemark>
<Placemark><name>Valea Lupoaicei</name><description>Nume: Valea Lupoaicei, Tip: lupoaică, Nivel: 4, Județ: Arges, Formă: Vale, ID: 4984, ID Părinte: 637 <br /><b>Variante</b><br />Nume: Valea Lupoaicei, Hartă: Geomil 25000, Limbă: Limba română</description><Point><coordinates>24.644904,45.378335,0</coordinates></Point></Placemark>
<Placemark><LineString id="4984_637"><tessellate>1</tessellate><coordinates>24.644904,45.378335,0.
24.639852,45.378471,0</coordinates></LineString><Style><LineStyle><width>3</width></LineStyle></Style></Placemark>
<Placemark><name>Valea Lupoiaca</name><description>Nume: Valea Lupoiaca, Tip: lupoaică, Nivel: 4, Județ: Dambovita, Formă: Vale, ID: 1502 <br /><b>Variante</b><br />Nume: Valea Lupoiaca, Hartă: Geomil 25000, Limbă: Limba română</description><Point><coordinates>25.649340,45.073528,0</coordinates></Point></Placemark>
<Placemark><name>Măgura Lupoaicei</name><description>Nume: Măgura Lupoaicei, Tip: lupoaică, Nivel: 4, Județ: Dolj, Formă: Înălțime, ID: 3343 <br /><b>Variante</b><br />Nume: Măgura Lupoaicei, Hartă: PDT, Limbă: Limba română</description><Point><coordinates>23.449990,44.020431,0</coordinates></Point></Placemark>
<Placemark><name>Valea Lupoaicei</name><description>Nume: Valea Lupoaicei, Tip: lupoaică, Nivel: 4, Județ: Dolj, Formă: Vale, ID: 3353 <br /><b>Variante</b><br />Nume: Valea Lupoaicei, Hartă: Geomil 25000, Limbă: Limba română</description><Point><coordinates>23.671976,44.196872,0</coordinates></Point></Placemark>
<Placemark><name>Valea Lupoaicei</name><description>Nume: Valea Lupoaicei, Tip: lupoaică, Nivel: 4, Județ: Dolj, Formă: Vale, ID: 4705 <br /><b>Variante</b><br />Nume: Valea Lupoaicei, Hartă: Geomil 25000, Limbă: Limba română</description><Point><coordinates>23.630181,44.385282,0</coordinates></Point></Placemark>
<Placemark><name>Dealul Lupoaicei</name><description>Nume: Dealul Lupoaicei, Tip: lupoaică, Nivel: 4, Județ: Gorj, Formă: Deal, ID: 5150 <br /><b>Variante</b><br />Nume: Dealul Lupoaicei, Hartă: Geomil 25000, Limbă: Limba română</description><Point><coordinates>23.690116,44.722023,0</coordinates></Point></Placemark>
<Placemark><name>Valea Lupoaica Mare</name><description>Nume: Valea Lupoaica Mare, Tip: lupoaică, Nivel: 4, Județ: Gorj, Formă: Vale, ID: 12447 <br /><b>Variante</b><br />Nume: Valea Lupoaica Mare, Hartă: PDT, Limbă: Limba română</description><Point><coordinates>23.368472,44.879236,0</coordinates></Point></Placemark>
<Placemark><name>Valea Lupoaicei</name><description>Nume: Valea Lupoaicei, Tip: lupoaică, Nivel: 4, Județ: Gorj, Formă: Vale, ID: 5151, ID Părinte: 5150 <br /><b>Variante</b><br />Nume: Valea Lupoaicei, Hartă: Geomil 25000, Limbă: Limba română</description><Point><coordinates>23.688279,44.720477,0</coordinates></Point></Placemark>
<Placemark><LineString id="5151_5150"><tessellate>1</tessellate><coordinates>23.688279,44.720477,0.
23.690116,44.722023,0</coordinates></LineString><Style><LineStyle><width>3</width></LineStyle></Style></Placemark>
<Placemark><name>Valea Lupoaicei</name><description>Nume: Valea Lupoaicei, Tip: lupoaică, Nivel: 4, Județ: Olt, Formă: Vale, ID: 2996 <br /><b>Variante</b><br />Nume: Valea Lupoaicei, Hartă: Geomil 25000, Limbă: Limba română</description><Point><coordinates>24.537734,44.308292,0</coordinates></Point></Placemark>
<Placemark><name>Piciorul Lupoaicei</name><description>Nume: Piciorul Lupoaicei, Tip: lupoaică, Nivel: 4, Județ: Satu Mare, Formă: Înălțime, ID: 4465 <br /><b>Variante</b><br />Nume: Piciorul Lupoaicei, Hartă: Geomil 25000, Limbă: Limba română</description><Point><coordinates>23.520912,47.886592,0</coordinates></Point></Placemark>
<Placemark><name>Dealul Lupoaicei</name><description>Nume: Dealul Lupoaicei, Tip: lupoaică, Nivel: 4, Județ: Vaslui, Formă: Deal, ID: 14112 <br /><b>Variante</b><br />Nume: Dealul Lupoaicei, Hartă: Geomil 25000, Limbă: Limba română</description><Point><coordinates>27.790591,46.878278,0</coordinates></Point></Placemark>
<Placemark><name>Coasta Lupoaicei</name><description>Nume: Coasta Lupoaicei, Tip: lupoaică, Nivel: 4, Județ: Vrancea, Formă: Înălțime, ID: 2150 <br /><b>Variante</b><br />Nume: Coasta Lupoaicei, Hartă: Geomil 25000, Limbă: Limba română</description><Point><coordinates>27.059440,45.561536,0</coordinates></Point></Placemark></Document></kml>