<?xml version="1.0" encoding="UTF-8"?><kml xmlns="http://www.opengis.net/kml/2.2"><Document><Placemark><name>Jegălia</name><description>Nume: Jegălia, Tip: jegălia, Nivel: 3, Județ: Calarasi, Formă: Localitate, ID: 12488, ID Părinte: 12487 <br /><b>Variante</b><br />Nume: Jegălia, Hartă: Geomil 25000, Limbă: Limba română</description><Point><coordinates>27.637176,44.294458,0</coordinates></Point></Placemark>
<Placemark><LineString id="12488_12487"><tessellate>1</tessellate><coordinates>27.637176,44.294458,0.
27.619116,44.314363,0</coordinates></LineString><Style><LineStyle><width>3</width></LineStyle></Style></Placemark>
<Placemark><name>Valea Jegălia</name><description>Nume: Valea Jegălia, Tip: jegălia, Nivel: 3, Județ: Calarasi, Formă: Vale, ID: 12487 <br /><b>Variante</b><br />Nume: Valea Jegălia, Hartă: Geomil 25000, Limbă: Limba română</description><Point><coordinates>27.619116,44.314363,0</coordinates></Point></Placemark>
<Placemark><name>Dealu Jugălia</name><description>Nume: Dealu Jugălia, Tip: jugalia, Nivel: 2, Județ: Olt, Formă: Deal, ID: 1291, ID Părinte: 297 <br /><b>Variante</b><br />Nume: Dealu Jugălia, Hartă: Geomil 25000, Limbă: Limba română</description><Point><coordinates>24.296917,44.329179,0</coordinates></Point></Placemark>
<Placemark><LineString id="1291_297"><tessellate>1</tessellate><coordinates>24.296917,44.329179,0.
24.232006,44.378190,0</coordinates></LineString><Style><LineStyle><width>3</width></LineStyle></Style></Placemark>
<Placemark><name>Valea Jugalia</name><description>Nume: Valea Jugalia, Tip: jugalia, Nivel: 2, Județ: Olt, Formă: Vale, ID: 297 <br /><b>Variante</b><br />Nume: Valea Jugalia, Hartă: Geomil 25000, Limbă: Limba română</description><Point><coordinates>24.232006,44.378190,0</coordinates></Point></Placemark>
<Placemark><name>Valea Jugălia Mare</name><description>Nume: Valea Jugălia Mare, Tip: jugalia, Nivel: 2, Județ: Olt, Formă: Vale, ID: 5805 <br /><b>Variante</b><br />Nume: Valea Jugălia Mare, Hartă: Geomil 25000, Limbă: Limba română<br />Nume: Jugalia mare, Hartă: Austriacă, Limbă: Limba română</description><Point><coordinates>24.512657,44.211466,0</coordinates></Point></Placemark>
<Placemark><name>Valea Jugălia Mică</name><description>Nume: Valea Jugălia Mică, Tip: jugalia, Nivel: 2, Județ: Olt, Formă: Vale, ID: 5806, ID Părinte: 5805 <br /><b>Variante</b><br />Nume: Valea Jugălia Mică, Hartă: Geomil 25000, Limbă: Limba română<br />Nume: Jugalia mik, Hartă: Austriacă, Limbă: Limba română</description><Point><coordinates>24.505311,44.227641,0</coordinates></Point></Placemark>
<Placemark><LineString id="5806_5805"><tessellate>1</tessellate><coordinates>24.505311,44.227641,0.
24.512657,44.211466,0</coordinates></LineString><Style><LineStyle><width>3</width></LineStyle></Style></Placemark>
<Placemark><name>Jigălia</name><description>Nume: Jigălia, Tip: jugalia, Nivel: 2, Județ: Vaslui, Formă: Localitate, ID: 717, ID Părinte: 2178 <br /><b>Variante</b><br />Nume: Jigălia, Hartă: Geomil 25000, Limbă: Limba română<br />Nume: Jâgălia, Hartă: Moldova (1892-1898), Limbă: Limba română</description><Point><coordinates>27.921814,46.310776,0</coordinates></Point></Placemark>
<Placemark><LineString id="717_2178"><tessellate>1</tessellate><coordinates>27.921814,46.310776,0.
27.953843,46.301676,0</coordinates></LineString><Style><LineStyle><width>3</width></LineStyle></Style></Placemark>
<Placemark><name>Valea Jigălia</name><description>Nume: Valea Jigălia, Tip: jugalia, Nivel: 2, Județ: Vaslui, Formă: Vale, ID: 2178 <br /><b>Variante</b><br />Nume: Valea Jigălia, Hartă: Geomil 25000, Limbă: Limba română<br />Nume: Valea Jegăliei, Hartă: PDT, Limbă: Limba română</description><Point><coordinates>27.953843,46.301676,0</coordinates></Point></Placemark></Document></kml>