<?xml version="1.0" encoding="UTF-8"?><kml xmlns="http://www.opengis.net/kml/2.2"><Document><Placemark><name>Bibarț</name><description>Nume: Bibarț, Tip: bibarţ, Nivel: 2, Județ: Alba, Formă: Altele, ID: 12825 <br /><b>Variante</b><br />Nume: Bibarț, Hartă: Geomil 25000, Limbă: Limba română</description><Point><coordinates>23.802265,46.178105,0</coordinates></Point></Placemark>
<Placemark><name>Bibarcz</name><description>Nume: Bibarcz, Tip: bibarţ, Nivel: 2, Județ: Covasna, Formă: Deal, ID: 12824 <br /><b>Variante</b><br />Nume: Bibarcz, Hartă: Transilvania (1869-1870), Limbă: Limba română</description><Point><coordinates>25.974680,45.803358,0</coordinates></Point></Placemark>
<Placemark><name>Biborțeni</name><description>Nume: Biborțeni, Tip: bibarţ, Nivel: 2, Județ: Covasna, Formă: Localitate, ID: 12826 <br /><b>Variante</b><br />Nume: Biborțeni, Hartă: Geomil 25000, Limbă: Limba română<br />Nume: Bivarczfalva (Satul lui Bibarț), Hartă: Transilvania (1769-1773), Limbă: Limba maghiară</description><Point><coordinates>25.653303,46.094208,0</coordinates></Point></Placemark>
<Placemark><name>Dealul Ghibarț</name><description>Nume: Dealul Ghibarț, Tip: ghibarț, Nivel: 3, Județ: Galati, Formă: Deal, ID: 15899 <br /><b>Variante</b><br />Nume: Dealul Ghibarț, Hartă: ANCPI, Limbă: Limba română</description><Point><coordinates>27.775105,46.091818,0</coordinates></Point></Placemark>
<Placemark><name>Ghibărțeni</name><description>Nume: Ghibărțeni, Tip: ghibărțeni, Nivel: 3, Județ: Galati, Formă: Localitate, ID: 14993 <br /><b>Variante</b><br />Nume: Ghibărțeni, Hartă: PDT, Limbă: Limba română</description><Point><coordinates>27.924111,46.014941,0</coordinates></Point></Placemark>
<Placemark><name>Bibartzu B.</name><description>Nume: Bibartzu B., Tip: bibarţ, Nivel: 2, Județ: Salaj, Formă: Deal, ID: 12822 <br /><b>Variante</b><br />Nume: Bibartzu B., Hartă: Transilvania (1769-1773), Limbă: Limba germană</description><Point><coordinates>22.547391,47.161654,0</coordinates></Point></Placemark>
<Placemark><name>Dealul Ghiborțului</name><description>Nume: Dealul Ghiborțului, Tip: ghiborț, Nivel: 4, Județ: Vaslui, Formă: Deal, ID: 14999 <br /><b>Variante</b><br />Nume: Dealul Ghiborțului, Hartă: ANCPI, Limbă: Limba română</description><Point><coordinates>27.947346,46.759223,0</coordinates></Point></Placemark></Document></kml>