<?xml version="1.0" encoding="UTF-8"?><kml xmlns="http://www.opengis.net/kml/2.2"><Document><Placemark><name>D. inului</name><description>Nume: D. inului, Tip: in (plantă), Nivel: 2, Județ: Alba, Formă: Deal, ID: 10453 <br /><b>Variante</b><br />Nume: D. inului, Hartă: Transilvania (1869-1870), Limbă: Limba română</description><Point><coordinates>23.516605,46.034860,0</coordinates></Point></Placemark>
<Placemark><name>Dealul Inurilor</name><description>Nume: Dealul Inurilor, Tip: in (plantă), Nivel: 2, Județ: Alba, Formă: Deal, ID: 11835 <br /><b>Variante</b><br />Nume: Dealul Inurilor, Hartă: Geomil 25000, Limbă: Limba română</description><Point><coordinates>24.002482,46.321127,0</coordinates></Point></Placemark>
<Placemark><name>Dealul Inului</name><description>Nume: Dealul Inului, Tip: in (plantă), Nivel: 2, Județ: Arges, Formă: Deal, ID: 546 <br /><b>Variante</b><br />Nume: Dealul Inului, Hartă: Geomil 25000, Limbă: Limba română</description><Point><coordinates>25.126884,45.106521,0</coordinates></Point></Placemark>
<Placemark><name>Dealul Inului</name><description>Nume: Dealul Inului, Tip: in (plantă), Nivel: 2, Județ: Arges, Formă: Deal, ID: 14171 <br /><b>Variante</b><br />Nume: Dealul Inului, Hartă: PDT, Limbă: Limba română</description><Point><coordinates>25.088581,45.024934,0</coordinates></Point></Placemark>
<Placemark><name>Coasta Inului</name><description>Nume: Coasta Inului, Tip: in (plantă), Nivel: 2, Județ: Brasov, Formă: Înălțime, ID: 14541 <br /><b>Variante</b><br />Nume: Coasta Inului, Hartă: PDT, Limbă: Limba română</description><Point><coordinates>25.783518,45.608939,0</coordinates></Point></Placemark>
<Placemark><name>Dealul Inului</name><description>Nume: Dealul Inului, Tip: in (plantă), Nivel: 2, Județ: Covasna, Formă: Deal, ID: 4932 <br /><b>Variante</b><br />Nume: Dealul Inului, Hartă: Geomil 25000, Limbă: Limba română</description><Point><coordinates>25.703752,45.792461,0</coordinates></Point></Placemark>
<Placemark><name>Dealul la In</name><description>Nume: Dealul la In, Tip: in (plantă), Nivel: 2, Județ: Dambovita, Formă: Deal, ID: 5215 <br /><b>Variante</b><br />Nume: Dealul la In, Hartă: Geomil 25000, Limbă: Limba română</description><Point><coordinates>25.358225,45.185649,0</coordinates></Point></Placemark>
<Placemark><name>Coasta Inurilor</name><description>Nume: Coasta Inurilor, Tip: in (plantă), Nivel: 2, Județ: Mures, Formă: Înălțime, ID: 11472, ID Părinte: 11471 <br /><b>Variante</b><br />Nume: Coasta Inurilor, Hartă: Geomil 25000, Limbă: Limba română</description><Point><coordinates>25.079516,46.171895,0</coordinates></Point></Placemark>
<Placemark><LineString id="11472_11471"><tessellate>1</tessellate><coordinates>25.079516,46.171895,0.
25.086792,46.176686,0</coordinates></LineString><Style><LineStyle><width>3</width></LineStyle></Style></Placemark>
<Placemark><name>Grîdina cu In</name><description>Nume: Grîdina cu In, Tip: in (plantă), Nivel: 2, Județ: Mures, Formă: Altele, ID: 6788 <br /><b>Variante</b><br />Nume: Grîdina cu In, Hartă: Geomil 25000, Limbă: Limba română</description><Point><coordinates>25.106931,46.182491,0</coordinates></Point></Placemark>
<Placemark><name>Inurile</name><description>Nume: Inurile, Tip: in (plantă), Nivel: 2, Județ: Mures, Formă: Altele, ID: 11471 <br /><b>Variante</b><br />Nume: Inurile, Hartă: Geomil 25000, Limbă: Limba română</description><Point><coordinates>25.086792,46.176686,0</coordinates></Point></Placemark>
<Placemark><name>Pădurea Inurilor</name><description>Nume: Pădurea Inurilor, Tip: in (plantă), Nivel: 2, Județ: Mures, Formă: Pădure, ID: 11473 <br /><b>Variante</b><br />Nume: Pădurea Inurilor, Hartă: Geomil 25000, Limbă: Limba română</description><Point><coordinates>25.022266,46.197718,0</coordinates></Point></Placemark>
<Placemark><name>În vârf la Inuri</name><description>Nume: În vârf la Inuri, Tip: in (plantă), Nivel: 2, Județ: Prahova, Formă: Înălțime, ID: 11132 <br /><b>Variante</b><br />Nume: În vârf la Inuri, Hartă: PDT, Limbă: Limba română</description><Point><coordinates>25.923502,45.126511,0</coordinates></Point></Placemark>
<Placemark><name>Câmpia Inului</name><description>Nume: Câmpia Inului, Tip: in (plantă), Nivel: 2, Județ: Salaj, Formă: Câmp, ID: 7018 <br /><b>Variante</b><br />Nume: Câmpia Inului, Hartă: Geomil 25000, Limbă: Limba română<br />Nume: Câmpia Inului, Hartă: PDT, Limbă: Limba română</description><Point><coordinates>23.097744,46.891037,0</coordinates></Point></Placemark>
<Placemark><name>Topitoria de In</name><description>Nume: Topitoria de In, Tip: in (plantă), Nivel: 2, Județ: Satu Mare, Formă: Altele, ID: 14504 <br /><b>Variante</b><br />Nume: Topitoria de In, Hartă: PDT, Limbă: Limba română</description><Point><coordinates>22.363184,47.578617,0</coordinates></Point></Placemark>
<Placemark><name>Hotarului Inului</name><description>Nume: Hotarului Inului, Tip: in (plantă), Nivel: 2, Județ: Sibiu, Formă: Altele, ID: 2621 <br /><b>Variante</b><br />Nume: Hotarului Inului, Hartă: Geomil 25000, Limbă: Limba română</description><Point><coordinates>24.254744,46.131680,0</coordinates></Point></Placemark>
<Placemark><name>În Inuri</name><description>Nume: În Inuri, Tip: in (plantă), Nivel: 2, Județ: Sibiu, Formă: Altele, ID: 8622 <br /><b>Variante</b><br />Nume: În Inuri, Hartă: PDT, Limbă: Limba română</description><Point><coordinates>24.642492,46.092222,0</coordinates></Point></Placemark>
<Placemark><name>În Inuri</name><description>Nume: În Inuri, Tip: in (plantă), Nivel: 2, Județ: Sibiu, Formă: Altele, ID: 9683 <br /><b>Variante</b><br />Nume: În Inuri, Hartă: Geomil 25000, Limbă: Limba română</description><Point><coordinates>24.550453,45.788538,0</coordinates></Point></Placemark>
<Placemark><name>Valea Inului</name><description>Nume: Valea Inului, Tip: in (plantă), Nivel: 2, Județ: Sibiu, Formă: Vale, ID: 2651 <br /><b>Variante</b><br />Nume: Valea Inului, Hartă: Geomil 25000, Limbă: Limba română</description><Point><coordinates>24.469123,46.042334,0</coordinates></Point></Placemark>
<Placemark><name>Dealul Inului</name><description>Nume: Dealul Inului, Tip: in (plantă), Nivel: 2, Județ: Vaslui, Formă: Deal, ID: 14121 <br /><b>Variante</b><br />Nume: Dealul Inului, Hartă: Geomil 25000, Limbă: Limba română</description><Point><coordinates>27.540623,46.338640,0</coordinates></Point></Placemark>
<Placemark><name>Dealul Inului</name><description>Nume: Dealul Inului, Tip: in (plantă), Nivel: 2, Județ: Vrancea, Formă: Deal, ID: 8746 <br /><b>Variante</b><br />Nume: Dealul Inului, Hartă: PDT, Limbă: Limba română</description><Point><coordinates>26.993241,45.498595,0</coordinates></Point></Placemark>
<Placemark><name>Dealul la Inuri</name><description>Nume: Dealul la Inuri, Tip: in (plantă), Nivel: 2, Județ: Vrancea, Formă: Deal, ID: 9197 <br /><b>Variante</b><br />Nume: Dealul la Inuri, Hartă: PDT, Limbă: Limba română</description><Point><coordinates>26.864487,45.974607,0</coordinates></Point></Placemark>
<Placemark><name>Poiana Inului</name><description>Nume: Poiana Inului, Tip: in (plantă), Nivel: 2, Județ: Vrancea, Formă: Poiană, ID: 8745, ID Părinte: 8746 <br /><b>Variante</b><br />Nume: Poiana Inului, Hartă: PDT, Limbă: Limba română</description><Point><coordinates>26.997673,45.495821,0</coordinates></Point></Placemark>
<Placemark><LineString id="8745_8746"><tessellate>1</tessellate><coordinates>26.997673,45.495821,0.
26.993241,45.498595,0</coordinates></LineString><Style><LineStyle><width>3</width></LineStyle></Style></Placemark></Document></kml>