<?xml version="1.0" encoding="UTF-8"?><kml xmlns="http://www.opengis.net/kml/2.2"><Document><Placemark><name>Grădiște</name><description>Nume: Grădiște, Tip: grădiște, Nivel: 2, Județ: Arad, Formă: Înălțime, ID: 1097 <br /><b>Variante</b><br />Nume: Grădiște, Hartă: Geomil 25000, Limbă: Limba română</description><Point><coordinates>21.333279,46.218334,0</coordinates></Point></Placemark>
<Placemark><name>Grădiștea</name><description>Nume: Grădiștea, Tip: grădiște, Nivel: 2, Județ: Arad, Formă: Localitate, ID: 5637 <br /><b>Variante</b><br />Nume: Grădiștea, Hartă: PDT, Limbă: Limba română</description><Point><coordinates>21.319305,46.203328,0</coordinates></Point></Placemark>
<Placemark><name>Valea Grădiștei</name><description>Nume: Valea Grădiștei, Tip: grădiște, Nivel: 2, Județ: Arad, Formă: Vale, ID: 12518 <br /><b>Variante</b><br />Nume: Valea Grădiștei, Hartă: Geomil 25000, Limbă: Limba română</description><Point><coordinates>21.991309,46.351692,0</coordinates></Point></Placemark>
<Placemark><name>Fața Grădiștei</name><description>Nume: Fața Grădiștei, Tip: grădiște, Nivel: 2, Județ: Arges, Formă: Înălțime, ID: 4969, ID Părinte: 4967 <br /><b>Variante</b><br />Nume: Fața Grădiștei, Hartă: Geomil 25000, Limbă: Limba română</description><Point><coordinates>24.993868,45.213632,0</coordinates></Point></Placemark>
<Placemark><LineString id="4969_4967"><tessellate>1</tessellate><coordinates>24.993868,45.213632,0.
25.016339,45.204600,0</coordinates></LineString><Style><LineStyle><width>3</width></LineStyle></Style></Placemark>
<Placemark><name>Grădiștea</name><description>Nume: Grădiștea, Tip: grădiște, Nivel: 2, Județ: Arges, Formă: Înălțime, ID: 9355 <br /><b>Variante</b><br />Nume: Grădiștea, Hartă: PDT, Limbă: Limba română</description><Point><coordinates>24.649511,44.768773,0</coordinates></Point></Placemark>
<Placemark><name>Grădiștea</name><description>Nume: Grădiștea, Tip: grădiște, Nivel: 2, Județ: Arges, Formă: Localitate, ID: 14185 <br /><b>Variante</b><br />Nume: Grădiștea, Hartă: PDT, Limbă: Limba română</description><Point><coordinates>24.797341,44.770325,0</coordinates></Point></Placemark>
<Placemark><name>Pădurea Pechea Grădiștea</name><description>Nume: Pădurea Pechea Grădiștea, Tip: grădiște, Nivel: 2, Județ: Arges, Formă: Pădure, ID: 560 <br /><b>Variante</b><br />Nume: Pădurea Pechea Grădiștea, Hartă: Geomil 25000, Limbă: Limba română</description><Point><coordinates>25.029487,45.183833,0</coordinates></Point></Placemark>
<Placemark><name>Valea Grădiștea</name><description>Nume: Valea Grădiștea, Tip: grădiște, Nivel: 2, Județ: Arges, Formă: Vale, ID: 14186 <br /><b>Variante</b><br />Nume: Valea Grădiștea, Hartă: PDT, Limbă: Limba română</description><Point><coordinates>24.757998,44.813838,0</coordinates></Point></Placemark>
<Placemark><name>Grădiștea</name><description>Nume: Grădiștea, Tip: grădiște, Nivel: 2, Județ: Braila, Formă: Localitate, ID: 8720 <br /><b>Variante</b><br />Nume: Grădiștea, Hartă: Geomil 25000, Limbă: Limba română</description><Point><coordinates>27.392199,45.266399,0</coordinates></Point></Placemark>
<Placemark><name>Grădiștea Scurta</name><description>Nume: Grădiștea Scurta, Tip: grădiște, Nivel: 2, Județ: Braila, Formă: Înălțime, ID: 492 <br /><b>Variante</b><br />Nume: Grădiștea Scurta, Hartă: Geomil 25000, Limbă: Limba română</description><Point><coordinates>28.061311,45.238765,0</coordinates></Point></Placemark>
<Placemark><name>La Grădiște</name><description>Nume: La Grădiște, Tip: grădiște, Nivel: 2, Județ: Braila, Formă: Altele, ID: 486 <br /><b>Variante</b><br />Nume: La Grădiște, Hartă: Geomil 25000, Limbă: Limba română</description><Point><coordinates>27.739713,44.796048,0</coordinates></Point></Placemark>
<Placemark><name>Grădiștea</name><description>Nume: Grădiștea, Tip: grădiște, Nivel: 2, Județ: Brasov, Formă: Altele, ID: 6841 <br /><b>Variante</b><br />Nume: Grădiștea, Hartă: PDT, Limbă: Limba română</description><Point><coordinates>25.443039,45.617374,0</coordinates></Point></Placemark>
<Placemark><name>Grădiștea</name><description>Nume: Grădiștea, Tip: grădiște, Nivel: 2, Județ: Brasov, Formă: Altele, ID: 9800 <br /><b>Variante</b><br />Nume: Grădiștea, Hartă: PDT, Limbă: Limba română</description><Point><coordinates>25.287066,45.449511,0</coordinates></Point></Placemark>
<Placemark><name>Valea Grădiștei</name><description>Nume: Valea Grădiștei, Tip: grădiște, Nivel: 2, Județ: Brasov, Formă: Vale, ID: 588, ID Părinte: 9800 <br /><b>Variante</b><br />Nume: Valea Grădiștei, Hartă: Geomil 25000, Limbă: Limba română</description><Point><coordinates>25.294816,45.461979,0</coordinates></Point></Placemark>
<Placemark><LineString id="588_9800"><tessellate>1</tessellate><coordinates>25.294816,45.461979,0.
25.287066,45.449511,0</coordinates></LineString><Style><LineStyle><width>3</width></LineStyle></Style></Placemark>
<Placemark><name>Grădișeta Roseți</name><description>Nume: Grădișeta Roseți, Tip: grădiște, Nivel: 2, Județ: Calarasi, Formă: Înălțime, ID: 3301 <br /><b>Variante</b><br />Nume: Grădișeta Roseți, Hartă: Geomil 25000, Limbă: Limba română</description><Point><coordinates>27.430925,44.177725,0</coordinates></Point></Placemark>
<Placemark><name>Grădiștea</name><description>Nume: Grădiștea, Tip: grădiște, Nivel: 2, Județ: Calarasi, Formă: Localitate, ID: 470, ID Părinte: 469 <br /><b>Variante</b><br />Nume: Grădiștea, Hartă: Geomil 25000, Limbă: Limba română</description><Point><coordinates>27.206710,44.236029,0</coordinates></Point></Placemark>
<Placemark><LineString id="470_469"><tessellate>1</tessellate><coordinates>27.206710,44.236029,0.
27.227924,44.242535,0</coordinates></LineString><Style><LineStyle><width>3</width></LineStyle></Style></Placemark>
<Placemark><name>Grădiștea</name><description>Nume: Grădiștea, Tip: grădiște, Nivel: 2, Județ: Calarasi, Formă: Localitate, ID: 1321, ID Părinte: 1320 <br /><b>Variante</b><br />Nume: Grădiștea, Hartă: Geomil 25000, Limbă: Limba română</description><Point><coordinates>26.293468,44.662827,0</coordinates></Point></Placemark>
<Placemark><LineString id="1321_1320"><tessellate>1</tessellate><coordinates>26.293468,44.662827,0.
26.297988,44.654986,0</coordinates></LineString><Style><LineStyle><width>3</width></LineStyle></Style></Placemark>
<Placemark><name>Grădiștea</name><description>Nume: Grădiștea, Tip: grădiște, Nivel: 2, Județ: Calarasi, Formă: Înălțime, ID: 3229 <br /><b>Variante</b><br />Nume: Grădiștea, Hartă: Geomil 25000, Limbă: Limba română</description><Point><coordinates>27.168876,44.176261,0</coordinates></Point></Placemark>
<Placemark><name>Gradiștea</name><description>Nume: Gradiștea, Tip: grădiște, Nivel: 2, Județ: Calarasi, Formă: Localitate, ID: 3625, ID Părinte: 3624 <br /><b>Variante</b><br />Nume: Gradiștea, Hartă: Austriacă, Limbă: Limba română</description><Point><coordinates>26.444382,44.488778,0</coordinates></Point></Placemark>
<Placemark><LineString id="3625_3624"><tessellate>1</tessellate><coordinates>26.444382,44.488778,0.
26.443935,44.495979,0</coordinates></LineString><Style><LineStyle><width>3</width></LineStyle></Style></Placemark>
<Placemark><name>Grădiștea Călărași</name><description>Nume: Grădiștea Călărași, Tip: grădiște, Nivel: 2, Județ: Calarasi, Formă: Înălțime, ID: 472 <br /><b>Variante</b><br />Nume: Grădiștea Călărași, Hartă: Geomil 25000, Limbă: Limba română</description><Point><coordinates>27.299366,44.169251,0</coordinates></Point></Placemark>
<Placemark><name>Grădiștea Ceacu</name><description>Nume: Grădiștea Ceacu, Tip: grădiște, Nivel: 2, Județ: Calarasi, Formă: Înălțime, ID: 471 <br /><b>Variante</b><br />Nume: Grădiștea Ceacu, Hartă: Geomil 25000, Limbă: Limba română</description><Point><coordinates>27.213761,44.176324,0</coordinates></Point></Placemark>
<Placemark><name>Grădiștea Coslogeni</name><description>Nume: Grădiștea Coslogeni, Tip: grădiște, Nivel: 2, Județ: Calarasi, Formă: Înălțime, ID: 3295 <br /><b>Variante</b><br />Nume: Grădiștea Coslogeni, Hartă: PDT, Limbă: Limba română</description><Point><coordinates>27.503123,44.188976,0</coordinates></Point></Placemark>
<Placemark><name>Grădiștea lui Ilie</name><description>Nume: Grădiștea lui Ilie, Tip: grădiște, Nivel: 2, Județ: Calarasi, Formă: Înălțime, ID: 3296 <br /><b>Variante</b><br />Nume: Grădiștea lui Ilie, Hartă: PDT, Limbă: Limba română</description><Point><coordinates>27.518101,44.191814,0</coordinates></Point></Placemark>
<Placemark><name>Grădiștea Mare</name><description>Nume: Grădiștea Mare, Tip: grădiște, Nivel: 2, Județ: Calarasi, Formă: Altele, ID: 3260 <br /><b>Variante</b><br />Nume: Grădiștea Mare, Hartă: PDT, Limbă: Limba română</description><Point><coordinates>26.912379,44.181395,0</coordinates></Point></Placemark>
<Placemark><name>Grădiștea Mică</name><description>Nume: Grădiștea Mică, Tip: grădiște, Nivel: 2, Județ: Calarasi, Formă: Înălțime, ID: 474 <br /><b>Variante</b><br />Nume: Grădiștea Mică, Hartă: Geomil 25000, Limbă: Limba română</description><Point><coordinates>27.483454,44.182961,0</coordinates></Point></Placemark>
<Placemark><name>Grădiștea Mică</name><description>Nume: Grădiștea Mică, Tip: grădiște, Nivel: 2, Județ: Calarasi, Formă: Altele, ID: 3261 <br /><b>Variante</b><br />Nume: Grădiștea Mică, Hartă: PDT, Limbă: Limba română</description><Point><coordinates>26.913514,44.172778,0</coordinates></Point></Placemark>
<Placemark><name>Grădiștioara</name><description>Nume: Grădiștioara, Tip: grădiște, Nivel: 2, Județ: Calarasi, Formă: Apă-deal-câmpie, ID: 3453 <br /><b>Variante</b><br />Nume: Grădiștioara, Hartă: PDT, Limbă: Limba română</description><Point><coordinates>27.800326,44.335579,0</coordinates></Point></Placemark>
<Placemark><name>La Grădiște</name><description>Nume: La Grădiște, Tip: grădiște, Nivel: 2, Județ: Calarasi, Formă: Înălțime, ID: 1312 <br /><b>Variante</b><br />Nume: La Grădiște, Hartă: Geomil 25000, Limbă: Limba română<br />Nume: La Grădiște, Hartă: PDT, Limbă: Limba română</description><Point><coordinates>26.712640,44.085308,0</coordinates></Point></Placemark>
<Placemark><name>La Grădiște</name><description>Nume: La Grădiște, Tip: grădiște, Nivel: 2, Județ: Calarasi, Formă: Altele, ID: 3250 <br /><b>Variante</b><br />Nume: La Grădiște, Hartă: PDT, Limbă: Limba română<br />Nume: Insula Grădiște, Hartă: Geomil 25000, Limbă: Limba română</description><Point><coordinates>26.896438,44.275711,0</coordinates></Point></Placemark>
<Placemark><name>La Grădiște</name><description>Nume: La Grădiște, Tip: grădiște, Nivel: 2, Județ: Calarasi, Formă: Altele, ID: 3251 <br /><b>Variante</b><br />Nume: La Grădiște, Hartă: Geomil 25000, Limbă: Limba română<br />Nume: La Grădiște, Hartă: PDT, Limbă: Limba română</description><Point><coordinates>26.869137,44.272477,0</coordinates></Point></Placemark>
<Placemark><name>Lacul Grădiștei</name><description>Nume: Lacul Grădiștei, Tip: grădiște, Nivel: 2, Județ: Calarasi, Formă: Lac, ID: 3226, ID Părinte: 472 <br /><b>Variante</b><br />Nume: Lacul Grădiștei, Hartă: PDT, Limbă: Limba română</description><Point><coordinates>27.307637,44.161708,0</coordinates></Point></Placemark>
<Placemark><LineString id="3226_472"><tessellate>1</tessellate><coordinates>27.307637,44.161708,0.
27.299366,44.169251,0</coordinates></LineString><Style><LineStyle><width>3</width></LineStyle></Style></Placemark>
<Placemark><name>Movila Fundu Grădiștea</name><description>Nume: Movila Fundu Grădiștea, Tip: grădiște, Nivel: 2, Județ: Calarasi, Formă: Înălțime, ID: 3263 <br /><b>Variante</b><br />Nume: Movila Fundu Grădiștea, Hartă: Geomil 25000, Limbă: Limba română</description><Point><coordinates>26.884324,44.154279,0</coordinates></Point></Placemark>
<Placemark><name>Movila Grădiștea</name><description>Nume: Movila Grădiștea, Tip: grădiște, Nivel: 2, Județ: Calarasi, Formă: Înălțime, ID: 469 <br /><b>Variante</b><br />Nume: Movila Grădiștea, Hartă: Geomil 25000, Limbă: Limba română</description><Point><coordinates>27.227924,44.242535,0</coordinates></Point></Placemark>
<Placemark><name>Movila Grădiștea</name><description>Nume: Movila Grădiștea, Tip: grădiște, Nivel: 2, Județ: Calarasi, Formă: Înălțime, ID: 3254 <br /><b>Variante</b><br />Nume: Movila Grădiștea, Hartă: PDT, Limbă: Limba română</description><Point><coordinates>27.003211,44.186866,0</coordinates></Point></Placemark>
<Placemark><name>Movila Grădiștea</name><description>Nume: Movila Grădiștea, Tip: grădiște, Nivel: 2, Județ: Calarasi, Formă: Înălțime, ID: 3624 <br /><b>Variante</b><br />Nume: Movila Grădiștea, Hartă: PDT, Limbă: Limba română<br />Nume: Movila Grădiște, Hartă: Geomil 25000, Limbă: Limba română</description><Point><coordinates>26.443935,44.495979,0</coordinates></Point></Placemark>
<Placemark><name>Pădurea Grâdiști</name><description>Nume: Pădurea Grâdiști, Tip: grădiște, Nivel: 2, Județ: Calarasi, Formă: Pădure, ID: 3626, ID Părinte: 3624 <br /><b>Variante</b><br />Nume: Pădurea Grâdiști, Hartă: Austriacă, Limbă: Limba română</description><Point><coordinates>26.451945,44.515676,0</coordinates></Point></Placemark>
<Placemark><LineString id="3626_3624"><tessellate>1</tessellate><coordinates>26.451945,44.515676,0.
26.443935,44.495979,0</coordinates></LineString><Style><LineStyle><width>3</width></LineStyle></Style></Placemark>
<Placemark><name>Pădurea Grădiștioara</name><description>Nume: Pădurea Grădiștioara, Tip: grădiște, Nivel: 2, Județ: Calarasi, Formă: Pădure, ID: 3457, ID Părinte: 3453 <br /><b>Variante</b><br />Nume: Pădurea Grădiștioara, Hartă: PDT, Limbă: Limba română</description><Point><coordinates>27.818529,44.345352,0</coordinates></Point></Placemark>
<Placemark><LineString id="3457_3453"><tessellate>1</tessellate><coordinates>27.818529,44.345352,0.
27.800326,44.335579,0</coordinates></LineString><Style><LineStyle><width>3</width></LineStyle></Style></Placemark>
<Placemark><name>Privalu Grădiștea</name><description>Nume: Privalu Grădiștea, Tip: grădiște, Nivel: 2, Județ: Calarasi, Formă: Apă-deal-câmpie, ID: 3227, ID Părinte: 472 <br /><b>Variante</b><br />Nume: Privalu Grădiștea, Hartă: PDT, Limbă: Limba română</description><Point><coordinates>27.292187,44.164620,0</coordinates></Point></Placemark>
<Placemark><LineString id="3227_472"><tessellate>1</tessellate><coordinates>27.292187,44.164620,0.
27.299366,44.169251,0</coordinates></LineString><Style><LineStyle><width>3</width></LineStyle></Style></Placemark>
<Placemark><name>Fața Grădiștei</name><description>Nume: Fața Grădiștei, Tip: grădiște, Nivel: 2, Județ: Caras Severin, Formă: Altele, ID: 1232, ID Părinte: 1231 <br /><b>Variante</b><br />Nume: Fața Grădiștei, Hartă: Geomil 25000, Limbă: Limba română</description><Point><coordinates>22.119585,45.223620,0</coordinates></Point></Placemark>
<Placemark><LineString id="1232_1231"><tessellate>1</tessellate><coordinates>22.119585,45.223620,0.
22.132592,45.221839,0</coordinates></LineString><Style><LineStyle><width>3</width></LineStyle></Style></Placemark>
<Placemark><name>Grădiște</name><description>Nume: Grădiște, Tip: grădiște, Nivel: 2, Județ: Caras Severin, Formă: Înălțime, ID: 1231 <br /><b>Variante</b><br />Nume: Grădiște, Hartă: Geomil 25000, Limbă: Limba română<br />Nume: Kraku Grâdiște, Hartă: Ungară 1869, Limbă: Limba română</description><Point><coordinates>22.132592,45.221839,0</coordinates></Point></Placemark>
<Placemark><name>Ogașu Grădiște</name><description>Nume: Ogașu Grădiște, Tip: grădiște, Nivel: 2, Județ: Caras Severin, Formă: Vale, ID: 1228, ID Părinte: 1231 <br /><b>Variante</b><br />Nume: Ogașu Grădiște, Hartă: Geomil 25000, Limbă: Limba română</description><Point><coordinates>22.068153,45.213298,0</coordinates></Point></Placemark>
<Placemark><LineString id="1228_1231"><tessellate>1</tessellate><coordinates>22.068153,45.213298,0.
22.132592,45.221839,0</coordinates></LineString><Style><LineStyle><width>3</width></LineStyle></Style></Placemark>
<Placemark><name>Pârâu Grădiște</name><description>Nume: Pârâu Grădiște, Tip: grădiște, Nivel: 2, Județ: Caras Severin, Formă: Vale, ID: 1229, ID Părinte: 1231 <br /><b>Variante</b><br />Nume: Pârâu Grădiște, Hartă: Geomil 25000, Limbă: Limba română</description><Point><coordinates>22.090030,45.215972,0</coordinates></Point></Placemark>
<Placemark><LineString id="1229_1231"><tessellate>1</tessellate><coordinates>22.090030,45.215972,0.
22.132592,45.221839,0</coordinates></LineString><Style><LineStyle><width>3</width></LineStyle></Style></Placemark>
<Placemark><name>Poiana Obârșia Grădiștei</name><description>Nume: Poiana Obârșia Grădiștei, Tip: grădiște, Nivel: 2, Județ: Caras Severin, Formă: Poiană, ID: 4331, ID Părinte: 1231 <br /><b>Variante</b><br />Nume: Poiana Obârșia Grădiștei, Hartă: PDT, Limbă: Limba română</description><Point><coordinates>22.065940,45.197235,0</coordinates></Point></Placemark>
<Placemark><LineString id="4331_1231"><tessellate>1</tessellate><coordinates>22.065940,45.197235,0.
22.132592,45.221839,0</coordinates></LineString><Style><LineStyle><width>3</width></LineStyle></Style></Placemark>
<Placemark><name>Zagradie</name><description>Nume: Zagradie, Tip: zagradie, Nivel: 3, Județ: Caras Severin, Formă: Altele, ID: 14355 <br /><b>Variante</b><br />Nume: Zagradie, Hartă: PDT, Limbă: Limba română</description><Point><coordinates>21.963074,44.999766,0</coordinates></Point></Placemark>
<Placemark><name>Balta Grădiștea</name><description>Nume: Balta Grădiștea, Tip: grădiște, Nivel: 2, Județ: Dolj, Formă: Apă-deal-câmpie, ID: 7697 <br /><b>Variante</b><br />Nume: Balta Grădiștea, Hartă: PDT, Limbă: Limba română</description><Point><coordinates>23.858435,44.173782,0</coordinates></Point></Placemark>
<Placemark><name>Dealul Grădiștei</name><description>Nume: Dealul Grădiștei, Tip: grădiște, Nivel: 2, Județ: Dolj, Formă: Vale, ID: 120 <br /><b>Variante</b><br />Nume: Dealul Grădiștei, Hartă: PDT, Limbă: Limba română<br />Nume: Dealul Grădiștii, Hartă: Geomil 25000, Limbă: Limba română<br />Nume: ур. Грэдиштей (dealul Grădiștei), Hartă: Sovietică, Limbă: Limba română</description><Point><coordinates>23.238956,44.463578,0</coordinates></Point></Placemark>
<Placemark><name>Grădiștea</name><description>Nume: Grădiștea, Tip: grădiște, Nivel: 2, Județ: Dolj, Formă: Localitate, ID: 119, ID Părinte: 120 <br /><b>Variante</b><br />Nume: Grădiștea, Hartă: Geomil 25000, Limbă: Limba română<br />Nume: Grădiștia, Hartă: Austriacă, Limbă: Limba română</description><Point><coordinates>23.260547,44.453039,0</coordinates></Point></Placemark>
<Placemark><LineString id="119_120"><tessellate>1</tessellate><coordinates>23.260547,44.453039,0.
23.238956,44.463578,0</coordinates></LineString><Style><LineStyle><width>3</width></LineStyle></Style></Placemark>
<Placemark><name>Valea Grădiștii</name><description>Nume: Valea Grădiștii, Tip: grădiște, Nivel: 2, Județ: Dolj, Formă: Vale, ID: 118, ID Părinte: 120 <br /><b>Variante</b><br />Nume: Valea Grădiștii, Hartă: Geomil 25000, Limbă: Limba română<br />Nume: Valea Grădiște, Hartă: PDT, Limbă: Limba română</description><Point><coordinates>23.244026,44.453239,0</coordinates></Point></Placemark>
<Placemark><LineString id="118_120"><tessellate>1</tessellate><coordinates>23.244026,44.453239,0.
23.238956,44.463578,0</coordinates></LineString><Style><LineStyle><width>3</width></LineStyle></Style></Placemark>
<Placemark><name>Grădiștea</name><description>Nume: Grădiștea, Tip: grădiște, Nivel: 2, Județ: Giurgiu, Formă: Înălțime, ID: 466 <br /><b>Variante</b><br />Nume: Grădiștea, Hartă: Geomil 25000, Limbă: Limba română</description><Point><coordinates>26.145718,44.232672,0</coordinates></Point></Placemark>
<Placemark><name>Grădiștea</name><description>Nume: Grădiștea, Tip: grădiște, Nivel: 2, Județ: Giurgiu, Formă: Localitate, ID: 467, ID Părinte: 466 <br /><b>Variante</b><br />Nume: Grădiștea, Hartă: Geomil 25000, Limbă: Limba română</description><Point><coordinates>26.151841,44.222802,0</coordinates></Point></Placemark>
<Placemark><LineString id="467_466"><tessellate>1</tessellate><coordinates>26.151841,44.222802,0.
26.145718,44.232672,0</coordinates></LineString><Style><LineStyle><width>3</width></LineStyle></Style></Placemark>
<Placemark><name>Grediștor</name><description>Nume: Grediștor, Tip: grădiște, Nivel: 2, Județ: Giurgiu, Formă: Altele, ID: 5739 <br /><b>Variante</b><br />Nume: Grediștor, Hartă: Austriacă, Limbă: Limba română</description><Point><coordinates>25.775251,43.736027,0</coordinates></Point></Placemark>
<Placemark><name>Laku Grediște</name><description>Nume: Laku Grediște, Tip: grădiște, Nivel: 2, Județ: Giurgiu, Formă: Lac, ID: 5740, ID Părinte: 5739 <br /><b>Variante</b><br />Nume: Laku Grediște, Hartă: Austriacă, Limbă: Limba română</description><Point><coordinates>25.744971,43.737304,0</coordinates></Point></Placemark>
<Placemark><LineString id="5740_5739"><tessellate>1</tessellate><coordinates>25.744971,43.737304,0.
25.775251,43.736027,0</coordinates></LineString><Style><LineStyle><width>3</width></LineStyle></Style></Placemark>
<Placemark><name>Movila Grădiștea</name><description>Nume: Movila Grădiștea, Tip: grădiște, Nivel: 2, Județ: Giurgiu, Formă: Înălțime, ID: 3784 <br /><b>Variante</b><br />Nume: Movila Grădiștea, Hartă: PDT, Limbă: Limba română</description><Point><coordinates>25.595467,43.727483,0</coordinates></Point></Placemark>
<Placemark><name>Valea Grădiștea Mare</name><description>Nume: Valea Grădiștea Mare, Tip: grădiște, Nivel: 2, Județ: Gorj, Formă: Vale, ID: 3680 <br /><b>Variante</b><br />Nume: Valea Grădiștea Mare, Hartă: PDT, Limbă: Limba română</description><Point><coordinates>22.929702,44.856898,0</coordinates></Point></Placemark>
<Placemark><name>Valea Grădiștea Mică</name><description>Nume: Valea Grădiștea Mică, Tip: grădiște, Nivel: 2, Județ: Gorj, Formă: Vale, ID: 9768, ID Părinte: 3680 <br /><b>Variante</b><br />Nume: Valea Grădiștea Mică, Hartă: PDT, Limbă: Limba română</description><Point><coordinates>22.934651,44.854387,0</coordinates></Point></Placemark>
<Placemark><LineString id="9768_3680"><tessellate>1</tessellate><coordinates>22.934651,44.854387,0.
22.929702,44.856898,0</coordinates></LineString><Style><LineStyle><width>3</width></LineStyle></Style></Placemark>
<Placemark><name>Culmea Grădiștei</name><description>Nume: Culmea Grădiștei, Tip: grădiște, Nivel: 2, Județ: Hunedoara, Formă: Înălțime, ID: 9832, ID Părinte: 9831 <br /><b>Variante</b><br />Nume: Culmea Grădiștei, Hartă: Geomil 25000, Limbă: Limba română</description><Point><coordinates>23.299286,45.620180,0</coordinates></Point></Placemark>
<Placemark><LineString id="9832_9831"><tessellate>1</tessellate><coordinates>23.299286,45.620180,0.
23.308312,45.622760,0</coordinates></LineString><Style><LineStyle><width>3</width></LineStyle></Style></Placemark>
<Placemark><name>Grădiște</name><description>Nume: Grădiște, Tip: grădiște, Nivel: 2, Județ: Hunedoara, Formă: Altele, ID: 5549 <br /><b>Variante</b><br />Nume: Grădiște, Hartă: Geomil 25000, Limbă: Limba română</description><Point><coordinates>22.949647,45.595145,0</coordinates></Point></Placemark>
<Placemark><name>Grădiște</name><description>Nume: Grădiște, Tip: grădiște, Nivel: 2, Județ: Hunedoara, Formă: Localitate, ID: 5563, ID Părinte: 5562 <br /><b>Variante</b><br />Nume: Grădiște, Hartă: PDT, Limbă: Limba română</description><Point><coordinates>22.784926,45.512109,0</coordinates></Point></Placemark>
<Placemark><LineString id="5563_5562"><tessellate>1</tessellate><coordinates>22.784926,45.512109,0.
22.800413,45.512207,0</coordinates></LineString><Style><LineStyle><width>3</width></LineStyle></Style></Placemark>
<Placemark><name>Râul Grădiștea</name><description>Nume: Râul Grădiștea, Tip: grădiște, Nivel: 2, Județ: Hunedoara, Formă: Vale, ID: 9829, ID Părinte: 9831 <br /><b>Variante</b><br />Nume: Râul Grădiștea, Hartă: Geomil 25000, Limbă: Limba română</description><Point><coordinates>23.228078,45.622097,0</coordinates></Point></Placemark>
<Placemark><LineString id="9829_9831"><tessellate>1</tessellate><coordinates>23.228078,45.622097,0.
23.308312,45.622760,0</coordinates></LineString><Style><LineStyle><width>3</width></LineStyle></Style></Placemark>
<Placemark><name>Grădiștea de lângă gârlă</name><description>Nume: Grădiștea de lângă gârlă, Tip: grădiște, Nivel: 2, Județ: Ialomita, Formă: Înălțime, ID: 3449 <br /><b>Variante</b><br />Nume: Grădiștea de lângă gârlă, Hartă: PDT, Limbă: Limba română</description><Point><coordinates>27.916992,44.400799,0</coordinates></Point></Placemark>
<Placemark><name>Grădiștea Stoicii</name><description>Nume: Grădiștea Stoicii, Tip: grădiște, Nivel: 2, Județ: Ialomita, Formă: Înălțime, ID: 3450 <br /><b>Variante</b><br />Nume: Grădiștea Stoicii, Hartă: Geomil 25000, Limbă: Limba română<br />Nume: Grindul Grădiștei, Hartă: PDT, Limbă: Limba română</description><Point><coordinates>27.924847,44.386125,0</coordinates></Point></Placemark>
<Placemark><name>Dealul Grădiștii</name><description>Nume: Dealul Grădiștii, Tip: grădiște, Nivel: 2, Județ: Iasi, Formă: Deal, ID: 1736, ID Părinte: 9728 <br /><b>Variante</b><br />Nume: Dealul Grădiștii, Hartă: Geomil 25000, Limbă: Limba română</description><Point><coordinates>26.974377,47.430714,0</coordinates></Point></Placemark>
<Placemark><LineString id="1736_9728"><tessellate>1</tessellate><coordinates>26.974377,47.430714,0.
26.975632,47.414547,0</coordinates></LineString><Style><LineStyle><width>3</width></LineStyle></Style></Placemark>
<Placemark><name>Movila Grădiștea</name><description>Nume: Movila Grădiștea, Tip: grădiște, Nivel: 2, Județ: Iasi, Formă: Înălțime, ID: 9728 <br /><b>Variante</b><br />Nume: Movila Grădiștea, Hartă: Moldova (1892-1898), Limbă: Limba română</description><Point><coordinates>26.975632,47.414547,0</coordinates></Point></Placemark>
<Placemark><name>Grădiștea</name><description>Nume: Grădiștea, Tip: grădiște, Nivel: 2, Județ: Ilfov, Formă: Înălțime, ID: 1320 <br /><b>Variante</b><br />Nume: Grădiștea, Hartă: Geomil 25000, Limbă: Limba română</description><Point><coordinates>26.297988,44.654986,0</coordinates></Point></Placemark>
<Placemark><name>Pădurea Grădiștea</name><description>Nume: Pădurea Grădiștea, Tip: grădiște, Nivel: 2, Județ: Ilfov, Formă: Pădure, ID: 10930, ID Părinte: 1320 <br /><b>Variante</b><br />Nume: Pădurea Grădiștea, Hartă: Geomil 25000, Limbă: Limba română</description><Point><coordinates>26.300146,44.640790,0</coordinates></Point></Placemark>
<Placemark><LineString id="10930_1320"><tessellate>1</tessellate><coordinates>26.300146,44.640790,0.
26.297988,44.654986,0</coordinates></LineString><Style><LineStyle><width>3</width></LineStyle></Style></Placemark>
<Placemark><name>D. Gredetz</name><description>Nume: D. Gredetz, Tip: grădeț, Nivel: 3, Județ: Mehedinti, Formă: Deal, ID: 14268 <br /><b>Variante</b><br />Nume: D. Gredetz, Hartă: Austriacă, Limbă: Limba română</description><Point><coordinates>22.624216,44.753938,0</coordinates></Point></Placemark>
<Placemark><name>Dealu Grădiștea</name><description>Nume: Dealu Grădiștea, Tip: grădiște, Nivel: 2, Județ: Olt, Formă: Deal, ID: 281 <br /><b>Variante</b><br />Nume: Dealu Grădiștea, Hartă: Geomil 25000, Limbă: Limba română<br />Nume: Dealul Grădiștea, Hartă: PDT, Limbă: Limba română</description><Point><coordinates>24.249643,44.456506,0</coordinates></Point></Placemark>
<Placemark><name>Grădiștea</name><description>Nume: Grădiștea, Tip: grădiște, Nivel: 2, Județ: Olt, Formă: Localitate, ID: 282, ID Părinte: 281 <br /><b>Variante</b><br />Nume: Grădiștea, Hartă: Geomil 25000, Limbă: Limba română</description><Point><coordinates>24.243028,44.444376,0</coordinates></Point></Placemark>
<Placemark><LineString id="282_281"><tessellate>1</tessellate><coordinates>24.243028,44.444376,0.
24.249643,44.456506,0</coordinates></LineString><Style><LineStyle><width>3</width></LineStyle></Style></Placemark>
<Placemark><name>Gradiștea</name><description>Nume: Gradiștea, Tip: grădiște, Nivel: 2, Județ: Olt, Formă: Înălțime, ID: 5810 <br /><b>Variante</b><br />Nume: Gradiștea, Hartă: Austriacă, Limbă: Limba română</description><Point><coordinates>24.346829,44.430474,0</coordinates></Point></Placemark>
<Placemark><name>La Gârla Grădiștei</name><description>Nume: La Gârla Grădiștei, Tip: grădiște, Nivel: 2, Județ: Olt, Formă: Apă-deal-câmpie, ID: 1269 <br /><b>Variante</b><br />Nume: La Gârla Grădiștei, Hartă: Geomil 25000, Limbă: Limba română<br />Nume: Gârla Grădiștea, Hartă: PDT, Limbă: Limba română</description><Point><coordinates>24.365560,43.712850,0</coordinates></Point></Placemark>
<Placemark><name>Dealul Grădiștea</name><description>Nume: Dealul Grădiștea, Tip: grădiște, Nivel: 2, Județ: Prahova, Formă: Deal, ID: 822 <br /><b>Variante</b><br />Nume: Dealul Grădiștea, Hartă: Geomil 25000, Limbă: Limba română</description><Point><coordinates>26.097216,45.130328,0</coordinates></Point></Placemark>
<Placemark><name>Grădiștea</name><description>Nume: Grădiștea, Tip: grădiște, Nivel: 2, Județ: Prahova, Formă: Localitate, ID: 60 <br /><b>Variante</b><br />Nume: Grădiștea, Hartă: Geomil 25000, Limbă: Limba română<br />Nume: Gradiștea, Hartă: Austriacă, Limbă: Limba română<br />Nume: Grădiștea, Hartă: PDT, Limbă: Limba română<br />Nume: Грэдиштя (Grădiștea), Hartă: Sovietică, Limbă: Limba română</description><Point><coordinates>26.512133,44.888345,0</coordinates></Point></Placemark>
<Placemark><name>Dealu Grădiște</name><description>Nume: Dealu Grădiște, Tip: grădiște, Nivel: 2, Județ: Salaj, Formă: Deal, ID: 6936, ID Părinte: 6935 <br /><b>Variante</b><br />Nume: Dealu Grădiște, Hartă: Geomil 25000, Limbă: Limba română</description><Point><coordinates>23.344246,47.235955,0</coordinates></Point></Placemark>
<Placemark><LineString id="6936_6935"><tessellate>1</tessellate><coordinates>23.344246,47.235955,0.
23.339734,47.240490,0</coordinates></LineString><Style><LineStyle><width>3</width></LineStyle></Style></Placemark>
<Placemark><name>Grediște</name><description>Nume: Grediște, Tip: grădiște, Nivel: 2, Județ: Teleorman, Formă: Pădure, ID: 3635, ID Părinte: 3784 <br /><b>Variante</b><br />Nume: Grediște, Hartă: Austriacă, Limbă: Limba română</description><Point><coordinates>25.604023,43.740218,0</coordinates></Point></Placemark>
<Placemark><LineString id="3635_3784"><tessellate>1</tessellate><coordinates>25.604023,43.740218,0.
25.595467,43.727483,0</coordinates></LineString><Style><LineStyle><width>3</width></LineStyle></Style></Placemark>
<Placemark><name>Grădiște</name><description>Nume: Grădiște, Tip: grădiște, Nivel: 2, Județ: Timis, Formă: Altele, ID: 5656 <br /><b>Variante</b><br />Nume: Grădiște, Hartă: PDT, Limbă: Limba română</description><Point><coordinates>21.018660,45.934124,0</coordinates></Point></Placemark>
<Placemark><name>Grădiște</name><description>Nume: Grădiște, Tip: grădiște, Nivel: 2, Județ: Timis, Formă: Altele, ID: 7615 <br /><b>Variante</b><br />Nume: Grădiște, Hartă: Geomil 25000, Limbă: Limba română</description><Point><coordinates>20.941571,45.597749,0</coordinates></Point></Placemark>
<Placemark><name>Grădiștea</name><description>Nume: Grădiștea, Tip: grădiște, Nivel: 2, Județ: Tulcea, Formă: Înălțime, ID: 11079 <br /><b>Variante</b><br />Nume: Grădiștea, Hartă: Geomil 25000, Limbă: Limba română</description><Point><coordinates>28.862406,44.903109,0</coordinates></Point></Placemark>
<Placemark><name>Dealu Grădiștea</name><description>Nume: Dealu Grădiștea, Tip: grădiște, Nivel: 2, Județ: Valcea, Formă: Deal, ID: 249 <br /><b>Variante</b><br />Nume: Dealu Grădiștea, Hartă: Geomil 25000, Limbă: Limba română</description><Point><coordinates>23.802069,44.872214,0</coordinates></Point></Placemark>
<Placemark><name>Dealu Grădiștea</name><description>Nume: Dealu Grădiștea, Tip: grădiște, Nivel: 2, Județ: Valcea, Formă: Deal, ID: 5205 <br /><b>Variante</b><br />Nume: Dealu Grădiștea, Hartă: Geomil 25000, Limbă: Limba română</description><Point><coordinates>24.109090,44.857919,0</coordinates></Point></Placemark>
<Placemark><name>Grădiștea</name><description>Nume: Grădiștea, Tip: grădiște, Nivel: 2, Județ: Valcea, Formă: Localitate, ID: 250, ID Părinte: 249 <br /><b>Variante</b><br />Nume: Grădiștea, Hartă: Geomil 25000, Limbă: Limba română</description><Point><coordinates>23.821320,44.874359,0</coordinates></Point></Placemark>
<Placemark><LineString id="250_249"><tessellate>1</tessellate><coordinates>23.821320,44.874359,0.
23.802069,44.872214,0</coordinates></LineString><Style><LineStyle><width>3</width></LineStyle></Style></Placemark>
<Placemark><name>Valea Grădiștei</name><description>Nume: Valea Grădiștei, Tip: grădiște, Nivel: 2, Județ: Valcea, Formă: Vale, ID: 251, ID Părinte: 249 <br /><b>Variante</b><br />Nume: Valea Grădiștei, Hartă: Geomil 25000, Limbă: Limba română</description><Point><coordinates>23.794027,44.886540,0</coordinates></Point></Placemark>
<Placemark><LineString id="251_249"><tessellate>1</tessellate><coordinates>23.794027,44.886540,0.
23.802069,44.872214,0</coordinates></LineString><Style><LineStyle><width>3</width></LineStyle></Style></Placemark>
<Placemark><name>Valea Grădiștei</name><description>Nume: Valea Grădiștei, Tip: grădiște, Nivel: 2, Județ: Valcea, Formă: Vale, ID: 5203, ID Părinte: 5205 <br /><b>Variante</b><br />Nume: Valea Grădiștei, Hartă: Geomil 25000, Limbă: Limba română</description><Point><coordinates>24.116622,44.846681,0</coordinates></Point></Placemark>
<Placemark><LineString id="5203_5205"><tessellate>1</tessellate><coordinates>24.116622,44.846681,0.
24.109090,44.857919,0</coordinates></LineString><Style><LineStyle><width>3</width></LineStyle></Style></Placemark></Document></kml>