<?xml version="1.0" encoding="UTF-8"?><kml xmlns="http://www.opengis.net/kml/2.2"><Document><Placemark><name>Cerchez</name><description>Nume: Cerchez, Tip: cerchez, Nivel: 3, Județ: Alba, Formă: Înălțime, ID: 9662 <br /><b>Variante</b><br />Nume: Cerchez, Hartă: Geomil 25000, Limbă: Limba română</description><Point><coordinates>23.234606,46.030813,0</coordinates></Point></Placemark>
<Placemark><name>Vârfu Cherchezului</name><description>Nume: Vârfu Cherchezului, Tip: cerchez, Nivel: 3, Județ: Alba, Formă: Înălțime, ID: 10671 <br /><b>Variante</b><br />Nume: Vârfu Cherchezului, Hartă: Geomil 25000, Limbă: Limba română</description><Point><coordinates>23.415258,46.073385,0</coordinates></Point></Placemark>
<Placemark><name>Movila Cerchez</name><description>Nume: Movila Cerchez, Tip: cerchez, Nivel: 3, Județ: Buzau, Formă: Înălțime, ID: 11443 <br /><b>Variante</b><br />Nume: Movila Cerchez, Hartă: Geomil 25000, Limbă: Limba română</description><Point><coordinates>27.197895,45.359844,0</coordinates></Point></Placemark>
<Placemark><name>Valea Cercheză</name><description>Nume: Valea Cercheză, Tip: cercheză, Nivel: 3, Județ: Caras Severin, Formă: Vale, ID: 11229 <br /><b>Variante</b><br />Nume: Valea Cercheză, Hartă: Geomil 25000, Limbă: Limba română</description><Point><coordinates>22.242389,45.127983,0</coordinates></Point></Placemark>
<Placemark><name>Cerchezului</name><description>Nume: Cerchezului, Tip: cerchez, Nivel: 3, Județ: Cluj, Formă: Altele, ID: 2594 <br /><b>Variante</b><br />Nume: Cerchezului, Hartă: Geomil 25000, Limbă: Limba română</description><Point><coordinates>23.278223,46.675112,0</coordinates></Point></Placemark>
<Placemark><name>Cerchezu</name><description>Nume: Cerchezu, Tip: cerchez, Nivel: 3, Județ: Constanta, Formă: Localitate, ID: 2854 <br /><b>Variante</b><br />Nume: Cerchezu, Hartă: Geomil 25000, Limbă: Limba română</description><Point><coordinates>28.099536,43.824594,0</coordinates></Point></Placemark>
<Placemark><name>Movila Cerchezu</name><description>Nume: Movila Cerchezu, Tip: cerchez, Nivel: 3, Județ: Constanta, Formă: Înălțime, ID: 2855 <br /><b>Variante</b><br />Nume: Movila Cerchezu, Hartă: Geomil 25000, Limbă: Limba română</description><Point><coordinates>28.114619,43.829729,0</coordinates></Point></Placemark>
<Placemark><name>Pădurea Cerchezu</name><description>Nume: Pădurea Cerchezu, Tip: cerchez, Nivel: 3, Județ: Constanta, Formă: Pădure, ID: 2849 <br /><b>Variante</b><br />Nume: Pădurea Cerchezu, Hartă: Geomil 25000, Limbă: Limba română</description><Point><coordinates>27.809060,43.974362,0</coordinates></Point></Placemark>
<Placemark><name>Valea Cerchezu</name><description>Nume: Valea Cerchezu, Tip: cerchez, Nivel: 3, Județ: Constanta, Formă: Vale, ID: 2850, ID Părinte: 2849 <br /><b>Variante</b><br />Nume: Valea Cerchezu, Hartă: Geomil 25000, Limbă: Limba română</description><Point><coordinates>27.809046,43.984129,0</coordinates></Point></Placemark>
<Placemark><LineString id="2850_2849"><tessellate>1</tessellate><coordinates>27.809046,43.984129,0.
27.809060,43.974362,0</coordinates></LineString><Style><LineStyle><width>3</width></LineStyle></Style></Placemark>
<Placemark><name>Dealul Cerchez</name><description>Nume: Dealul Cerchez, Tip: cerchez, Nivel: 3, Județ: Galati, Formă: Deal, ID: 9494 <br /><b>Variante</b><br />Nume: Dealul Cerchez, Hartă: PDT, Limbă: Limba română</description><Point><coordinates>27.455175,46.097737,0</coordinates></Point></Placemark>
<Placemark><name>Dealul Cerchez</name><description>Nume: Dealul Cerchez, Tip: cerchez, Nivel: 3, Județ: Galati, Formă: Deal, ID: 11431 <br /><b>Variante</b><br />Nume: Dealul Cerchez, Hartă: Geomil 25000, Limbă: Limba română</description><Point><coordinates>27.524679,46.010290,0</coordinates></Point></Placemark>
<Placemark><name>Dealu Cerchezului</name><description>Nume: Dealu Cerchezului, Tip: cerchez, Nivel: 3, Județ: Gorj, Formă: Deal, ID: 5120 <br /><b>Variante</b><br />Nume: Dealu Cerchezului, Hartă: Geomil 25000, Limbă: Limba română<br />Nume: Dealul Cerchezului, Hartă: PDT, Limbă: Limba română</description><Point><coordinates>23.048044,44.863809,0</coordinates></Point></Placemark>
<Placemark><name>Cerkezen</name><description>Nume: Cerkezen, Tip: cerchezi, Nivel: 2, Județ: Ialomita, Formă: Localitate, ID: 9326 <br /><b>Variante</b><br />Nume: Cerkezen, Hartă: Austriacă, Limbă: Limba română</description><Point><coordinates>27.467467,44.569722,0</coordinates></Point></Placemark>
<Placemark><name>Valea Cerchezoaia</name><description>Nume: Valea Cerchezoaia, Tip: cerchezoaia, Nivel: 3, Județ: Iasi, Formă: Vale, ID: 4868 <br /><b>Variante</b><br />Nume: Valea Cerchezoaia, Hartă: PDT, Limbă: Limba română</description><Point><coordinates>27.475317,47.451135,0</coordinates></Point></Placemark>
<Placemark><name>Lacu Cerchezoaia</name><description>Nume: Lacu Cerchezoaia, Tip: cerchezoaia, Nivel: 3, Județ: Ilfov, Formă: Lac, ID: 9989 <br /><b>Variante</b><br />Nume: Lacu Cerchezoaia, Hartă: PDT, Limbă: Limba română</description><Point><coordinates>25.920830,44.443436,0</coordinates></Point></Placemark>
<Placemark><name>Dealul Cerchezului</name><description>Nume: Dealul Cerchezului, Tip: cerchez, Nivel: 3, Județ: Maramures, Formă: Deal, ID: 4485 <br /><b>Variante</b><br />Nume: Dealul Cerchezului, Hartă: Geomil 25000, Limbă: Limba română</description><Point><coordinates>24.323561,47.633771,0</coordinates></Point></Placemark>
<Placemark><name>Dealul Cerchezului</name><description>Nume: Dealul Cerchezului, Tip: cerchez, Nivel: 3, Județ: Maramures, Formă: Deal, ID: 4533 <br /><b>Variante</b><br />Nume: Dealul Cerchezului, Hartă: Geomil 25000, Limbă: Limba română</description><Point><coordinates>24.387570,47.817059,0</coordinates></Point></Placemark>
<Placemark><name>Pădurea Cerchezului</name><description>Nume: Pădurea Cerchezului, Tip: cerchez, Nivel: 3, Județ: Mehedinti, Formă: Pădure, ID: 438, ID Părinte: 437 <br /><b>Variante</b><br />Nume: Pădurea Cerchezului, Hartă: Geomil 25000, Limbă: Limba română<br />Nume: Pădurea Cerchezilor, Hartă: PDT, Limbă: Limba română</description><Point><coordinates>23.075406,44.546270,0</coordinates></Point></Placemark>
<Placemark><LineString id="438_437"><tessellate>1</tessellate><coordinates>23.075406,44.546270,0.
23.102553,44.549385,0</coordinates></LineString><Style><LineStyle><width>3</width></LineStyle></Style></Placemark>
<Placemark><name>Valea Cerchezului</name><description>Nume: Valea Cerchezului, Tip: cerchez, Nivel: 3, Județ: Mehedinti, Formă: Vale, ID: 437 <br /><b>Variante</b><br />Nume: Valea Cerchezului, Hartă: Geomil 25000, Limbă: Limba română<br />Nume: Valea Cerchezului, Hartă: PDT, Limbă: Limba română</description><Point><coordinates>23.102553,44.549385,0</coordinates></Point></Placemark>
<Placemark><name>Culmea Cerchezilor</name><description>Nume: Culmea Cerchezilor, Tip: cerchezi, Nivel: 2, Județ: Mehedinti, Formă: Înălțime, ID: 3669, ID Părinte: 437 <br /><b>Variante</b><br />Nume: Culmea Cerchezilor, Hartă: PDT, Limbă: Limba română</description><Point><coordinates>23.066324,44.542960,0</coordinates></Point></Placemark>
<Placemark><LineString id="3669_437"><tessellate>1</tessellate><coordinates>23.066324,44.542960,0.
23.102553,44.549385,0</coordinates></LineString><Style><LineStyle><width>3</width></LineStyle></Style></Placemark>
<Placemark><name>Cerchez</name><description>Nume: Cerchez, Tip: cerchez, Nivel: 3, Județ: Tulcea, Formă: Altele, ID: 11082 <br /><b>Variante</b><br />Nume: Cerchez, Hartă: Geomil 25000, Limbă: Limba română</description><Point><coordinates>28.576013,45.031334,0</coordinates></Point></Placemark>
<Placemark><name>Pădurea Cerchez</name><description>Nume: Pădurea Cerchez, Tip: cerchez, Nivel: 3, Județ: Tulcea, Formă: Pădure, ID: 6703 <br /><b>Variante</b><br />Nume: Pădurea Cerchez, Hartă: PDT, Limbă: Limba română</description><Point><coordinates>28.143239,44.986023,0</coordinates></Point></Placemark>
<Placemark><name>Slava Cercheză</name><description>Nume: Slava Cercheză, Tip: cercheză, Nivel: 3, Județ: Tulcea, Formă: Localitate, ID: 9299 <br /><b>Variante</b><br />Nume: Slava Cercheză, Hartă: Geomil 25000, Limbă: Limba română</description><Point><coordinates>28.556610,44.902198,0</coordinates></Point></Placemark>
<Placemark><name>Valea Cercheză</name><description>Nume: Valea Cercheză, Tip: cercheză, Nivel: 3, Județ: Tulcea, Formă: Vale, ID: 11586 <br /><b>Variante</b><br />Nume: Valea Cercheză, Hartă: Geomil 25000, Limbă: Limba română</description><Point><coordinates>28.663062,44.805360,0</coordinates></Point></Placemark>
<Placemark><name>Drumul Cerchezilor</name><description>Nume: Drumul Cerchezilor, Tip: cerchezi, Nivel: 2, Județ: Tulcea, Formă: Drum, ID: 14151 <br /><b>Variante</b><br />Nume: Drumul Cerchezilor, Hartă: Geomil 25000, Limbă: Limba română</description><Point><coordinates>28.576007,44.961363,0</coordinates></Point></Placemark>
<Placemark><name>Pădurea Cerchezului</name><description>Nume: Pădurea Cerchezului, Tip: cerchez, Nivel: 3, Județ: Vaslui, Formă: Pădure, ID: 13575 <br /><b>Variante</b><br />Nume: Pădurea Cerchezului, Hartă: Geomil 25000, Limbă: Limba română</description><Point><coordinates>28.178204,46.736152,0</coordinates></Point></Placemark>
<Placemark><name>La Cotu Cerchezoaia</name><description>Nume: La Cotu Cerchezoaia, Tip: cerchezoaia, Nivel: 3, Județ: Vaslui, Formă: Apă-deal-câmpie, ID: 9611 <br /><b>Variante</b><br />Nume: La Cotu Cerchezoaia, Hartă: Moldova (1892-1898), Limbă: Limba română</description><Point><coordinates>27.580328,46.129690,0</coordinates></Point></Placemark></Document></kml>