<?xml version="1.0" encoding="UTF-8"?><kml xmlns="http://www.opengis.net/kml/2.2"><Document><Placemark><name>Dealu Boului</name><description>Nume: Dealu Boului, Tip: bou, Nivel: 3, Județ: Alba, Formă: Deal, ID: 1923 <br /><b>Variante</b><br />Nume: Dealu Boului, Hartă: Geomil 25000, Limbă: Limba română</description><Point><coordinates>23.574722,46.350781,0</coordinates></Point></Placemark>
<Placemark><name>Dealu Boului</name><description>Nume: Dealu Boului, Tip: bou, Nivel: 3, Județ: Alba, Formă: Deal, ID: 5614 <br /><b>Variante</b><br />Nume: Dealu Boului, Hartă: Geomil 25000, Limbă: Limba română</description><Point><coordinates>22.737959,46.407488,0</coordinates></Point></Placemark>
<Placemark><name>Dealul Boului</name><description>Nume: Dealul Boului, Tip: bou, Nivel: 3, Județ: Alba, Formă: Deal, ID: 5508 <br /><b>Variante</b><br />Nume: Dealul Boului, Hartă: Geomil 25000, Limbă: Limba română</description><Point><coordinates>24.017958,46.192398,0</coordinates></Point></Placemark>
<Placemark><name>Fața Boilor</name><description>Nume: Fața Boilor, Tip: bou, Nivel: 3, Județ: Alba, Formă: Înălțime, ID: 11951 <br /><b>Variante</b><br />Nume: Fața Boilor, Hartă: PDT, Limbă: Limba română</description><Point><coordinates>23.152818,46.128299,0</coordinates></Point></Placemark>
<Placemark><name>Piatra Boului</name><description>Nume: Piatra Boului, Tip: bou, Nivel: 3, Județ: Alba, Formă: Înălțime, ID: 2577 <br /><b>Variante</b><br />Nume: Piatra Boului, Hartă: Geomil 25000, Limbă: Limba română</description><Point><coordinates>23.459903,46.108355,0</coordinates></Point></Placemark>
<Placemark><name>Tăul Boilor</name><description>Nume: Tăul Boilor, Tip: bou, Nivel: 3, Județ: Alba, Formă: Altele, ID: 13992 <br /><b>Variante</b><br />Nume: Tăul Boilor, Hartă: PDT, Limbă: Limba română</description><Point><coordinates>23.963562,46.360829,0</coordinates></Point></Placemark>
<Placemark><name>Valea Boului</name><description>Nume: Valea Boului, Tip: bou, Nivel: 3, Județ: Alba, Formă: Vale, ID: 2587 <br /><b>Variante</b><br />Nume: Valea Boului, Hartă: Geomil 25000, Limbă: Limba română</description><Point><coordinates>23.362935,46.517548,0</coordinates></Point></Placemark>
<Placemark><name>Câmpul Boilor</name><description>Nume: Câmpul Boilor, Tip: bou, Nivel: 3, Județ: Arad, Formă: Câmp, ID: 8034 <br /><b>Variante</b><br />Nume: Câmpul Boilor, Hartă: PDT, Limbă: Limba română</description><Point><coordinates>21.777009,46.477161,0</coordinates></Point></Placemark>
<Placemark><name>Dealu Boilor</name><description>Nume: Dealu Boilor, Tip: bou, Nivel: 3, Județ: Arad, Formă: Deal, ID: 5603 <br /><b>Variante</b><br />Nume: Dealu Boilor, Hartă: Geomil 25000, Limbă: Limba română<br />Nume: Dealul Boilor, Hartă: PDT, Limbă: Limba română</description><Point><coordinates>22.351702,46.283395,0</coordinates></Point></Placemark>
<Placemark><name>Dealul Boilor</name><description>Nume: Dealul Boilor, Tip: bou, Nivel: 3, Județ: Arad, Formă: Deal, ID: 5628 <br /><b>Variante</b><br />Nume: Dealul Boilor, Hartă: PDT, Limbă: Limba română</description><Point><coordinates>21.777438,46.130471,0</coordinates></Point></Placemark>
<Placemark><name>Dealul Boului</name><description>Nume: Dealul Boului, Tip: bou, Nivel: 3, Județ: Arad, Formă: Deal, ID: 10954 <br /><b>Variante</b><br />Nume: Dealul Boului, Hartă: Geomil 25000, Limbă: Limba română</description><Point><coordinates>22.314574,46.470152,0</coordinates></Point></Placemark>
<Placemark><name>Fântâna Boilor</name><description>Nume: Fântâna Boilor, Tip: bou, Nivel: 3, Județ: Arad, Formă: Altele, ID: 4103 <br /><b>Variante</b><br />Nume: Fântâna Boilor, Hartă: PDT, Limbă: Limba română</description><Point><coordinates>21.929406,46.565977,0</coordinates></Point></Placemark>
<Placemark><name>Fântâna Boilor</name><description>Nume: Fântâna Boilor, Tip: bou, Nivel: 3, Județ: Arad, Formă: Altele, ID: 5633 <br /><b>Variante</b><br />Nume: Fântâna Boilor, Hartă: PDT, Limbă: Limba română</description><Point><coordinates>21.602723,46.298087,0</coordinates></Point></Placemark>
<Placemark><name>Fântâna Boilor</name><description>Nume: Fântâna Boilor, Tip: bou, Nivel: 3, Județ: Arad, Formă: Altele, ID: 5634 <br /><b>Variante</b><br />Nume: Fântâna Boilor, Hartă: PDT, Limbă: Limba română</description><Point><coordinates>21.667704,46.304466,0</coordinates></Point></Placemark>
<Placemark><name>Fântâna Boilor</name><description>Nume: Fântâna Boilor, Tip: bou, Nivel: 3, Județ: Arad, Formă: Altele, ID: 6993 <br /><b>Variante</b><br />Nume: Fântâna Boilor, Hartă: Geomil 25000, Limbă: Limba română</description><Point><coordinates>22.093073,46.420129,0</coordinates></Point></Placemark>
<Placemark><name>Fântâna Boilor</name><description>Nume: Fântâna Boilor, Tip: bou, Nivel: 3, Județ: Arad, Formă: Altele, ID: 7591 <br /><b>Variante</b><br />Nume: Fântâna Boilor, Hartă: PDT, Limbă: Limba română</description><Point><coordinates>21.777778,46.612930,0</coordinates></Point></Placemark>
<Placemark><name>Fântâna Boilor</name><description>Nume: Fântâna Boilor, Tip: bou, Nivel: 3, Județ: Arad, Formă: Altele, ID: 7658 <br /><b>Variante</b><br />Nume: Fântâna Boilor, Hartă: PDT, Limbă: Limba română</description><Point><coordinates>22.109849,46.412544,0</coordinates></Point></Placemark>
<Placemark><name>Fântâna Boilor</name><description>Nume: Fântâna Boilor, Tip: bou, Nivel: 3, Județ: Arad, Formă: Altele, ID: 8045 <br /><b>Variante</b><br />Nume: Fântâna Boilor, Hartă: PDT, Limbă: Limba română</description><Point><coordinates>21.813817,46.571741,0</coordinates></Point></Placemark>
<Placemark><name>Fântâna Boilor</name><description>Nume: Fântâna Boilor, Tip: bou, Nivel: 3, Județ: Arad, Formă: Altele, ID: 9421 <br /><b>Variante</b><br />Nume: Fântâna Boilor, Hartă: Geomil 25000, Limbă: Limba română</description><Point><coordinates>21.543630,46.211277,0</coordinates></Point></Placemark>
<Placemark><name>Fântâna Boilor</name><description>Nume: Fântâna Boilor, Tip: bou, Nivel: 3, Județ: Arad, Formă: Altele, ID: 11973 <br /><b>Variante</b><br />Nume: Fântâna Boilor, Hartă: PDT, Limbă: Limba română</description><Point><coordinates>21.635230,46.521814,0</coordinates></Point></Placemark>
<Placemark><name>Fântâna Boilor din Răticaș</name><description>Nume: Fântâna Boilor din Răticaș, Tip: bou, Nivel: 3, Județ: Arad, Formă: Altele, ID: 8031 <br /><b>Variante</b><br />Nume: Fântâna Boilor din Răticaș, Hartă: PDT, Limbă: Limba română</description><Point><coordinates>21.643080,46.509023,0</coordinates></Point></Placemark>
<Placemark><name>Fântâna Boului</name><description>Nume: Fântâna Boului, Tip: bou, Nivel: 3, Județ: Arad, Formă: Altele, ID: 8024 <br /><b>Variante</b><br />Nume: Fântâna Boului, Hartă: PDT, Limbă: Limba română<br />Nume: Fântâna Boului, Hartă: Geomil 25000, Limbă: Limba română</description><Point><coordinates>21.559316,46.553748,0</coordinates></Point></Placemark>
<Placemark><name>Grajdul Boilor Moșiei Armatei</name><description>Nume: Grajdul Boilor Moșiei Armatei, Tip: bou, Nivel: 3, Județ: Arad, Formă: Altele, ID: 4106 <br /><b>Variante</b><br />Nume: Grajdul Boilor Moșiei Armatei, Hartă: PDT, Limbă: Limba română</description><Point><coordinates>21.889457,46.571131,0</coordinates></Point></Placemark>
<Placemark><name>Grindu Boilor</name><description>Nume: Grindu Boilor, Tip: bou, Nivel: 3, Județ: Arad, Formă: Înălțime, ID: 4091 <br /><b>Variante</b><br />Nume: Groapa Boilor, Hartă: PDT, Limbă: Limba română</description><Point><coordinates>22.133860,46.572398,0</coordinates></Point></Placemark>
<Placemark><name>Hotaru Boilor</name><description>Nume: Hotaru Boilor, Tip: bou, Nivel: 3, Județ: Arad, Formă: Altele, ID: 11677 <br /><b>Variante</b><br />Nume: Hotaru Boilor, Hartă: Geomil 25000, Limbă: Limba română</description><Point><coordinates>21.514311,46.401091,0</coordinates></Point></Placemark>
<Placemark><name>Imașu Boilor</name><description>Nume: Imașu Boilor, Tip: bou, Nivel: 3, Județ: Arad, Formă: Altele, ID: 1091 <br /><b>Variante</b><br />Nume: Imașu Boilor, Hartă: Geomil 25000, Limbă: Limba română</description><Point><coordinates>21.663164,46.490557,0</coordinates></Point></Placemark>
<Placemark><name>Ocolu Boilor</name><description>Nume: Ocolu Boilor, Tip: bou, Nivel: 3, Județ: Arad, Formă: Altele, ID: 964 <br /><b>Variante</b><br />Nume: Ocolu Boilor, Hartă: Geomil 25000, Limbă: Limba română</description><Point><coordinates>21.911911,46.309373,0</coordinates></Point></Placemark>
<Placemark><name>Pădurea Boului</name><description>Nume: Pădurea Boului, Tip: bou, Nivel: 3, Județ: Arad, Formă: Pădure, ID: 12519 <br /><b>Variante</b><br />Nume: Pădurea Boului, Hartă: ANCPI, Limbă: Limba română</description><Point><coordinates>22.006448,46.394966,0</coordinates></Point></Placemark>
<Placemark><name>Râtul Boilor</name><description>Nume: Râtul Boilor, Tip: bou, Nivel: 3, Județ: Arad, Formă: Altele, ID: 11674 <br /><b>Variante</b><br />Nume: Râtul Boilor, Hartă: Geomil 25000, Limbă: Limba română</description><Point><coordinates>21.485089,46.463883,0</coordinates></Point></Placemark>
<Placemark><name>Valea Boului</name><description>Nume: Valea Boului, Tip: bou, Nivel: 3, Județ: Arad, Formă: Vale, ID: 9403 <br /><b>Variante</b><br />Nume: Valea Boului, Hartă: Geomil 25000, Limbă: Limba română</description><Point><coordinates>22.480266,46.370534,0</coordinates></Point></Placemark>
<Placemark><name>Vârful Bouriște</name><description>Nume: Vârful Bouriște, Tip: bou, Nivel: 3, Județ: Arad, Formă: Înălțime, ID: 12049 <br /><b>Variante</b><br />Nume: Vârful Bouriște, Hartă: PDT, Limbă: Limba română</description><Point><coordinates>22.295476,46.407514,0</coordinates></Point></Placemark>
<Placemark><name>Dealu Boului</name><description>Nume: Dealu Boului, Tip: bou, Nivel: 3, Județ: Arges, Formă: Deal, ID: 3064 <br /><b>Variante</b><br />Nume: Dealu Boului, Hartă: Geomil 25000, Limbă: Limba română</description><Point><coordinates>24.629424,44.847792,0</coordinates></Point></Placemark>
<Placemark><name>Dealu Boului</name><description>Nume: Dealu Boului, Tip: bou, Nivel: 3, Județ: Arges, Formă: Deal, ID: 3073 <br /><b>Variante</b><br />Nume: Dealu Boului, Hartă: Geomil 25000, Limbă: Limba română</description><Point><coordinates>24.601303,44.940534,0</coordinates></Point></Placemark>
<Placemark><name>Dealul Boului</name><description>Nume: Dealul Boului, Tip: bou, Nivel: 3, Județ: Arges, Formă: Deal, ID: 8362 <br /><b>Variante</b><br />Nume: Dealul Boului, Hartă: PDT, Limbă: Limba română</description><Point><coordinates>25.044253,44.893271,0</coordinates></Point></Placemark>
<Placemark><name>Pârâul Boilor</name><description>Nume: Pârâul Boilor, Tip: bou, Nivel: 3, Județ: Arges, Formă: Vale, ID: 12968 <br /><b>Variante</b><br />Nume: Pârâul Boilor, Hartă: Geomil 25000, Limbă: Limba română</description><Point><coordinates>24.696554,45.485081,0</coordinates></Point></Placemark>
<Placemark><name>Plaiul Boi</name><description>Nume: Plaiul Boi, Tip: bou, Nivel: 3, Județ: Arges, Formă: Înălțime, ID: 5821 <br /><b>Variante</b><br />Nume: Plaiul Boi, Hartă: Austriacă, Limbă: Limba română</description><Point><coordinates>24.832593,44.947392,0</coordinates></Point></Placemark>
<Placemark><name>Valea Boului</name><description>Nume: Valea Boului, Tip: bou, Nivel: 3, Județ: Arges, Formă: Vale, ID: 1510 <br /><b>Variante</b><br />Nume: Valea Boului, Hartă: Geomil 25000, Limbă: Limba română</description><Point><coordinates>25.195855,44.857614,0</coordinates></Point></Placemark>
<Placemark><name>Valea Boului</name><description>Nume: Valea Boului, Tip: bou, Nivel: 3, Județ: Arges, Formă: Vale, ID: 3717 <br /><b>Variante</b><br />Nume: Valea Boului, Hartă: PDT, Limbă: Limba română<br />Nume: Valea Boului, Hartă: Geomil 25000, Limbă: Limba română</description><Point><coordinates>25.188797,44.534254,0</coordinates></Point></Placemark>
<Placemark><name>Valea Boului</name><description>Nume: Valea Boului, Tip: bou, Nivel: 3, Județ: Arges, Formă: Vale, ID: 8341 <br /><b>Variante</b><br />Nume: Valea Boului, Hartă: Geomil 25000, Limbă: Limba română</description><Point><coordinates>24.727400,44.867584,0</coordinates></Point></Placemark>
<Placemark><name>Valea Boului</name><description>Nume: Valea Boului, Tip: bou, Nivel: 3, Județ: Arges, Formă: Vale, ID: 9694 <br /><b>Variante</b><br />Nume: Valea Boului, Hartă: Geomil 25000, Limbă: Limba română</description><Point><coordinates>24.759469,45.075847,0</coordinates></Point></Placemark>
<Placemark><name>Valea Boului</name><description>Nume: Valea Boului, Tip: bou, Nivel: 3, Județ: Arges, Formă: Vale, ID: 11566 <br /><b>Variante</b><br />Nume: Valea Boului, Hartă: Geomil 25000, Limbă: Limba română</description><Point><coordinates>24.868189,45.183350,0</coordinates></Point></Placemark>
<Placemark><name>Valea Șapte Boi</name><description>Nume: Valea Șapte Boi, Tip: bou, Nivel: 3, Județ: Arges, Formă: Vale, ID: 8326 <br /><b>Variante</b><br />Nume: Valea Șapte Boi, Hartă: PDT, Limbă: Limba română</description><Point><coordinates>25.035623,44.450139,0</coordinates></Point></Placemark>
<Placemark><name>Piscul Bourețului</name><description>Nume: Piscul Bourețului, Tip: boureț, Nivel: 4, Județ: Arges, Formă: Înălțime, ID: 5009 <br /><b>Variante</b><br />Nume: Piscul Bourețului, Hartă: Geomil 25000, Limbă: Limba română</description><Point><coordinates>24.850198,45.540108,0</coordinates></Point></Placemark>
<Placemark><name>Lanul Cotul Boilor</name><description>Nume: Lanul Cotul Boilor, Tip: bou, Nivel: 3, Județ: Bacau, Formă: Altele, ID: 7838 <br /><b>Variante</b><br />Nume: Lanul Cotul Boilor, Hartă: Geomil 25000, Limbă: Limba română</description><Point><coordinates>27.061002,46.337791,0</coordinates></Point></Placemark>
<Placemark><name>Pârâul Boului</name><description>Nume: Pârâul Boului, Tip: bou, Nivel: 3, Județ: Bacau, Formă: Vale, ID: 6546 <br /><b>Variante</b><br />Nume: Pârâul Boului, Hartă: PDT, Limbă: Limba română</description><Point><coordinates>26.382346,46.498340,0</coordinates></Point></Placemark>
<Placemark><name>Poiana Boului</name><description>Nume: Poiana Boului, Tip: bou, Nivel: 3, Județ: Bacau, Formă: Poiană, ID: 3831 <br /><b>Variante</b><br />Nume: Poiana Boului, Hartă: Geomil 25000, Limbă: Limba română</description><Point><coordinates>26.669436,46.610940,0</coordinates></Point></Placemark>
<Placemark><name>Poiana Boului</name><description>Nume: Poiana Boului, Tip: bou, Nivel: 3, Județ: Bacau, Formă: Localitate, ID: 12345 <br /><b>Variante</b><br />Nume: Poiana Boului, Hartă: PDT, Limbă: Limba română</description><Point><coordinates>26.662265,46.545739,0</coordinates></Point></Placemark>
<Placemark><name>Pârâul Boureilor</name><description>Nume: Pârâul Boureilor, Tip: bourei, Nivel: 4, Județ: Bacau, Formă: Vale, ID: 5334 <br /><b>Variante</b><br />Nume: Pârâul Boureilor, Hartă: PDT, Limbă: Limba română</description><Point><coordinates>26.848500,46.164963,0</coordinates></Point></Placemark>
<Placemark><name>Curătura Boilor</name><description>Nume: Curătura Boilor, Tip: bou, Nivel: 3, Județ: Bihor, Formă: Altele, ID: 10371 <br /><b>Variante</b><br />Nume: Curătura Boilor, Hartă: PDT, Limbă: Limba română</description><Point><coordinates>22.143112,46.807722,0</coordinates></Point></Placemark>
<Placemark><name>Dealu Boilor</name><description>Nume: Dealu Boilor, Tip: bou, Nivel: 3, Județ: Bihor, Formă: Deal, ID: 1006 <br /><b>Variante</b><br />Nume: Dealu Boilor, Hartă: Geomil 25000, Limbă: Limba română</description><Point><coordinates>22.467019,46.752629,0</coordinates></Point></Placemark>
<Placemark><name>Dealu Boului</name><description>Nume: Dealu Boului, Tip: bou, Nivel: 3, Județ: Bihor, Formă: Deal, ID: 1081 <br /><b>Variante</b><br />Nume: Dealu Boului, Hartă: Geomil 25000, Limbă: Limba română</description><Point><coordinates>22.289073,46.881693,0</coordinates></Point></Placemark>
<Placemark><name>Iazul Boului</name><description>Nume: Iazul Boului, Tip: bou, Nivel: 3, Județ: Bihor, Formă: Apă-deal-câmpie, ID: 12356 <br /><b>Variante</b><br />Nume: Iazul Boului, Hartă: PDT, Limbă: Limba română</description><Point><coordinates>22.321021,46.995353,0</coordinates></Point></Placemark>
<Placemark><name>Piciorul Boului</name><description>Nume: Piciorul Boului, Tip: bou, Nivel: 3, Județ: Bihor, Formă: Înălțime, ID: 4191 <br /><b>Variante</b><br />Nume: Piciorul Boului, Hartă: PDT, Limbă: Limba română</description><Point><coordinates>22.437817,47.189247,0</coordinates></Point></Placemark>
<Placemark><name>Valea Boilor</name><description>Nume: Valea Boilor, Tip: bou, Nivel: 3, Județ: Bihor, Formă: Vale, ID: 9940 <br /><b>Variante</b><br />Nume: Valea Boilor, Hartă: PDT, Limbă: Limba română</description><Point><coordinates>22.052550,46.979420,0</coordinates></Point></Placemark>
<Placemark><name>Valea Boului</name><description>Nume: Valea Boului, Tip: bou, Nivel: 3, Județ: Bihor, Formă: Vale, ID: 994 <br /><b>Variante</b><br />Nume: Valea Boului, Hartă: Geomil 25000, Limbă: Limba română</description><Point><coordinates>22.397135,46.505973,0</coordinates></Point></Placemark>
<Placemark><name>Valea Boului</name><description>Nume: Valea Boului, Tip: bou, Nivel: 3, Județ: Bihor, Formă: Vale, ID: 1083 <br /><b>Variante</b><br />Nume: Valea Boului, Hartă: Geomil 25000, Limbă: Limba română</description><Point><coordinates>22.037269,46.889910,0</coordinates></Point></Placemark>
<Placemark><name>Valea Boului</name><description>Nume: Valea Boului, Tip: bou, Nivel: 3, Județ: Bihor, Formă: Vale, ID: 4132 <br /><b>Variante</b><br />Nume: Valea Boului, Hartă: PDT, Limbă: Limba română</description><Point><coordinates>22.324786,46.784270,0</coordinates></Point></Placemark>
<Placemark><name>Valea Boului</name><description>Nume: Valea Boului, Tip: bou, Nivel: 3, Județ: Bihor, Formă: Vale, ID: 5988 <br /><b>Variante</b><br />Nume: Valea Boului, Hartă: Geomil 25000, Limbă: Limba română</description><Point><coordinates>22.061293,46.839822,0</coordinates></Point></Placemark>
<Placemark><name>Valea Boului</name><description>Nume: Valea Boului, Tip: bou, Nivel: 3, Județ: Bihor, Formă: Vale, ID: 12367 <br /><b>Variante</b><br />Nume: Valea Boului, Hartă: PDT, Limbă: Limba română</description><Point><coordinates>22.033447,46.871231,0</coordinates></Point></Placemark>
<Placemark><name>Valea Boilor</name><description>Nume: Valea Boilor, Tip: bou, Nivel: 3, Județ: Bistrita Nasaud, Formă: Vale, ID: 5491 <br /><b>Variante</b><br />Nume: Valea Boilor, Hartă: Geomil 25000, Limbă: Limba română</description><Point><coordinates>24.279378,46.946150,0</coordinates></Point></Placemark>
<Placemark><name>Valea Boului</name><description>Nume: Valea Boului, Tip: bou, Nivel: 3, Județ: Bistrita Nasaud, Formă: Vale, ID: 9877 <br /><b>Variante</b><br />Nume: Valea Boului, Hartă: Geomil 25000, Limbă: Limba română</description><Point><coordinates>24.821467,47.326327,0</coordinates></Point></Placemark>
<Placemark><name>Vârful Boului</name><description>Nume: Vârful Boului, Tip: bou, Nivel: 3, Județ: Bistrita Nasaud, Formă: Înălțime, ID: 9920 <br /><b>Variante</b><br />Nume: Vârful Boului, Hartă: Geomil 25000, Limbă: Limba română</description><Point><coordinates>24.917191,47.444178,0</coordinates></Point></Placemark>
<Placemark><name>Vârful Boului</name><description>Nume: Vârful Boului, Tip: bou, Nivel: 3, Județ: Bistrita Nasaud, Formă: Înălțime, ID: 11609 <br /><b>Variante</b><br />Nume: Vârful Boului, Hartă: Geomil 25000, Limbă: Limba română</description><Point><coordinates>24.794020,47.051935,0</coordinates></Point></Placemark>
<Placemark><name>Dealul Boului</name><description>Nume: Dealul Boului, Tip: bou, Nivel: 3, Județ: Botosani, Formă: Deal, ID: 2406 <br /><b>Variante</b><br />Nume: Dealul Boului, Hartă: Geomil 25000, Limbă: Limba română</description><Point><coordinates>26.883841,47.982917,0</coordinates></Point></Placemark>
<Placemark><name>Dealul Bourașului</name><description>Nume: Dealul Bourașului, Tip: bou, Nivel: 3, Județ: Botosani, Formă: Deal, ID: 1749 <br /><b>Variante</b><br />Nume: Dealul Bourașului, Hartă: Geomil 25000, Limbă: Limba română</description><Point><coordinates>26.726257,47.516669,0</coordinates></Point></Placemark>
<Placemark><name>Dealul Imașul Boilor</name><description>Nume: Dealul Imașul Boilor, Tip: bou, Nivel: 3, Județ: Botosani, Formă: Deal, ID: 1804 <br /><b>Variante</b><br />Nume: Dealul Imașul Boilor, Hartă: Geomil 25000, Limbă: Limba română<br />Nume: Dealul Imașul Boilor, Hartă: PDT, Limbă: Limba română</description><Point><coordinates>26.440092,47.867842,0</coordinates></Point></Placemark>
<Placemark><name>Iazul Boilor</name><description>Nume: Iazul Boilor, Tip: bou, Nivel: 3, Județ: Botosani, Formă: Apă-deal-câmpie, ID: 2419 <br /><b>Variante</b><br />Nume: Iazul Boilor, Hartă: Geomil 25000, Limbă: Limba română</description><Point><coordinates>26.782880,47.744130,0</coordinates></Point></Placemark>
<Placemark><name>Valea Boul Roșu</name><description>Nume: Valea Boul Roșu, Tip: bou, Nivel: 3, Județ: Botosani, Formă: Vale, ID: 1822 <br /><b>Variante</b><br />Nume: Valea Boul Roșu, Hartă: Geomil 25000, Limbă: Limba română</description><Point><coordinates>27.108812,47.968272,0</coordinates></Point></Placemark>
<Placemark><name>Valea Boul Roșu</name><description>Nume: Valea Boul Roșu, Tip: bou, Nivel: 3, Județ: Botosani, Formă: Vale, ID: 2388 <br /><b>Variante</b><br />Nume: Valea Boul Roșu, Hartă: Geomil 25000, Limbă: Limba română</description><Point><coordinates>27.104902,47.728299,0</coordinates></Point></Placemark>
<Placemark><name>Valea Boului</name><description>Nume: Valea Boului, Tip: bou, Nivel: 3, Județ: Botosani, Formă: Vale, ID: 2407 <br /><b>Variante</b><br />Nume: Valea Boului, Hartă: Geomil 25000, Limbă: Limba română</description><Point><coordinates>26.868986,47.980599,0</coordinates></Point></Placemark>
<Placemark><name>Balta Boi Negri</name><description>Nume: Balta Boi Negri, Tip: bou, Nivel: 3, Județ: Braila, Formă: Apă-deal-câmpie, ID: 3590 <br /><b>Variante</b><br />Nume: Balta Boi Negri, Hartă: PDT, Limbă: Limba română</description><Point><coordinates>27.252788,45.070054,0</coordinates></Point></Placemark>
<Placemark><name>Lacul Boul Roșu</name><description>Nume: Lacul Boul Roșu, Tip: bou, Nivel: 3, Județ: Braila, Formă: Lac, ID: 6718 <br /><b>Variante</b><br />Nume: Lacul Boul Roșu, Hartă: PDT, Limbă: Limba română</description><Point><coordinates>27.873509,44.937601,0</coordinates></Point></Placemark>
<Placemark><name>Movila Bou Negru</name><description>Nume: Movila Bou Negru, Tip: bou, Nivel: 3, Județ: Braila, Formă: Înălțime, ID: 6727 <br /><b>Variante</b><br />Nume: Movila Bou Negru, Hartă: PDT, Limbă: Limba română</description><Point><coordinates>27.561768,45.030306,0</coordinates></Point></Placemark>
<Placemark><name>Movila Boului</name><description>Nume: Movila Boului, Tip: bou, Nivel: 3, Județ: Braila, Formă: Înălțime, ID: 3603 <br /><b>Variante</b><br />Nume: Movila Boului, Hartă: PDT, Limbă: Limba română</description><Point><coordinates>27.446358,45.128843,0</coordinates></Point></Placemark>
<Placemark><name>Movila Boului</name><description>Nume: Movila Boului, Tip: bou, Nivel: 3, Județ: Braila, Formă: Înălțime, ID: 4016 <br /><b>Variante</b><br />Nume: Movila Boului, Hartă: Geomil 25000, Limbă: Limba română<br />Nume: Movila Boului, Hartă: PDT, Limbă: Limba română</description><Point><coordinates>27.286485,44.862046,0</coordinates></Point></Placemark>
<Placemark><name>Valea Boului</name><description>Nume: Valea Boului, Tip: bou, Nivel: 3, Județ: Braila, Formă: Vale, ID: 3583 <br /><b>Variante</b><br />Nume: Valea Boului, Hartă: Geomil 25000, Limbă: Limba română</description><Point><coordinates>27.159627,45.232883,0</coordinates></Point></Placemark>
<Placemark><name>Valea Boului</name><description>Nume: Valea Boului, Tip: bou, Nivel: 3, Județ: Braila, Formă: Vale, ID: 11266 <br /><b>Variante</b><br />Nume: Valea Boului, Hartă: Geomil 25000, Limbă: Limba română</description><Point><coordinates>27.163697,45.201490,0</coordinates></Point></Placemark>
<Placemark><name>Dealul Spinarea Boului</name><description>Nume: Dealul Spinarea Boului, Tip: bou, Nivel: 3, Județ: Brasov, Formă: Deal, ID: 8571 <br /><b>Variante</b><br />Nume: Dealul Spinarea Boului, Hartă: PDT, Limbă: Limba română</description><Point><coordinates>25.496143,45.590019,0</coordinates></Point></Placemark>
<Placemark><name>Pășunatul Boilor</name><description>Nume: Pășunatul Boilor, Tip: bou, Nivel: 3, Județ: Brasov, Formă: Altele, ID: 2667 <br /><b>Variante</b><br />Nume: Pășunatul Boilor, Hartă: Geomil 25000, Limbă: Limba română</description><Point><coordinates>24.820291,45.960833,0</coordinates></Point></Placemark>
<Placemark><name>Piciorul Boului</name><description>Nume: Piciorul Boului, Tip: bou, Nivel: 3, Județ: Brasov, Formă: Înălțime, ID: 2779 <br /><b>Variante</b><br />Nume: Piciorul Boului, Hartă: Geomil 25000, Limbă: Limba română</description><Point><coordinates>25.589165,45.628182,0</coordinates></Point></Placemark>
<Placemark><name>Valea Boului</name><description>Nume: Valea Boului, Tip: bou, Nivel: 3, Județ: Brasov, Formă: Vale, ID: 6817 <br /><b>Variante</b><br />Nume: Valea Boului, Hartă: Geomil 25000, Limbă: Limba română</description><Point><coordinates>25.337651,45.752755,0</coordinates></Point></Placemark>
<Placemark><name>Vârful Boului</name><description>Nume: Vârful Boului, Tip: bou, Nivel: 3, Județ: Brasov, Formă: Înălțime, ID: 6853 <br /><b>Variante</b><br />Nume: Vârful Boului, Hartă: PDT, Limbă: Limba română</description><Point><coordinates>25.698522,45.499932,0</coordinates></Point></Placemark>
<Placemark><name>Dealul Boului</name><description>Nume: Dealul Boului, Tip: bou, Nivel: 3, Județ: Buzau, Formă: Deal, ID: 2805 <br /><b>Variante</b><br />Nume: Dealul Boului, Hartă: Geomil 25000, Limbă: Limba română</description><Point><coordinates>26.440560,45.702972,0</coordinates></Point></Placemark>
<Placemark><name>Movila Boului</name><description>Nume: Movila Boului, Tip: bou, Nivel: 3, Județ: Buzau, Formă: Înălțime, ID: 66 <br /><b>Variante</b><br />Nume: Movila Boului, Hartă: Geomil 25000, Limbă: Limba română<br />Nume: Mov. Boului, Hartă: Austriacă, Limbă: Limba română<br />Nume: Movila Boului, Hartă: PDT, Limbă: Limba română<br />Nume: кург. Боу (mov. Bou), Hartă: Sovietică, Limbă: Limba română</description><Point><coordinates>26.810382,45.010800,0</coordinates></Point></Placemark>
<Placemark><name>Movila Boului</name><description>Nume: Movila Boului, Tip: bou, Nivel: 3, Județ: Buzau, Formă: Înălțime, ID: 3596 <br /><b>Variante</b><br />Nume: Movila Boului, Hartă: Geomil 25000, Limbă: Limba română<br />Nume: Movila Boului, Hartă: PDT, Limbă: Limba română</description><Point><coordinates>26.979101,45.006439,0</coordinates></Point></Placemark>
<Placemark><name>Pârâul Poiana Boului</name><description>Nume: Pârâul Poiana Boului, Tip: bou, Nivel: 3, Județ: Buzau, Formă: Vale, ID: 5235 <br /><b>Variante</b><br />Nume: Pârâul Poiana Boului, Hartă: Geomil 25000, Limbă: Limba română</description><Point><coordinates>26.702937,45.488377,0</coordinates></Point></Placemark>
<Placemark><name>Poiana Boului</name><description>Nume: Poiana Boului, Tip: bou, Nivel: 3, Județ: Buzau, Formă: Poiană, ID: 2810 <br /><b>Variante</b><br />Nume: Poiana Boului, Hartă: Geomil 25000, Limbă: Limba română</description><Point><coordinates>26.486414,45.519563,0</coordinates></Point></Placemark>
<Placemark><name>Valea Boului</name><description>Nume: Valea Boului, Tip: bou, Nivel: 3, Județ: Buzau, Formă: Vale, ID: 2086 <br /><b>Variante</b><br />Nume: Valea Boului, Hartă: Geomil 25000, Limbă: Limba română</description><Point><coordinates>26.918593,45.269819,0</coordinates></Point></Placemark>
<Placemark><name>Valea Boului</name><description>Nume: Valea Boului, Tip: bou, Nivel: 3, Județ: Buzau, Formă: Vale, ID: 3582 <br /><b>Variante</b><br />Nume: Valea Boului, Hartă: Geomil 25000, Limbă: Limba română</description><Point><coordinates>27.030780,45.264141,0</coordinates></Point></Placemark>
<Placemark><name>Valea Boului</name><description>Nume: Valea Boului, Tip: bou, Nivel: 3, Județ: Buzau, Formă: Vale, ID: 8453 <br /><b>Variante</b><br />Nume: Valea Boului, Hartă: PDT, Limbă: Limba română</description><Point><coordinates>26.942598,45.243308,0</coordinates></Point></Placemark>
<Placemark><name>Valea Boului</name><description>Nume: Valea Boului, Tip: bou, Nivel: 3, Județ: Buzau, Formă: Localitate, ID: 8770 <br /><b>Variante</b><br />Nume: Valea Boului, Hartă: PDT, Limbă: Limba română</description><Point><coordinates>26.407034,45.385000,0</coordinates></Point></Placemark>
<Placemark><name>Valea Gura Boului</name><description>Nume: Valea Gura Boului, Tip: bou, Nivel: 3, Județ: Buzau, Formă: Vale, ID: 6121 <br /><b>Variante</b><br />Nume: Valea Gura Boului, Hartă: Geomil 25000, Limbă: Limba română</description><Point><coordinates>26.489504,45.274442,0</coordinates></Point></Placemark>
<Placemark><name>Boul Mare</name><description>Nume: Boul Mare, Tip: bou, Nivel: 3, Județ: Calarasi, Formă: Altele, ID: 3235 <br /><b>Variante</b><br />Nume: Boul Mare, Hartă: PDT, Limbă: Limba română</description><Point><coordinates>27.108926,44.195787,0</coordinates></Point></Placemark>
<Placemark><name>Lacul Boului</name><description>Nume: Lacul Boului, Tip: bou, Nivel: 3, Județ: Calarasi, Formă: Lac, ID: 8465 <br /><b>Variante</b><br />Nume: Lacul Boului, Hartă: PDT, Limbă: Limba română</description><Point><coordinates>27.016099,44.167483,0</coordinates></Point></Placemark>
<Placemark><name>Movila Boului</name><description>Nume: Movila Boului, Tip: bou, Nivel: 3, Județ: Calarasi, Formă: Înălțime, ID: 3466 <br /><b>Variante</b><br />Nume: Movila Boului, Hartă: Geomil 25000, Limbă: Limba română</description><Point><coordinates>27.602303,44.348716,0</coordinates></Point></Placemark>
<Placemark><name>Privalul Boului</name><description>Nume: Privalul Boului, Tip: bou, Nivel: 3, Județ: Calarasi, Formă: Apă-deal-câmpie, ID: 12490 <br /><b>Variante</b><br />Nume: Privalul Boului, Hartă: PDT, Limbă: Limba română</description><Point><coordinates>27.918572,44.280955,0</coordinates></Point></Placemark>
<Placemark><name>Puțul Boilor</name><description>Nume: Puțul Boilor, Tip: bou, Nivel: 3, Județ: Calarasi, Formă: Altele, ID: 12418 <br /><b>Variante</b><br />Nume: Puțul Boilor, Hartă: PDT, Limbă: Limba română</description><Point><coordinates>27.570455,44.462762,0</coordinates></Point></Placemark>
<Placemark><name>Puțul Boilor</name><description>Nume: Puțul Boilor, Tip: bou, Nivel: 3, Județ: Calarasi, Formă: Altele, ID: 12419 <br /><b>Variante</b><br />Nume: Puțul Boilor, Hartă: PDT, Limbă: Limba română</description><Point><coordinates>27.647117,44.424093,0</coordinates></Point></Placemark>
<Placemark><name>Cracul Boului</name><description>Nume: Cracul Boului, Tip: bou, Nivel: 3, Județ: Caras Severin, Formă: Înălțime, ID: 8689 <br /><b>Variante</b><br />Nume: Cracul Boului, Hartă: PDT, Limbă: Limba română</description><Point><coordinates>22.021338,44.713744,0</coordinates></Point></Placemark>
<Placemark><name>Culmea Boului</name><description>Nume: Culmea Boului, Tip: bou, Nivel: 3, Județ: Caras Severin, Formă: Înălțime, ID: 1206 <br /><b>Variante</b><br />Nume: Culmea Boului, Hartă: Geomil 25000, Limbă: Limba română</description><Point><coordinates>22.385636,45.411189,0</coordinates></Point></Placemark>
<Placemark><name>Dealu Boului</name><description>Nume: Dealu Boului, Tip: bou, Nivel: 3, Județ: Caras Severin, Formă: Deal, ID: 858 <br /><b>Variante</b><br />Nume: Dealu Boului, Hartă: Geomil 25000, Limbă: Limba română<br />Nume: Dealul Boului, Hartă: PDT, Limbă: Limba română</description><Point><coordinates>22.302127,45.421143,0</coordinates></Point></Placemark>
<Placemark><name>Dealul Boilor</name><description>Nume: Dealul Boilor, Tip: bou, Nivel: 3, Județ: Caras Severin, Formă: Deal, ID: 11492 <br /><b>Variante</b><br />Nume: Dealul Boilor, Hartă: ANCPI, Limbă: Limba română</description><Point><coordinates>21.397564,44.785490,0</coordinates></Point></Placemark>
<Placemark><name>Poiana Boului</name><description>Nume: Poiana Boului, Tip: bou, Nivel: 3, Județ: Caras Severin, Formă: Poiană, ID: 6082 <br /><b>Variante</b><br />Nume: Poiana Boului, Hartă: Geomil 25000, Limbă: Limba română</description><Point><coordinates>22.372380,45.639587,0</coordinates></Point></Placemark>
<Placemark><name>Șesu Boilor</name><description>Nume: Șesu Boilor, Tip: bou, Nivel: 3, Județ: Caras Severin, Formă: Câmp, ID: 5720 <br /><b>Variante</b><br />Nume: Șesu Boilor, Hartă: Geomil 25000, Limbă: Limba română<br />Nume: Șestul Boilor, Hartă: PDT, Limbă: Limba română</description><Point><coordinates>22.094284,44.964336,0</coordinates></Point></Placemark>
<Placemark><name>Tâlva Boului</name><description>Nume: Tâlva Boului, Tip: bou, Nivel: 3, Județ: Caras Severin, Formă: Înălțime, ID: 8688 <br /><b>Variante</b><br />Nume: Tâlva Boului, Hartă: PDT, Limbă: Limba română</description><Point><coordinates>22.195519,44.787998,0</coordinates></Point></Placemark>
<Placemark><name>Valea Boului</name><description>Nume: Valea Boului, Tip: bou, Nivel: 3, Județ: Caras Severin, Formă: Vale, ID: 1208 <br /><b>Variante</b><br />Nume: Valea Boului, Hartă: Geomil 25000, Limbă: Limba română</description><Point><coordinates>22.276030,45.367413,0</coordinates></Point></Placemark>
<Placemark><name>Valea Boului</name><description>Nume: Valea Boului, Tip: bou, Nivel: 3, Județ: Caras Severin, Formă: Localitate, ID: 8660 <br /><b>Variante</b><br />Nume: Valea Boului, Hartă: PDT, Limbă: Limba română</description><Point><coordinates>22.160411,45.430177,0</coordinates></Point></Placemark>
<Placemark><name>Colțul Boilor</name><description>Nume: Colțul Boilor, Tip: bou, Nivel: 3, Județ: Cluj, Formă: Altele, ID: 8141 <br /><b>Variante</b><br />Nume: Colțul Boilor, Hartă: PDT, Limbă: Limba română</description><Point><coordinates>23.575375,46.513498,0</coordinates></Point></Placemark>
<Placemark><name>Continentul Boilor</name><description>Nume: Continentul Boilor, Tip: bou, Nivel: 3, Județ: Cluj, Formă: Înălțime, ID: 10417 <br /><b>Variante</b><br />Nume: Continentul Boilor, Hartă: PDT, Limbă: Limba română<br />Nume: Continitu boiloru, Hartă: Transilvania (1869-1870), Limbă: Limba română</description><Point><coordinates>23.926467,46.833793,0</coordinates></Point></Placemark>
<Placemark><name>Dealu Boului</name><description>Nume: Dealu Boului, Tip: bou, Nivel: 3, Județ: Cluj, Formă: Deal, ID: 11937 <br /><b>Variante</b><br />Nume: Dealu Boului, Hartă: Geomil 25000, Limbă: Limba română</description><Point><coordinates>23.456042,46.647977,0</coordinates></Point></Placemark>
<Placemark><name>Dealu Boului</name><description>Nume: Dealu Boului, Tip: bou, Nivel: 3, Județ: Cluj, Formă: Deal, ID: 12545 <br /><b>Variante</b><br />Nume: Dealu Boului, Hartă: Geomil 25000, Limbă: Limba română</description><Point><coordinates>23.056585,46.629109,0</coordinates></Point></Placemark>
<Placemark><name>Izlazul Boilor</name><description>Nume: Izlazul Boilor, Tip: bou, Nivel: 3, Județ: Constanta, Formă: Altele, ID: 11624 <br /><b>Variante</b><br />Nume: Izlazul Boilor, Hartă: Geomil 25000, Limbă: Limba română</description><Point><coordinates>28.382665,44.549125,0</coordinates></Point></Placemark>
<Placemark><name>Valea Boului</name><description>Nume: Valea Boului, Tip: bou, Nivel: 3, Județ: Covasna, Formă: Vale, ID: 11453 <br /><b>Variante</b><br />Nume: Valea Boului, Hartă: Geomil 25000, Limbă: Limba română</description><Point><coordinates>26.085975,45.663405,0</coordinates></Point></Placemark>
<Placemark><name>Plaiul Râpa Boului</name><description>Nume: Plaiul Râpa Boului, Tip: bou, Nivel: 3, Județ: Dambovita, Formă: Înălțime, ID: 8826 <br /><b>Variante</b><br />Nume: Plaiul Râpa Boului, Hartă: PDT, Limbă: Limba română</description><Point><coordinates>25.261979,45.127590,0</coordinates></Point></Placemark>
<Placemark><name>Valea Boului</name><description>Nume: Valea Boului, Tip: bou, Nivel: 3, Județ: Dambovita, Formă: Vale, ID: 10136 <br /><b>Variante</b><br />Nume: Valea Boului, Hartă: PDT, Limbă: Limba română</description><Point><coordinates>25.208234,44.859676,0</coordinates></Point></Placemark>
<Placemark><name>Valea Boului</name><description>Nume: Valea Boului, Tip: bou, Nivel: 3, Județ: Dambovita, Formă: Vale, ID: 11700 <br /><b>Variante</b><br />Nume: Valea Boului, Hartă: Geomil 25000, Limbă: Limba română</description><Point><coordinates>25.355576,44.756688,0</coordinates></Point></Placemark>
<Placemark><name>Fântâna Boilor</name><description>Nume: Fântâna Boilor, Tip: bou, Nivel: 3, Județ: Dolj, Formă: Altele, ID: 10346 <br /><b>Variante</b><br />Nume: Fântâna Boilor, Hartă: PDT, Limbă: Limba română</description><Point><coordinates>23.407447,43.943086,0</coordinates></Point></Placemark>
<Placemark><name>Fântâna Boului</name><description>Nume: Fântâna Boului, Tip: bou, Nivel: 3, Județ: Dolj, Formă: Altele, ID: 8481 <br /><b>Variante</b><br />Nume: Fântâna Boului, Hartă: PDT, Limbă: Limba română</description><Point><coordinates>23.304451,44.037148,0</coordinates></Point></Placemark>
<Placemark><name>Lacul Boului</name><description>Nume: Lacul Boului, Tip: bou, Nivel: 3, Județ: Dolj, Formă: Lac, ID: 7705 <br /><b>Variante</b><br />Nume: Lacul Boului, Hartă: PDT, Limbă: Limba română</description><Point><coordinates>23.706234,44.133022,0</coordinates></Point></Placemark>
<Placemark><name>Măgura Boilor</name><description>Nume: Măgura Boilor, Tip: bou, Nivel: 3, Județ: Dolj, Formă: Înălțime, ID: 1304 <br /><b>Variante</b><br />Nume: Măgura Boilor, Hartă: Geomil 25000, Limbă: Limba română</description><Point><coordinates>23.649347,43.905729,0</coordinates></Point></Placemark>
<Placemark><name>Movila Boului</name><description>Nume: Movila Boului, Tip: bou, Nivel: 3, Județ: Dolj, Formă: Înălțime, ID: 10344 <br /><b>Variante</b><br />Nume: Movila Boului, Hartă: PDT, Limbă: Limba română</description><Point><coordinates>23.457011,44.048599,0</coordinates></Point></Placemark>
<Placemark><name>Pădurea Boilor</name><description>Nume: Pădurea Boilor, Tip: bou, Nivel: 3, Județ: Dolj, Formă: Pădure, ID: 11366 <br /><b>Variante</b><br />Nume: Pădurea Boilor, Hartă: Geomil 25000, Limbă: Limba română</description><Point><coordinates>23.490922,44.476692,0</coordinates></Point></Placemark>
<Placemark><name>Valea Boilor</name><description>Nume: Valea Boilor, Tip: bou, Nivel: 3, Județ: Dolj, Formă: Vale, ID: 12297 <br /><b>Variante</b><br />Nume: Valea Boilor, Hartă: PDT, Limbă: Limba română<br />Nume: Valea Boilor, Hartă: Geomil 25000, Limbă: Limba română</description><Point><coordinates>23.583081,44.349306,0</coordinates></Point></Placemark>
<Placemark><name>Grindul Boilor</name><description>Nume: Grindul Boilor, Tip: bou, Nivel: 3, Județ: Galati, Formă: Apă-deal-câmpie, ID: 11283 <br /><b>Variante</b><br />Nume: Grindul Boilor, Hartă: Geomil 25000, Limbă: Limba română</description><Point><coordinates>28.173775,45.451944,0</coordinates></Point></Placemark>
<Placemark><name>La Boul Negru</name><description>Nume: La Boul Negru, Tip: bou, Nivel: 3, Județ: Galati, Formă: Altele, ID: 11440 <br /><b>Variante</b><br />Nume: La Boul Negru, Hartă: Geomil 25000, Limbă: Limba română</description><Point><coordinates>27.921563,45.647066,0</coordinates></Point></Placemark>
<Placemark><name>Valea Boului</name><description>Nume: Valea Boului, Tip: bou, Nivel: 3, Județ: Galati, Formă: Vale, ID: 11430 <br /><b>Variante</b><br />Nume: Valea Boului, Hartă: Geomil 25000, Limbă: Limba română</description><Point><coordinates>27.346666,46.051324,0</coordinates></Point></Placemark>
<Placemark><name>Culmea Boului</name><description>Nume: Culmea Boului, Tip: bou, Nivel: 3, Județ: Gorj, Formă: Înălțime, ID: 2921 <br /><b>Variante</b><br />Nume: Culmea Boului, Hartă: Geomil 25000, Limbă: Limba română</description><Point><coordinates>23.487612,45.233581,0</coordinates></Point></Placemark>
<Placemark><name>Dealul Boului</name><description>Nume: Dealul Boului, Tip: bou, Nivel: 3, Județ: Gorj, Formă: Deal, ID: 9771 <br /><b>Variante</b><br />Nume: Dealul Boului, Hartă: PDT, Limbă: Limba română</description><Point><coordinates>22.948090,44.841830,0</coordinates></Point></Placemark>
<Placemark><name>Dealul Boului</name><description>Nume: Dealul Boului, Tip: bou, Nivel: 3, Județ: Gorj, Formă: Deal, ID: 14327 <br /><b>Variante</b><br />Nume: Dealul Boului, Hartă: ANCPI, Limbă: Limba română</description><Point><coordinates>23.718977,44.780506,0</coordinates></Point></Placemark>
<Placemark><name>Pârâul Boului</name><description>Nume: Pârâul Boului, Tip: bou, Nivel: 3, Județ: Gorj, Formă: Vale, ID: 12676 <br /><b>Variante</b><br />Nume: Pârâul Boului, Hartă: Geomil 25000, Limbă: Limba română</description><Point><coordinates>23.260170,45.273451,0</coordinates></Point></Placemark>
<Placemark><name>Poiana Boului</name><description>Nume: Poiana Boului, Tip: bou, Nivel: 3, Județ: Gorj, Formă: Poiană, ID: 844 <br /><b>Variante</b><br />Nume: Poiana Boului, Hartă: Geomil 25000, Limbă: Limba română</description><Point><coordinates>22.891355,45.208485,0</coordinates></Point></Placemark>
<Placemark><name>Urma boului</name><description>Nume: Urma boului, Tip: bou, Nivel: 3, Județ: Gorj, Formă: Altele, ID: 12101 <br /><b>Variante</b><br />Nume: Urma boului, Hartă: Austriacă, Limbă: Limba română</description><Point><coordinates>23.474103,45.225983,0</coordinates></Point></Placemark>
<Placemark><name>Valea Boului</name><description>Nume: Valea Boului, Tip: bou, Nivel: 3, Județ: Gorj, Formă: Vale, ID: 230 <br /><b>Variante</b><br />Nume: Valea Boului, Hartă: Geomil 25000, Limbă: Limba română</description><Point><coordinates>23.028108,45.108173,0</coordinates></Point></Placemark>
<Placemark><name>Valea Boului</name><description>Nume: Valea Boului, Tip: bou, Nivel: 3, Județ: Gorj, Formă: Vale, ID: 5161 <br /><b>Variante</b><br />Nume: Valea Boului, Hartă: Geomil 25000, Limbă: Limba română</description><Point><coordinates>23.678544,44.603565,0</coordinates></Point></Placemark>
<Placemark><name>Valea Boului</name><description>Nume: Valea Boului, Tip: bou, Nivel: 3, Județ: Gorj, Formă: Vale, ID: 8279 <br /><b>Variante</b><br />Nume: Valea Boului, Hartă: Geomil 25000, Limbă: Limba română</description><Point><coordinates>23.629539,44.604234,0</coordinates></Point></Placemark>
<Placemark><name>Culmea Boului</name><description>Nume: Culmea Boului, Tip: bou, Nivel: 3, Județ: Harghita, Formă: Înălțime, ID: 5419 <br /><b>Variante</b><br />Nume: Culmea Boului, Hartă: Geomil 25000, Limbă: Limba română</description><Point><coordinates>25.364579,46.995686,0</coordinates></Point></Placemark>
<Placemark><name>Dealul Boului</name><description>Nume: Dealul Boului, Tip: bou, Nivel: 3, Județ: Harghita, Formă: Deal, ID: 13404 <br /><b>Variante</b><br />Nume: Dealul Boului, Hartă: Imperiul Habsburgic (1887), Limbă: Limba română</description><Point><coordinates>25.307084,47.034190,0</coordinates></Point></Placemark>
<Placemark><name>Muntele Smida Boului</name><description>Nume: Muntele Smida Boului, Tip: bou, Nivel: 3, Județ: Harghita, Formă: Înălțime, ID: 13283 <br /><b>Variante</b><br />Nume: Muntele Smida Boului, Hartă: Geomil 25000, Limbă: Limba română</description><Point><coordinates>25.531674,47.085891,0</coordinates></Point></Placemark>
<Placemark><name>Vârful Smida Boului</name><description>Nume: Vârful Smida Boului, Tip: bou, Nivel: 3, Județ: Harghita, Formă: Înălțime, ID: 2077 <br /><b>Variante</b><br />Nume: Vârful Smida Boului, Hartă: Geomil 25000, Limbă: Limba română</description><Point><coordinates>25.521113,47.075571,0</coordinates></Point></Placemark>
<Placemark><name>Câmpu Boului</name><description>Nume: Câmpu Boului, Tip: bou, Nivel: 3, Județ: Hunedoara, Formă: Câmp, ID: 9845 <br /><b>Variante</b><br />Nume: Câmpu Boului, Hartă: Geomil 25000, Limbă: Limba română</description><Point><coordinates>23.214696,45.803511,0</coordinates></Point></Placemark>
<Placemark><name>Dealul Boului</name><description>Nume: Dealul Boului, Tip: bou, Nivel: 3, Județ: Hunedoara, Formă: Deal, ID: 5564 <br /><b>Variante</b><br />Nume: Dealul Boului, Hartă: PDT, Limbă: Limba română</description><Point><coordinates>22.804838,45.515237,0</coordinates></Point></Placemark>
<Placemark><name>Dealul Boului</name><description>Nume: Dealul Boului, Tip: bou, Nivel: 3, Județ: Hunedoara, Formă: Deal, ID: 9400 <br /><b>Variante</b><br />Nume: Dealul Boului, Hartă: PDT, Limbă: Limba română</description><Point><coordinates>22.970702,46.156291,0</coordinates></Point></Placemark>
<Placemark><name>Dealul Boului</name><description>Nume: Dealul Boului, Tip: bou, Nivel: 3, Județ: Hunedoara, Formă: Deal, ID: 11329 <br /><b>Variante</b><br />Nume: Dealul Boului, Hartă: Geomil 25000, Limbă: Limba română</description><Point><coordinates>23.003645,46.131277,0</coordinates></Point></Placemark>
<Placemark><name>Locu Boilor</name><description>Nume: Locu Boilor, Tip: bou, Nivel: 3, Județ: Hunedoara, Formă: Altele, ID: 9849 <br /><b>Variante</b><br />Nume: Locu Boilor, Hartă: PDT, Limbă: Limba română</description><Point><coordinates>23.027076,45.857374,0</coordinates></Point></Placemark>
<Placemark><name>Muncelul Boului</name><description>Nume: Muncelul Boului, Tip: bou, Nivel: 3, Județ: Hunedoara, Formă: Înălțime, ID: 1130 <br /><b>Variante</b><br />Nume: Muncelul Boului, Hartă: Geomil 25000, Limbă: Limba română</description><Point><coordinates>23.379225,45.508529,0</coordinates></Point></Placemark>
<Placemark><name>Pârâu Boului</name><description>Nume: Pârâu Boului, Tip: bou, Nivel: 3, Județ: Hunedoara, Formă: Vale, ID: 4289 <br /><b>Variante</b><br />Nume: Pârâu Boului, Hartă: Geomil 25000, Limbă: Limba română</description><Point><coordinates>22.690117,45.810537,0</coordinates></Point></Placemark>
<Placemark><name>Pojana Boilor</name><description>Nume: Pojana Boilor, Tip: bou, Nivel: 3, Județ: Hunedoara, Formă: Poiană, ID: 14361 <br /><b>Variante</b><br />Nume: Pojana Boilor, Hartă: Transilvania (1769-1773), Limbă: Limba română</description><Point><coordinates>23.020086,45.437909,0</coordinates></Point></Placemark>
<Placemark><name>Valea Boului</name><description>Nume: Valea Boului, Tip: bou, Nivel: 3, Județ: Hunedoara, Formă: Vale, ID: 9007 <br /><b>Variante</b><br />Nume: Valea Boului, Hartă: PDT, Limbă: Limba română</description><Point><coordinates>22.573904,46.013342,0</coordinates></Point></Placemark>
<Placemark><name>Valea Boului</name><description>Nume: Valea Boului, Tip: bou, Nivel: 3, Județ: Hunedoara, Formă: Vale, ID: 10799 <br /><b>Variante</b><br />Nume: Valea Boului, Hartă: Imperiul Habsburgic (1887), Limbă: Limba română</description><Point><coordinates>22.721243,45.599230,0</coordinates></Point></Placemark>
<Placemark><name>Vârfu Boului</name><description>Nume: Vârfu Boului, Tip: bou, Nivel: 3, Județ: Hunedoara, Formă: Înălțime, ID: 6222 <br /><b>Variante</b><br />Nume: Vârfu Boului, Hartă: Geomil 25000, Limbă: Limba română</description><Point><coordinates>22.525965,46.035855,0</coordinates></Point></Placemark>
<Placemark><name>Vârful Boilor</name><description>Nume: Vârful Boilor, Tip: bou, Nivel: 3, Județ: Hunedoara, Formă: Înălțime, ID: 9399 <br /><b>Variante</b><br />Nume: Vârful Boilor, Hartă: PDT, Limbă: Limba română</description><Point><coordinates>22.996572,46.070391,0</coordinates></Point></Placemark>
<Placemark><name>Coasta Boilor</name><description>Nume: Coasta Boilor, Tip: bou, Nivel: 3, Județ: Iasi, Formă: Înălțime, ID: 6613 <br /><b>Variante</b><br />Nume: Coasta Boilor, Hartă: Geomil 25000, Limbă: Limba română</description><Point><coordinates>27.072086,47.246404,0</coordinates></Point></Placemark>
<Placemark><name>Cotu Boilor</name><description>Nume: Cotu Boilor, Tip: bou, Nivel: 3, Județ: Iasi, Formă: Apă-deal-câmpie, ID: 12388 <br /><b>Variante</b><br />Nume: Cotu Boilor, Hartă: Moldova (1892-1898), Limbă: Limba română</description><Point><coordinates>27.628888,47.307101,0</coordinates></Point></Placemark>
<Placemark><name>Dealul Boul Bătrân</name><description>Nume: Dealul Boul Bătrân, Tip: bou, Nivel: 3, Județ: Iasi, Formă: Deal, ID: 9620 <br /><b>Variante</b><br />Nume: Dealul Boul Bătrân, Hartă: Geomil 25000, Limbă: Limba română</description><Point><coordinates>26.950590,47.103478,0</coordinates></Point></Placemark>
<Placemark><name>Dealul Boului</name><description>Nume: Dealul Boului, Tip: bou, Nivel: 3, Județ: Iasi, Formă: Deal, ID: 1737 <br /><b>Variante</b><br />Nume: Dealul Boului, Hartă: Geomil 25000, Limbă: Limba română</description><Point><coordinates>27.010019,47.428996,0</coordinates></Point></Placemark>
<Placemark><name>Suhatul Boilor</name><description>Nume: Suhatul Boilor, Tip: bou, Nivel: 3, Județ: Iasi, Formă: Altele, ID: 1662 <br /><b>Variante</b><br />Nume: Suhatul Boilor, Hartă: Geomil 25000, Limbă: Limba română</description><Point><coordinates>27.494439,46.885804,0</coordinates></Point></Placemark>
<Placemark><name>Valea Boului</name><description>Nume: Valea Boului, Tip: bou, Nivel: 3, Județ: Iasi, Formă: Vale, ID: 2439 <br /><b>Variante</b><br />Nume: Valea Boului, Hartă: Geomil 25000, Limbă: Limba română</description><Point><coordinates>27.149511,47.387366,0</coordinates></Point></Placemark>
<Placemark><name>Valea Boului</name><description>Nume: Valea Boului, Tip: bou, Nivel: 3, Județ: Ilfov, Formă: Vale, ID: 41 <br /><b>Variante</b><br />Nume: Valea Boului, Hartă: PDT, Limbă: Limba română</description><Point><coordinates>26.156111,44.738360,0</coordinates></Point></Placemark>
<Placemark><name>D. Boului</name><description>Nume: D. Boului, Tip: bou, Nivel: 3, Județ: Maramures, Formă: Deal, ID: 10268 <br /><b>Variante</b><br />Nume: D. Boului, Hartă: Ungară 1869, Limbă: Limba română</description><Point><coordinates>24.566285,47.694717,0</coordinates></Point></Placemark>
<Placemark><name>Fața Boului</name><description>Nume: Fața Boului, Tip: bou, Nivel: 3, Județ: Maramures, Formă: Înălțime, ID: 4536 <br /><b>Variante</b><br />Nume: Fața Boului, Hartă: Geomil 25000, Limbă: Limba română</description><Point><coordinates>24.865012,47.726527,0</coordinates></Point></Placemark>
<Placemark><name>Valea Boului</name><description>Nume: Valea Boului, Tip: bou, Nivel: 3, Județ: Maramures, Formă: Vale, ID: 4433 <br /><b>Variante</b><br />Nume: Valea Boului, Hartă: Geomil 25000, Limbă: Limba română</description><Point><coordinates>23.555403,47.382649,0</coordinates></Point></Placemark>
<Placemark><name>Valea Boului</name><description>Nume: Valea Boului, Tip: bou, Nivel: 3, Județ: Maramures, Formă: Vale, ID: 4440 <br /><b>Variante</b><br />Nume: Valea Boului, Hartă: Geomil 25000, Limbă: Limba română</description><Point><coordinates>24.022487,47.420258,0</coordinates></Point></Placemark>
<Placemark><name>Coasta Boului</name><description>Nume: Coasta Boului, Tip: bou, Nivel: 3, Județ: Mures, Formă: Înălțime, ID: 11613 <br /><b>Variante</b><br />Nume: Coasta Boului, Hartă: Geomil 25000, Limbă: Limba română</description><Point><coordinates>24.862854,46.963163,0</coordinates></Point></Placemark>
<Placemark><name>Tăul Boilor</name><description>Nume: Tăul Boilor, Tip: bou, Nivel: 3, Județ: Mures, Formă: Altele, ID: 11759 <br /><b>Variante</b><br />Nume: Tăul Boilor, Hartă: Geomil 25000, Limbă: Limba română</description><Point><coordinates>24.265606,46.669652,0</coordinates></Point></Placemark>
<Placemark><name>Unghiul Boului</name><description>Nume: Unghiul Boului, Tip: bou, Nivel: 3, Județ: Mures, Formă: Altele, ID: 5523 <br /><b>Variante</b><br />Nume: Unghiul Boului, Hartă: PDT, Limbă: Limba română</description><Point><coordinates>24.754063,46.193752,0</coordinates></Point></Placemark>
<Placemark><name>Bâtca Boului</name><description>Nume: Bâtca Boului, Tip: bou, Nivel: 3, Județ: Neamt, Formă: Înălțime, ID: 6455 <br /><b>Variante</b><br />Nume: Bâtca Boului, Hartă: PDT, Limbă: Limba română</description><Point><coordinates>25.843264,47.207416,0</coordinates></Point></Placemark>
<Placemark><name>Cotul Boului</name><description>Nume: Cotul Boului, Tip: bou, Nivel: 3, Județ: Neamt, Formă: Apă-deal-câmpie, ID: 2250 <br /><b>Variante</b><br />Nume: Cotul Boului, Hartă: Geomil 25000, Limbă: Limba română</description><Point><coordinates>26.433546,47.290575,0</coordinates></Point></Placemark>
<Placemark><name>Dealul Malul Boului</name><description>Nume: Dealul Malul Boului, Tip: bou, Nivel: 3, Județ: Neamt, Formă: Deal, ID: 3872 <br /><b>Variante</b><br />Nume: Dealul Malul Boului, Hartă: Geomil 25000, Limbă: Limba română</description><Point><coordinates>26.615387,47.095272,0</coordinates></Point></Placemark>
<Placemark><name>Pârâul Boului</name><description>Nume: Pârâul Boului, Tip: bou, Nivel: 3, Județ: Neamt, Formă: Vale, ID: 6465 <br /><b>Variante</b><br />Nume: Pârâul Boului, Hartă: PDT, Limbă: Limba română</description><Point><coordinates>25.987782,47.106459,0</coordinates></Point></Placemark>
<Placemark><name>Piatra Boilor</name><description>Nume: Piatra Boilor, Tip: bou, Nivel: 3, Județ: Neamt, Formă: Înălțime, ID: 4548 <br /><b>Variante</b><br />Nume: Piatra Boilor, Hartă: Geomil 25000, Limbă: Limba română</description><Point><coordinates>25.830884,46.813281,0</coordinates></Point></Placemark>
<Placemark><name>Piciorul Arșița Boilor</name><description>Nume: Piciorul Arșița Boilor, Tip: bou, Nivel: 3, Județ: Neamt, Formă: Înălțime, ID: 11653 <br /><b>Variante</b><br />Nume: Piciorul Arșița Boilor, Hartă: Geomil 25000, Limbă: Limba română</description><Point><coordinates>26.016019,47.180954,0</coordinates></Point></Placemark>
<Placemark><name>Poiana Ceairul Boilor</name><description>Nume: Poiana Ceairul Boilor, Tip: bou, Nivel: 3, Județ: Neamt, Formă: Poiană, ID: 668 <br /><b>Variante</b><br />Nume: Poiana Ceairul Boilor, Hartă: Geomil 25000, Limbă: Limba română</description><Point><coordinates>26.240070,47.183679,0</coordinates></Point></Placemark>
<Placemark><name>mâg. Boului</name><description>Nume: mâg. Boului, Tip: bou, Nivel: 3, Județ: Olt, Formă: Înălțime, ID: 5804 <br /><b>Variante</b><br />Nume: mâg. Boului, Hartă: Austriacă, Limbă: Limba română</description><Point><coordinates>24.543006,44.246829,0</coordinates></Point></Placemark>
<Placemark><name>Măgura Boului</name><description>Nume: Măgura Boului, Tip: bou, Nivel: 3, Județ: Olt, Formă: Înălțime, ID: 2984 <br /><b>Variante</b><br />Nume: Măgura Boului, Hartă: Geomil 25000, Limbă: Limba română</description><Point><coordinates>24.547761,44.222183,0</coordinates></Point></Placemark>
<Placemark><name>Măgura Boului</name><description>Nume: Măgura Boului, Tip: bou, Nivel: 3, Județ: Olt, Formă: Înălțime, ID: 3792 <br /><b>Variante</b><br />Nume: Măgura Boului, Hartă: Geomil 25000, Limbă: Limba română</description><Point><coordinates>24.254305,43.773688,0</coordinates></Point></Placemark>
<Placemark><name>Pădurea Boului</name><description>Nume: Pădurea Boului, Tip: bou, Nivel: 3, Județ: Olt, Formă: Pădure, ID: 12533 <br /><b>Variante</b><br />Nume: Pădurea Boului, Hartă: PDT, Limbă: Limba română</description><Point><coordinates>24.373176,44.380786,0</coordinates></Point></Placemark>
<Placemark><name>Valea Boului</name><description>Nume: Valea Boului, Tip: bou, Nivel: 3, Județ: Olt, Formă: Vale, ID: 2966 <br /><b>Variante</b><br />Nume: Valea Boului, Hartă: Geomil 25000, Limbă: Limba română</description><Point><coordinates>23.971601,44.448613,0</coordinates></Point></Placemark>
<Placemark><name>La Boul Negru</name><description>Nume: La Boul Negru, Tip: bou, Nivel: 3, Județ: Prahova, Formă: Altele, ID: 1730 <br /><b>Variante</b><br />Nume: La Boul Negru, Hartă: Geomil 25000, Limbă: Limba română<br />Nume: La Boul Negru, Hartă: PDT, Limbă: Limba română</description><Point><coordinates>27.130595,46.111358,0</coordinates></Point></Placemark>
<Placemark><name>Valea Boulețului</name><description>Nume: Valea Boulețului, Tip: bou, Nivel: 3, Județ: Prahova, Formă: Vale, ID: 1573 <br /><b>Variante</b><br />Nume: Valea Boulețului, Hartă: Geomil 25000, Limbă: Limba română</description><Point><coordinates>25.952094,45.339209,0</coordinates></Point></Placemark>
<Placemark><name>Valea Boului</name><description>Nume: Valea Boului, Tip: bou, Nivel: 3, Județ: Prahova, Formă: Localitate, ID: 29 <br /><b>Variante</b><br />Nume: Valea Boului, Hartă: PDT, Limbă: Limba română<br />Nume: Valea Boului, Hartă: Austriacă, Limbă: Limba română<br />Nume: Валя-Боууй (Valea Boului), Hartă: Sovietică, Limbă: Limba română</description><Point><coordinates>26.246839,45.113109,0</coordinates></Point></Placemark>
<Placemark><name>Valea Boului</name><description>Nume: Valea Boului, Tip: bou, Nivel: 3, Județ: Prahova, Formă: Vale, ID: 2825 <br /><b>Variante</b><br />Nume: Valea Boului, Hartă: Geomil 25000, Limbă: Limba română</description><Point><coordinates>25.934695,45.093356,0</coordinates></Point></Placemark>
<Placemark><name>Valea Boului</name><description>Nume: Valea Boului, Tip: bou, Nivel: 3, Județ: Prahova, Formă: Vale, ID: 8840 <br /><b>Variante</b><br />Nume: Valea Boului, Hartă: PDT, Limbă: Limba română</description><Point><coordinates>25.791681,45.104288,0</coordinates></Point></Placemark>
<Placemark><name>Dealu Boului</name><description>Nume: Dealu Boului, Tip: bou, Nivel: 3, Județ: Salaj, Formă: Deal, ID: 1050 <br /><b>Variante</b><br />Nume: Dealu Boului, Hartă: Geomil 25000, Limbă: Limba română</description><Point><coordinates>22.935054,47.011791,0</coordinates></Point></Placemark>
<Placemark><name>Dealu Boului</name><description>Nume: Dealu Boului, Tip: bou, Nivel: 3, Județ: Salaj, Formă: Deal, ID: 5931 <br /><b>Variante</b><br />Nume: Dealu Boului, Hartă: Geomil 25000, Limbă: Limba română<br />Nume: Dealul Boului, Hartă: PDT, Limbă: Limba română</description><Point><coordinates>22.871358,47.062400,0</coordinates></Point></Placemark>
<Placemark><name>Dealu Boului</name><description>Nume: Dealu Boului, Tip: bou, Nivel: 3, Județ: Salaj, Formă: Deal, ID: 7578 <br /><b>Variante</b><br />Nume: Dealu Boului, Hartă: Geomil 25000, Limbă: Limba română</description><Point><coordinates>22.615513,47.173600,0</coordinates></Point></Placemark>
<Placemark><name>Dealul Boilor</name><description>Nume: Dealul Boilor, Tip: bou, Nivel: 3, Județ: Salaj, Formă: Deal, ID: 9934 <br /><b>Variante</b><br />Nume: Dealul Boilor, Hartă: PDT, Limbă: Limba română</description><Point><coordinates>23.423465,47.221649,0</coordinates></Point></Placemark>
<Placemark><name>Dealul Boului</name><description>Nume: Dealul Boului, Tip: bou, Nivel: 3, Județ: Salaj, Formă: Deal, ID: 11856 <br /><b>Variante</b><br />Nume: Dealul Boului, Hartă: PDT, Limbă: Limba română</description><Point><coordinates>22.719697,47.032064,0</coordinates></Point></Placemark>
<Placemark><name>Staulul Boilor</name><description>Nume: Staulul Boilor, Tip: bou, Nivel: 3, Județ: Salaj, Formă: Altele, ID: 12513 <br /><b>Variante</b><br />Nume: Staulul Boilor, Hartă: PDT, Limbă: Limba română</description><Point><coordinates>22.929219,47.387145,0</coordinates></Point></Placemark>
<Placemark><name>Dealu Bouraș</name><description>Nume: Dealu Bouraș, Tip: bouraș, Nivel: 4, Județ: Salaj, Formă: Deal, ID: 5929 <br /><b>Variante</b><br />Nume: Dealu Bouraș, Hartă: Geomil 25000, Limbă: Limba română</description><Point><coordinates>22.840497,47.134133,0</coordinates></Point></Placemark>
<Placemark><name>Ferma Boilor</name><description>Nume: Ferma Boilor, Tip: bou, Nivel: 3, Județ: Satu Mare, Formă: Altele, ID: 11979 <br /><b>Variante</b><br />Nume: Ferma Boilor, Hartă: Geomil 25000, Limbă: Limba română</description><Point><coordinates>22.549489,47.626672,0</coordinates></Point></Placemark>
<Placemark><name>Pășunea Boilor</name><description>Nume: Pășunea Boilor, Tip: bou, Nivel: 3, Județ: Satu Mare, Formă: Altele, ID: 6964 <br /><b>Variante</b><br />Nume: Pășunea Boilor, Hartă: Geomil 25000, Limbă: Limba română</description><Point><coordinates>22.773110,47.709536,0</coordinates></Point></Placemark>
<Placemark><name>Podu Boilor</name><description>Nume: Podu Boilor, Tip: bou, Nivel: 3, Județ: Satu Mare, Formă: Altele, ID: 5981 <br /><b>Variante</b><br />Nume: Podu Boilor, Hartă: Geomil 25000, Limbă: Limba română</description><Point><coordinates>22.355431,47.502302,0</coordinates></Point></Placemark>
<Placemark><name>Valea Boului</name><description>Nume: Valea Boului, Tip: bou, Nivel: 3, Județ: Satu Mare, Formă: Vale, ID: 8221 <br /><b>Variante</b><br />Nume: Valea Boului, Hartă: PDT, Limbă: Limba română</description><Point><coordinates>23.176895,47.636371,0</coordinates></Point></Placemark>
<Placemark><name>Dealul Boilor</name><description>Nume: Dealul Boilor, Tip: bou, Nivel: 3, Județ: Sibiu, Formă: Deal, ID: 7992 <br /><b>Variante</b><br />Nume: Dealul Boilor, Hartă: PDT, Limbă: Limba română</description><Point><coordinates>24.137328,45.874251,0</coordinates></Point></Placemark>
<Placemark><name>Dealul Boilor</name><description>Nume: Dealul Boilor, Tip: bou, Nivel: 3, Județ: Sibiu, Formă: Deal, ID: 11383 <br /><b>Variante</b><br />Nume: Dealul Boilor, Hartă: Geomil 25000, Limbă: Limba română</description><Point><coordinates>24.193130,45.629234,0</coordinates></Point></Placemark>
<Placemark><name>Muntele Boilor</name><description>Nume: Muntele Boilor, Tip: bou, Nivel: 3, Județ: Sibiu, Formă: Înălțime, ID: 11317 <br /><b>Variante</b><br />Nume: Muntele Boilor, Hartă: Geomil 25000, Limbă: Limba română</description><Point><coordinates>24.138375,45.546037,0</coordinates></Point></Placemark>
<Placemark><name>Pădurea Boului</name><description>Nume: Pădurea Boului, Tip: bou, Nivel: 3, Județ: Sibiu, Formă: Pădure, ID: 2635 <br /><b>Variante</b><br />Nume: Pădurea Boului, Hartă: Geomil 25000, Limbă: Limba română</description><Point><coordinates>24.613636,46.129557,0</coordinates></Point></Placemark>
<Placemark><name>Pârâul Groapa Boilor</name><description>Nume: Pârâul Groapa Boilor, Tip: bou, Nivel: 3, Județ: Sibiu, Formă: Vale, ID: 7983 <br /><b>Variante</b><br />Nume: Pârâul Groapa Boilor, Hartă: PDT, Limbă: Limba română</description><Point><coordinates>24.554536,46.018259,0</coordinates></Point></Placemark>
<Placemark><name>Arșița Boului</name><description>Nume: Arșița Boului, Tip: bou, Nivel: 3, Județ: Suceava, Formă: Altele, ID: 10761 <br /><b>Variante</b><br />Nume: Arșița Boului, Hartă: Imperiul Habsburgic (1887), Limbă: Limba română</description><Point><coordinates>25.736867,47.765526,0</coordinates></Point></Placemark>
<Placemark><name>Boul</name><description>Nume: Boul, Tip: bou, Nivel: 3, Județ: Suceava, Formă: Vale, ID: 10743 <br /><b>Variante</b><br />Nume: Boul, Hartă: Geomil 25000, Limbă: Limba română</description><Point><coordinates>25.664132,47.477696,0</coordinates></Point></Placemark>
<Placemark><name>Boul</name><description>Nume: Boul, Tip: bou, Nivel: 3, Județ: Suceava, Formă: Vale, ID: 10775 <br /><b>Variante</b><br />Nume: Boul, Hartă: Geomil 25000, Limbă: Limba română</description><Point><coordinates>25.523392,47.901126,0</coordinates></Point></Placemark>
<Placemark><name>Dealul Boul Mic</name><description>Nume: Dealul Boul Mic, Tip: bou, Nivel: 3, Județ: Suceava, Formă: Deal, ID: 2291 <br /><b>Variante</b><br />Nume: Dealul Boul Mic, Hartă: Geomil 25000, Limbă: Limba română</description><Point><coordinates>25.501220,47.869689,0</coordinates></Point></Placemark>
<Placemark><name>Pârâul Boului</name><description>Nume: Pârâul Boului, Tip: bou, Nivel: 3, Județ: Suceava, Formă: Vale, ID: 7273 <br /><b>Variante</b><br />Nume: Pârâul Boului, Hartă: PDT, Limbă: Limba română</description><Point><coordinates>26.315402,47.713999,0</coordinates></Point></Placemark>
<Placemark><name>Poeana Boilor</name><description>Nume: Poeana Boilor, Tip: bou, Nivel: 3, Județ: Suceava, Formă: Poiană, ID: 11725 <br /><b>Variante</b><br />Nume: Poeana Boilor, Hartă: Imperiul Habsburgic (1887), Limbă: Limba română</description><Point><coordinates>25.221851,47.188552,0</coordinates></Point></Placemark>
<Placemark><name>Poiana Boului</name><description>Nume: Poiana Boului, Tip: bou, Nivel: 3, Județ: Suceava, Formă: Poiană, ID: 6423 <br /><b>Variante</b><br />Nume: Poiana Boului, Hartă: PDT, Limbă: Limba română</description><Point><coordinates>25.687132,47.165798,0</coordinates></Point></Placemark>
<Placemark><name>Runcul Boului</name><description>Nume: Runcul Boului, Tip: bou, Nivel: 3, Județ: Suceava, Formă: Altele, ID: 1854 <br /><b>Variante</b><br />Nume: Runcul Boului, Hartă: Geomil 25000, Limbă: Limba română</description><Point><coordinates>25.546923,47.641603,0</coordinates></Point></Placemark>
<Placemark><name>Vârful Arșița Boilor</name><description>Nume: Vârful Arșița Boilor, Tip: bou, Nivel: 3, Județ: Suceava, Formă: Înălțime, ID: 1785 <br /><b>Variante</b><br />Nume: Vârful Arșița Boilor, Hartă: Geomil 25000, Limbă: Limba română</description><Point><coordinates>25.939554,47.571603,0</coordinates></Point></Placemark>
<Placemark><name>Valea Boului</name><description>Nume: Valea Boului, Tip: bou, Nivel: 3, Județ: Teleorman, Formă: Vale, ID: 1246 <br /><b>Variante</b><br />Nume: Valea Boului, Hartă: Geomil 25000, Limbă: Limba română<br />Nume: Valea Boul, Hartă: Austriacă, Limbă: Limba română</description><Point><coordinates>25.178123,44.155584,0</coordinates></Point></Placemark>
<Placemark><name>Dealu Boului</name><description>Nume: Dealu Boului, Tip: bou, Nivel: 3, Județ: Timis, Formă: Deal, ID: 871 <br /><b>Variante</b><br />Nume: Dealu Boului, Hartă: Geomil 25000, Limbă: Limba română</description><Point><coordinates>22.342297,45.954671,0</coordinates></Point></Placemark>
<Placemark><name>Dealu Boului</name><description>Nume: Dealu Boului, Tip: bou, Nivel: 3, Județ: Timis, Formă: Deal, ID: 11585 <br /><b>Variante</b><br />Nume: Dealu Boului, Hartă: Geomil 25000, Limbă: Limba română</description><Point><coordinates>22.069539,45.881094,0</coordinates></Point></Placemark>
<Placemark><name>Piatra Boului</name><description>Nume: Piatra Boului, Tip: bou, Nivel: 3, Județ: Tulcea, Formă: Înălțime, ID: 11076 <br /><b>Variante</b><br />Nume: Piatra Boului, Hartă: PDT, Limbă: Limba română</description><Point><coordinates>28.849332,45.032061,0</coordinates></Point></Placemark>
<Placemark><name>Culmea Boului</name><description>Nume: Culmea Boului, Tip: bou, Nivel: 3, Județ: Valcea, Formă: Înălțime, ID: 4769 <br /><b>Variante</b><br />Nume: Culmea Boului, Hartă: Geomil 25000, Limbă: Limba română</description><Point><coordinates>24.608256,44.967187,0</coordinates></Point></Placemark>
<Placemark><name>Dealu Piscu Bou</name><description>Nume: Dealu Piscu Bou, Tip: bou, Nivel: 3, Județ: Valcea, Formă: Deal, ID: 368 <br /><b>Variante</b><br />Nume: Dealu Piscu Bou, Hartă: Geomil 25000, Limbă: Limba română</description><Point><coordinates>24.176312,44.782102,0</coordinates></Point></Placemark>
<Placemark><name>Dealul Bou</name><description>Nume: Dealul Bou, Tip: bou, Nivel: 3, Județ: Valcea, Formă: Deal, ID: 1441 <br /><b>Variante</b><br />Nume: Dealul Bou, Hartă: Geomil 25000, Limbă: Limba română</description><Point><coordinates>24.470561,45.307734,0</coordinates></Point></Placemark>
<Placemark><name>Dealul Boului</name><description>Nume: Dealul Boului, Tip: bou, Nivel: 3, Județ: Valcea, Formă: Deal, ID: 333 <br /><b>Variante</b><br />Nume: Dealul Boului, Hartă: Geomil 25000, Limbă: Limba română</description><Point><coordinates>24.405582,45.013004,0</coordinates></Point></Placemark>
<Placemark><name>Dealul Boului</name><description>Nume: Dealul Boului, Tip: bou, Nivel: 3, Județ: Valcea, Formă: Deal, ID: 334 <br /><b>Variante</b><br />Nume: Dealul Boului, Hartă: Geomil 25000, Limbă: Limba română</description><Point><coordinates>24.416356,45.035753,0</coordinates></Point></Placemark>
<Placemark><name>Dealul Iazul Boilor</name><description>Nume: Dealul Iazul Boilor, Tip: bou, Nivel: 3, Județ: Vaslui, Formă: Deal, ID: 14143 <br /><b>Variante</b><br />Nume: Dealul Iazul Boilor, Hartă: Geomil 25000, Limbă: Limba română</description><Point><coordinates>27.649567,46.793964,0</coordinates></Point></Placemark>
<Placemark><name>La Cotul Boilor</name><description>Nume: La Cotul Boilor, Tip: bou, Nivel: 3, Județ: Vaslui, Formă: Apă-deal-câmpie, ID: 12291 <br /><b>Variante</b><br />Nume: La Cotul Boilor, Hartă: Geomil 25000, Limbă: Limba română</description><Point><coordinates>28.194287,46.650611,0</coordinates></Point></Placemark>
<Placemark><name>Movila Boului</name><description>Nume: Movila Boului, Tip: bou, Nivel: 3, Județ: Vaslui, Formă: Înălțime, ID: 2459 <br /><b>Variante</b><br />Nume: Movila Boului, Hartă: Geomil 25000, Limbă: Limba română</description><Point><coordinates>27.777926,46.702163,0</coordinates></Point></Placemark>
<Placemark><name>Boul</name><description>Nume: Boul, Tip: bou, Nivel: 3, Județ: Vrancea, Formă: Localitate, ID: 9185 <br /><b>Variante</b><br />Nume: Boul, Hartă: PDT, Limbă: Limba română</description><Point><coordinates>27.091533,46.051715,0</coordinates></Point></Placemark>
<Placemark><name>Culmea Boului</name><description>Nume: Culmea Boului, Tip: bou, Nivel: 3, Județ: Vrancea, Formă: Înălțime, ID: 784 <br /><b>Variante</b><br />Nume: Culmea Boului, Hartă: Geomil 25000, Limbă: Limba română</description><Point><coordinates>26.588786,45.758976,0</coordinates></Point></Placemark>
<Placemark><name>Dealul Boului</name><description>Nume: Dealul Boului, Tip: bou, Nivel: 3, Județ: Vrancea, Formă: Deal, ID: 2108 <br /><b>Variante</b><br />Nume: Dealul Boului, Hartă: Geomil 25000, Limbă: Limba română</description><Point><coordinates>26.655040,45.677346,0</coordinates></Point></Placemark>
<Placemark><name>Dealul Boului</name><description>Nume: Dealul Boului, Tip: bou, Nivel: 3, Județ: Vrancea, Formă: Deal, ID: 7907 <br /><b>Variante</b><br />Nume: Dealul Boului, Hartă: Geomil 25000, Limbă: Limba română</description><Point><coordinates>26.806781,45.799818,0</coordinates></Point></Placemark>
<Placemark><name>Dealul Boului</name><description>Nume: Dealul Boului, Tip: bou, Nivel: 3, Județ: Vrancea, Formă: Deal, ID: 9209 <br /><b>Variante</b><br />Nume: Dealul Boului, Hartă: PDT, Limbă: Limba română</description><Point><coordinates>26.702536,46.042437,0</coordinates></Point></Placemark>
<Placemark><name>Fântâna Boilor</name><description>Nume: Fântâna Boilor, Tip: bou, Nivel: 3, Județ: Vrancea, Formă: Altele, ID: 3546 <br /><b>Variante</b><br />Nume: Fântâna Boilor, Hartă: PDT, Limbă: Limba română</description><Point><coordinates>27.329931,45.557719,0</coordinates></Point></Placemark>
<Placemark><name>Groapa Boului</name><description>Nume: Groapa Boului, Tip: bou, Nivel: 3, Județ: Vrancea, Formă: Altele, ID: 12261 <br /><b>Variante</b><br />Nume: Groapa Boului, Hartă: Geomil 25000, Limbă: Limba română</description><Point><coordinates>26.855658,45.942404,0</coordinates></Point></Placemark>
<Placemark><name>La Boul Roșu</name><description>Nume: La Boul Roșu, Tip: bou, Nivel: 3, Județ: Vrancea, Formă: Altele, ID: 5276 <br /><b>Variante</b><br />Nume: La Boul Roșu, Hartă: Geomil 25000, Limbă: Limba română</description><Point><coordinates>26.953501,45.870559,0</coordinates></Point></Placemark>
<Placemark><name>Movila Boului</name><description>Nume: Movila Boului, Tip: bou, Nivel: 3, Județ: Vrancea, Formă: Înălțime, ID: 2161 <br /><b>Variante</b><br />Nume: Movila Boului, Hartă: Geomil 25000, Limbă: Limba română</description><Point><coordinates>27.229956,45.758239,0</coordinates></Point></Placemark>
<Placemark><name>Piscul Boului</name><description>Nume: Piscul Boului, Tip: bou, Nivel: 3, Județ: Vrancea, Formă: Înălțime, ID: 2124 <br /><b>Variante</b><br />Nume: Piscul Boului, Hartă: Geomil 25000, Limbă: Limba română</description><Point><coordinates>26.577630,45.843777,0</coordinates></Point></Placemark>
<Placemark><name>Valea Boului</name><description>Nume: Valea Boului, Tip: bou, Nivel: 3, Județ: Vrancea, Formă: Vale, ID: 5280 <br /><b>Variante</b><br />Nume: Valea Boului, Hartă: Geomil 25000, Limbă: Limba română</description><Point><coordinates>27.165294,46.036232,0</coordinates></Point></Placemark></Document></kml>