<?xml version="1.0" encoding="UTF-8"?><kml xmlns="http://www.opengis.net/kml/2.2"><Document><Placemark><name>Valea Bulgarului</name><description>Nume: Valea Bulgarului, Tip: bulgar, Nivel: 3, Județ: Botosani, Formă: Vale, ID: 1819 <br /><b>Variante</b><br />Nume: Valea Bulgarului, Hartă: Geomil 25000, Limbă: Limba română</description><Point><coordinates>26.936737,48.034809,0</coordinates></Point></Placemark>
<Placemark><name>Pârâul Bulgarilor</name><description>Nume: Pârâul Bulgarilor, Tip: bulgari, Nivel: 2, Județ: Botosani, Formă: Vale, ID: 2351 <br /><b>Variante</b><br />Nume: Pârâul Bulgarilor, Hartă: Geomil 25000, Limbă: Limba română</description><Point><coordinates>26.507628,47.764900,0</coordinates></Point></Placemark>
<Placemark><name>Coasta Bulgăriei</name><description>Nume: Coasta Bulgăriei, Tip: bulgărie, Nivel: 3, Județ: Botosani, Formă: Înălțime, ID: 1825 <br /><b>Variante</b><br />Nume: Coasta Bulgăriei, Hartă: Geomil 25000, Limbă: Limba română</description><Point><coordinates>26.728323,47.705274,0</coordinates></Point></Placemark>
<Placemark><name>Mănăstirea Bulgarului</name><description>Nume: Mănăstirea Bulgarului, Tip: bulgar, Nivel: 3, Județ: Buzau, Formă: Altele, ID: 2089 <br /><b>Variante</b><br />Nume: Mănăstirea Bulgarului, Hartă: Geomil 25000, Limbă: Limba română</description><Point><coordinates>27.050915,45.440277,0</coordinates></Point></Placemark>
<Placemark><name>Podu Bulgarului</name><description>Nume: Podu Bulgarului, Tip: bulgar, Nivel: 3, Județ: Buzau, Formă: Altele, ID: 5259, ID Părinte: 2089 <br /><b>Variante</b><br />Nume: Podu Bulgarului, Hartă: Austriacă, Limbă: Limba română</description><Point><coordinates>27.054479,45.441439,0</coordinates></Point></Placemark>
<Placemark><LineString id="5259_2089"><tessellate>1</tessellate><coordinates>27.054479,45.441439,0.
27.050915,45.440277,0</coordinates></LineString><Style><LineStyle><width>3</width></LineStyle></Style></Placemark>
<Placemark><name>Dealu Bulgarului</name><description>Nume: Dealu Bulgarului, Tip: bulgar, Nivel: 3, Județ: Constanta, Formă: Deal, ID: 2858 <br /><b>Variante</b><br />Nume: Dealu Bulgarului, Hartă: Geomil 25000, Limbă: Limba română</description><Point><coordinates>28.343573,43.768077,0</coordinates></Point></Placemark>
<Placemark><name>Fântâna Bulgarului</name><description>Nume: Fântâna Bulgarului, Tip: bulgar, Nivel: 3, Județ: Constanta, Formă: Altele, ID: 3221 <br /><b>Variante</b><br />Nume: Fântâna Bulgarului, Hartă: PDT, Limbă: Limba română</description><Point><coordinates>27.610639,44.182989,0</coordinates></Point></Placemark>
<Placemark><name>Dealul Bulgăriței</name><description>Nume: Dealul Bulgăriței, Tip: bulgăriță, Nivel: 3, Județ: Constanta, Formă: Deal, ID: 2870 <br /><b>Variante</b><br />Nume: Dealul Bulgăriței, Hartă: Geomil 25000, Limbă: Limba română</description><Point><coordinates>28.329272,44.281824,0</coordinates></Point></Placemark>
<Placemark><name>Poiana Bulgarului</name><description>Nume: Poiana Bulgarului, Tip: bulgar, Nivel: 3, Județ: Galati, Formă: Poiană, ID: 3517 <br /><b>Variante</b><br />Nume: Poiana Bulgarului, Hartă: PDT, Limbă: Limba română</description><Point><coordinates>28.045273,45.847673,0</coordinates></Point></Placemark>
<Placemark><name>Balta Bulgarului</name><description>Nume: Balta Bulgarului, Tip: bulgar, Nivel: 3, Județ: Iasi, Formă: Apă-deal-câmpie, ID: 14924 <br /><b>Variante</b><br />Nume: Balta Bulgarului, Hartă: PDT, Limbă: Limba română</description><Point><coordinates>27.889641,47.075830,0</coordinates></Point></Placemark>
<Placemark><name>Iazul Bulgarului</name><description>Nume: Iazul Bulgarului, Tip: bulgar, Nivel: 3, Județ: Iasi, Formă: Apă-deal-câmpie, ID: 8934 <br /><b>Variante</b><br />Nume: Iazul Bulgarului, Hartă: PDT, Limbă: Limba română</description><Point><coordinates>27.294148,47.551245,0</coordinates></Point></Placemark>
<Placemark><name>Movila la Grădina Bulgarului</name><description>Nume: Movila la Grădina Bulgarului, Tip: bulgar, Nivel: 3, Județ: Iasi, Formă: Înălțime, ID: 4854 <br /><b>Variante</b><br />Nume: Movila la Grădina Bulgarului, Hartă: PDT, Limbă: Limba română</description><Point><coordinates>27.395612,47.324001,0</coordinates></Point></Placemark>
<Placemark><name>La Bulgari</name><description>Nume: La Bulgari, Tip: bulgari, Nivel: 2, Județ: Iasi, Formă: Altele, ID: 4850 <br /><b>Variante</b><br />Nume: La Bulgari, Hartă: PDT, Limbă: Limba română</description><Point><coordinates>27.561378,47.300069,0</coordinates></Point></Placemark>
<Placemark><name>Bulgaru</name><description>Nume: Bulgaru, Tip: bulgar, Nivel: 3, Județ: Ilfov, Formă: Localitate, ID: 4231 <br /><b>Variante</b><br />Nume: Bulgaru, Hartă: PDT, Limbă: Limba română<br />Nume: Bulgaru, Hartă: Austriacă, Limbă: Limba română</description><Point><coordinates>25.979917,44.361981,0</coordinates></Point></Placemark>
<Placemark><name>Grădina Bulgărească</name><description>Nume: Grădina Bulgărească, Tip: bulgăresc, Nivel: 3, Județ: Mures, Formă: Altele, ID: 1913 <br /><b>Variante</b><br />Nume: Grădina Bulgărească, Hartă: Geomil 25000, Limbă: Limba română</description><Point><coordinates>24.476509,46.380204,0</coordinates></Point></Placemark>
<Placemark><name>Bulgari</name><description>Nume: Bulgari, Tip: bulgari, Nivel: 2, Județ: Salaj, Formă: Localitate, ID: 8178 <br /><b>Variante</b><br />Nume: Bulgari, Hartă: Geomil 25000, Limbă: Limba română<br />Nume: Bulgari, Hartă: PDT, Limbă: Limba română</description><Point><coordinates>23.143571,47.337916,0</coordinates></Point></Placemark>
<Placemark><name>Pădurea Bulgărească</name><description>Nume: Pădurea Bulgărească, Tip: bulgărească, Nivel: 3, Județ: Teleorman, Formă: Pădure, ID: 9032, ID Părinte: 9033 <br /><b>Variante</b><br />Nume: Pădurea Bulgărească, Hartă: PDT, Limbă: Limba română<br />Nume: Pădurea Bulgărească, Hartă: Geomil 25000, Limbă: Limba română</description><Point><coordinates>25.179300,44.336305,0</coordinates></Point></Placemark>
<Placemark><LineString id="9032_9033"><tessellate>1</tessellate><coordinates>25.179300,44.336305,0.
25.196527,44.338154,0</coordinates></LineString><Style><LineStyle><width>3</width></LineStyle></Style></Placemark>
<Placemark><name>Bulgăreni</name><description>Nume: Bulgăreni, Tip: bulgăreni, Nivel: 3, Județ: Teleorman, Formă: Localitate, ID: 9033 <br /><b>Variante</b><br />Nume: Bulgăreni, Hartă: PDT, Limbă: Limba română</description><Point><coordinates>25.196527,44.338154,0</coordinates></Point></Placemark>
<Placemark><name>Odaia Bulgărească</name><description>Nume: Odaia Bulgărească, Tip: bulgăresc, Nivel: 3, Județ: Timis, Formă: Altele, ID: 1964 <br /><b>Variante</b><br />Nume: Odaia Bulgărească, Hartă: Geomil 25000, Limbă: Limba română</description><Point><coordinates>20.431040,46.044604,0</coordinates></Point></Placemark>
<Placemark><name>Colonia Bulgară</name><description>Nume: Colonia Bulgară, Tip: bulgari, Nivel: 2, Județ: Timis, Formă: Localitate, ID: 1961 <br /><b>Variante</b><br />Nume: Colonia Bulgară, Hartă: Geomil 25000, Limbă: Limba română</description><Point><coordinates>20.410898,46.099190,0</coordinates></Point></Placemark>
<Placemark><name>Colonia Bulgară</name><description>Nume: Colonia Bulgară, Tip: bulgari, Nivel: 2, Județ: Timis, Formă: Înălțime, ID: 1962 <br /><b>Variante</b><br />Nume: Colonia Bulgară, Hartă: Geomil 25000, Limbă: Limba română</description><Point><coordinates>20.430936,46.096326,0</coordinates></Point></Placemark>
<Placemark><name>Valea la podu Bulgarului</name><description>Nume: Valea la podu Bulgarului, Tip: bulgar, Nivel: 3, Județ: Tulcea, Formă: Vale, ID: 9286 <br /><b>Variante</b><br />Nume: Valea la podu Bulgarului, Hartă: PDT, Limbă: Limba română</description><Point><coordinates>28.726621,45.151398,0</coordinates></Point></Placemark>
<Placemark><name>Dealul Bulgarilor</name><description>Nume: Dealul Bulgarilor, Tip: bulgari, Nivel: 2, Județ: Vaslui, Formă: Deal, ID: 10921, ID Părinte: 6560 <br /><b>Variante</b><br />Nume: Dealul Bulgarilor, Hartă: Geomil 25000, Limbă: Limba română</description><Point><coordinates>28.031752,46.397764,0</coordinates></Point></Placemark>
<Placemark><LineString id="10921_6560"><tessellate>1</tessellate><coordinates>28.031752,46.397764,0.
28.022908,46.382217,0</coordinates></LineString><Style><LineStyle><width>3</width></LineStyle></Style></Placemark>
<Placemark><name>Hârtopu Bulgarilor</name><description>Nume: Hârtopu Bulgarilor, Tip: bulgari, Nivel: 2, Județ: Vaslui, Formă: Înălțime, ID: 6560 <br /><b>Variante</b><br />Nume: Hârtopu Bulgarilor, Hartă: PDT, Limbă: Limba română</description><Point><coordinates>28.022908,46.382217,0</coordinates></Point></Placemark></Document></kml>