<?xml version="1.0" encoding="UTF-8"?><kml xmlns="http://www.opengis.net/kml/2.2"><Document><Placemark><name>Valea Ariciului</name><description>Nume: Valea Ariciului, Tip: arici, Nivel: 2, Județ: Prahova, Formă: Vale, ID: 32 <br /><b>Variante</b><br />Nume: Valea Ariciului, Hartă: PDT, Limbă: Limba română</description><Point><coordinates>26.256764,45.120207</coordinates></Point></Placemark>
<Placemark><name>Movila Ariciului</name><description>Nume: Movila Ariciului, Tip: arici, Nivel: 2, Județ: Buzau, Formă: Înălțime, ID: 63 <br /><b>Variante</b><br />Nume: Movila Ariciului, Hartă: PDT, Limbă: Limba română<br />Nume: Movila Ariciului, Hartă: Geomil 25000, Limbă: Limba română<br />Nume: кург. Аричу (mov. Ariciu), Hartă: Sovietică, Limbă: Limba română</description><Point><coordinates>26.831451,44.957456</coordinates></Point></Placemark>
<Placemark><name>Gruiul. Ariciului</name><description>Nume: Gruiul. Ariciului, Tip: arici, Nivel: 2, Județ: Valcea, Formă: Înălțime, ID: 1174 <br /><b>Variante</b><br />Nume: Gruiul. Ariciului, Hartă: Geomil 25000, Limbă: Limba română</description><Point><coordinates>24.025009,45.388400</coordinates></Point></Placemark>
<Placemark><name>Dealul Aricilor</name><description>Nume: Dealul Aricilor, Tip: arici, Nivel: 2, Județ: Iasi, Formă: Deal, ID: 2438 <br /><b>Variante</b><br />Nume: Dealul Aricilor, Hartă: Geomil 25000, Limbă: Limba română</description><Point><coordinates>27.127154,47.394678</coordinates></Point></Placemark>
<Placemark><name>Tâlva Ariciului</name><description>Nume: Tâlva Ariciului, Tip: arici, Nivel: 2, Județ: Caras Severin, Formă: Înălțime, ID: 12701 <br /><b>Variante</b><br />Nume: Tâlva Ariciului, Hartă: PDT, Limbă: Limba română</description><Point><coordinates>22.222260,45.265820</coordinates></Point></Placemark></Document></kml>