<?xml version="1.0" encoding="UTF-8"?><kml xmlns="http://www.opengis.net/kml/2.2"><Document><Placemark><name>Valea Șerpăriei</name><description>Nume: Valea Șerpăriei, Tip: șerpărie, Nivel: 3, Județ: Botosani, Formă: Vale, ID: 2397 <br /><b>Variante</b><br />Nume: Valea Șerpăriei, Hartă: Geomil 25000, Limbă: Limba română</description><Point><coordinates>26.840860,48.071823</coordinates></Point></Placemark>
<Placemark><name>Dealul Șerpăriei</name><description>Nume: Dealul Șerpăriei, Tip: șerpărie, Nivel: 3, Județ: Botosani, Formă: Deal, ID: 2405 <br /><b>Variante</b><br />Nume: Dealul Șerpăriei, Hartă: Geomil 25000, Limbă: Limba română</description><Point><coordinates>26.906676,47.988246</coordinates></Point></Placemark>
<Placemark><name>Japșa Șserpăriile</name><description>Nume: Japșa Șserpăriile, Tip: șerpărie, Nivel: 3, Județ: Calarasi, Formă: Apă-deal-câmpie, ID: 3289 <br /><b>Variante</b><br />Nume: Japșa Șserpăriile, Hartă: PDT, Limbă: Limba română</description><Point><coordinates>27.213086,44.211775</coordinates></Point></Placemark>
<Placemark><name>La Șerpărie</name><description>Nume: La Șerpărie, Tip: șerpărie, Nivel: 3, Județ: Vrancea, Formă: Altele, ID: 3933 <br /><b>Variante</b><br />Nume: La Șerpărie, Hartă: PDT, Limbă: Limba română</description><Point><coordinates>27.251878,46.126125</coordinates></Point></Placemark>
<Placemark><name>Valea Șerpăriei</name><description>Nume: Valea Șerpăriei, Tip: șerpărie, Nivel: 3, Județ: Botosani, Formă: Vale, ID: 4896 <br /><b>Variante</b><br />Nume: Valea Șerpăriei, Hartă: Geomil 25000, Limbă: Limba română</description><Point><coordinates>26.350197,48.037529</coordinates></Point></Placemark>
<Placemark><name>Vârful Șerpăriei</name><description>Nume: Vârful Șerpăriei, Tip: șerpărie, Nivel: 3, Județ: Neamt, Formă: Înălțime, ID: 6419 <br /><b>Variante</b><br />Nume: Vârful Șerpăriei, Hartă: PDT, Limbă: Limba română</description><Point><coordinates>25.786729,47.212453</coordinates></Point></Placemark>
<Placemark><name>Valea Șerpăria</name><description>Nume: Valea Șerpăria, Tip: șerpărie, Nivel: 3, Județ: Dambovita, Formă: Vale, ID: 8370 <br /><b>Variante</b><br />Nume: Valea Șerpăria, Hartă: PDT, Limbă: Limba română</description><Point><coordinates>25.286827,45.065238</coordinates></Point></Placemark>
<Placemark><name>Șerpărie</name><description>Nume: Șerpărie, Tip: șerpărie, Nivel: 3, Județ: Botosani, Formă: Înălțime, ID: 11557 <br /><b>Variante</b><br />Nume: Șerpărie, Hartă: Geomil 25000, Limbă: Limba română</description><Point><coordinates>26.940477,47.869179</coordinates></Point></Placemark>
<Placemark><name>Șerpăria</name><description>Nume: Șerpăria, Tip: șerpărie, Nivel: 3, Județ: Neamt, Formă: Altele, ID: 13267 <br /><b>Variante</b><br />Nume: Șerpăria, Hartă: Geomil 25000, Limbă: Limba română</description><Point><coordinates>26.077436,47.126075</coordinates></Point></Placemark>
<Placemark><name>Valea Șerpăriei</name><description>Nume: Valea Șerpăriei, Tip: șerpărie, Nivel: 3, Județ: Olt, Formă: Vale, ID: 14203 <br /><b>Variante</b><br />Nume: Valea Șerpăriei, Hartă: Geomil 25000, Limbă: Limba română</description><Point><coordinates>24.496542,44.265436</coordinates></Point></Placemark></Document></kml>