<?xml version="1.0" encoding="UTF-8"?><kml xmlns="http://www.opengis.net/kml/2.2"><Document><Placemark><name>Poiana Uștiubeiului</name><description>Nume: Poiana Uștiubeiului, Tip: uștubeu, Nivel: 3, Județ: Arges, Formă: Poiană, ID: 14184 <br /><b>Variante</b><br />Nume: Poiana Uștiubeiului, Hartă: PDT, Limbă: Limba română</description><Point><coordinates>24.819513,44.773344,0</coordinates></Point></Placemark>
<Placemark><name>Valea Uștubeu</name><description>Nume: Valea Uștubeu, Tip: uștubeu, Nivel: 3, Județ: Giurgiu, Formă: Vale, ID: 12443 <br /><b>Variante</b><br />Nume: Valea Uștubeu, Hartă: Geomil 25000, Limbă: Limba română</description><Point><coordinates>25.878475,44.174913,0</coordinates></Point></Placemark>
<Placemark><name>Valea Uștiubeu</name><description>Nume: Valea Uștiubeu, Tip: uștubeu, Nivel: 3, Județ: Olt, Formă: Vale, ID: 3040 <br /><b>Variante</b><br />Nume: Valea Uștiubeu, Hartă: Geomil 25000, Limbă: Limba română</description><Point><coordinates>24.337465,44.062435,0</coordinates></Point></Placemark>
<Placemark><name>La Ustibeu</name><description>Nume: La Ustibeu, Tip: uștubeu, Nivel: 3, Județ: Teleorman, Formă: Altele, ID: 4212 <br /><b>Variante</b><br />Nume: La Ustibeu, Hartă: Austriacă, Limbă: Limba română</description><Point><coordinates>25.117347,43.851987,0</coordinates></Point></Placemark>
<Placemark><name>Lacul Uștiubei</name><description>Nume: Lacul Uștiubei, Tip: uștubeu, Nivel: 3, Județ: Teleorman, Formă: Lac, ID: 12212 <br /><b>Variante</b><br />Nume: Lacul Uștiubei, Hartă: PDT, Limbă: Limba română</description><Point><coordinates>24.876444,43.978150,0</coordinates></Point></Placemark>
<Placemark><name>Puțul Uștubeiului</name><description>Nume: Puțul Uștubeiului, Tip: uștubeu, Nivel: 3, Județ: Teleorman, Formă: Altele, ID: 10968 <br /><b>Variante</b><br />Nume: Puțul Uștubeiului, Hartă: PDT, Limbă: Limba română</description><Point><coordinates>25.598479,44.286401,0</coordinates></Point></Placemark></Document></kml>