<?xml version="1.0" encoding="UTF-8"?><kml xmlns="http://www.opengis.net/kml/2.2"><Document><Placemark><name>Arșița Ciurii</name><description>Nume: Arșița Ciurii, Tip: ciurea, Nivel: 3, Județ: Bistrita Nasaud, Formă: Altele, ID: 15760 <br /><b>Variante</b><br />Nume: Arșița Ciurii, Hartă: PDT, Limbă: Limba română</description><Point><coordinates>24.906906,47.242473,0</coordinates></Point></Placemark>
<Placemark><name>Movila Ciurea</name><description>Nume: Movila Ciurea, Tip: ciurea, Nivel: 3, Județ: Braila, Formă: Înălțime, ID: 15343 <br /><b>Variante</b><br />Nume: Movila Ciurea, Hartă: PDT, Limbă: Limba română</description><Point><coordinates>27.302313,45.158242,0</coordinates></Point></Placemark>
<Placemark><name>Privalul Ciurea</name><description>Nume: Privalul Ciurea, Tip: ciurea, Nivel: 3, Județ: Calarasi, Formă: Apă-deal-câmpie, ID: 15735 <br /><b>Variante</b><br />Nume: Privalul Ciurea, Hartă: PDT, Limbă: Limba română</description><Point><coordinates>26.925667,44.182001,0</coordinates></Point></Placemark>
<Placemark><name>La Ciurea</name><description>Nume: La Ciurea, Tip: ciurea, Nivel: 3, Județ: Dolj, Formă: Altele, ID: 14754 <br /><b>Variante</b><br />Nume: La Ciurea, Hartă: ANCPI, Limbă: Limba română</description><Point><coordinates>22.994580,43.933508,0</coordinates></Point></Placemark>
<Placemark><name>Valea Ciurea</name><description>Nume: Valea Ciurea, Tip: ciurea, Nivel: 3, Județ: Dolj, Formă: Vale, ID: 15780 <br /><b>Variante</b><br />Nume: Valea Ciurea, Hartă: PDT, Limbă: Limba română</description><Point><coordinates>23.781358,44.226144,0</coordinates></Point></Placemark>
<Placemark><name>Ciurea</name><description>Nume: Ciurea, Tip: ciurea, Nivel: 3, Județ: Iasi, Formă: Localitate, ID: 14685 <br /><b>Variante</b><br />Nume: Ciurea, Hartă: PDT, Limbă: Limba română</description><Point><coordinates>27.577725,47.053517,0</coordinates></Point></Placemark>
<Placemark><name>Ciurea</name><description>Nume: Ciurea, Tip: ciurea, Nivel: 3, Județ: Neamt, Formă: Localitate, ID: 14684 <br /><b>Variante</b><br />Nume: Ciurea, Hartă: PDT, Limbă: Limba română</description><Point><coordinates>27.187155,46.885337,0</coordinates></Point></Placemark></Document></kml>