<?xml version="1.0" encoding="UTF-8"?><kml xmlns="http://www.opengis.net/kml/2.2"><Document><Placemark><name>Culmea Pecineagului</name><description>Nume: Culmea Pecineagului, Tip: pecineag, Nivel: 3, Județ: Arges, Formă: Înălțime, ID: 5006, ID Părinte: 5077 <br /><b>Variante</b><br />Nume: Culmea Pecineagului, Hartă: Geomil 25000, Limbă: Limba română</description><Point><coordinates>25.082873,45.545190,0</coordinates></Point></Placemark>
<Placemark><LineString id="5006_5077"><tessellate>1</tessellate><coordinates>25.082873,45.545190,0.
25.101596,45.556667,0</coordinates></LineString><Style><LineStyle><width>3</width></LineStyle></Style></Placemark>
<Placemark><name>Muntele Picineagu</name><description>Nume: Muntele Picineagu, Tip: pecineag, Nivel: 3, Județ: Arges, Formă: Înălțime, ID: 5077 <br /><b>Variante</b><br />Nume: Muntele Picineagu, Hartă: PDT, Limbă: Limba română</description><Point><coordinates>25.101596,45.556667,0</coordinates></Point></Placemark>
<Placemark><name>Pârâul Pecineaga</name><description>Nume: Pârâul Pecineaga, Tip: pecineaga, Nivel: 3, Județ: Buzau, Formă: Vale, ID: 12269 <br /><b>Variante</b><br />Nume: Pârâul Pecineaga, Hartă: Geomil 25000, Limbă: Limba română</description><Point><coordinates>26.750954,45.504137,0</coordinates></Point></Placemark>
<Placemark><name>Pârâu Peceneaga</name><description>Nume: Pârâu Peceneaga, Tip: pecineaga, Nivel: 3, Județ: Caras Severin, Formă: Vale, ID: 8666 <br /><b>Variante</b><br />Nume: Pârâu Peceneaga, Hartă: Geomil 25000, Limbă: Limba română</description><Point><coordinates>22.595957,45.404952,0</coordinates></Point></Placemark>
<Placemark><name>Pecinișca</name><description>Nume: Pecinișca, Tip: pecinișca, Nivel: 3, Județ: Caras Severin, Formă: Localitate, ID: 12649 <br /><b>Variante</b><br />Nume: Pecinișca, Hartă: Geomil 25000, Limbă: Limba română</description><Point><coordinates>22.403758,44.859591,0</coordinates></Point></Placemark>
<Placemark><name>Pârâul Pecineaga</name><description>Nume: Pârâul Pecineaga, Tip: pecineaga, Nivel: 3, Județ: Tulcea, Formă: Vale, ID: 6700, ID Părinte: 6699 <br /><b>Variante</b><br />Nume: Pârâul Pecineaga, Hartă: PDT, Limbă: Limba română</description><Point><coordinates>28.167642,45.003318,0</coordinates></Point></Placemark>
<Placemark><LineString id="6700_6699"><tessellate>1</tessellate><coordinates>28.167642,45.003318,0.
28.147114,45.005847,0</coordinates></LineString><Style><LineStyle><width>3</width></LineStyle></Style></Placemark>
<Placemark><name>Pecineaga</name><description>Nume: Pecineaga, Tip: pecineaga, Nivel: 3, Județ: Tulcea, Formă: Localitate, ID: 6699 <br /><b>Variante</b><br />Nume: Pecineaga, Hartă: PDT, Limbă: Limba română<br />Nume: Peceneaga, Hartă: Geomil 25000, Limbă: Limba română</description><Point><coordinates>28.147114,45.005847,0</coordinates></Point></Placemark></Document></kml>