<?xml version="1.0" encoding="UTF-8"?><kml xmlns="http://www.opengis.net/kml/2.2"><Document><Placemark><name>Dealu Chicirei</name><description>Nume: Dealu Chicirei, Tip: chicira, Nivel: 4, Județ: Alba, Formă: Deal, ID: 13153 <br /><b>Variante</b><br />Nume: Dealu Chicirei, Hartă: Geomil 25000, Limbă: Limba română</description><Point><coordinates>23.474394,46.110086,0</coordinates></Point></Placemark>
<Placemark><name>Vârfu Chiciri</name><description>Nume: Vârfu Chiciri, Tip: chicira, Nivel: 4, Județ: Arad, Formă: Înălțime, ID: 13495 <br /><b>Variante</b><br />Nume: Vârfu Chiciri, Hartă: Geomil 25000, Limbă: Limba română</description><Point><coordinates>22.080838,46.050303,0</coordinates></Point></Placemark>
<Placemark><name>Dealu Chicira</name><description>Nume: Dealu Chicira, Tip: chicira, Nivel: 4, Județ: Cluj, Formă: Deal, ID: 13069 <br /><b>Variante</b><br />Nume: Dealu Chicira, Hartă: Geomil 25000, Limbă: Limba română</description><Point><coordinates>22.843725,46.827492,0</coordinates></Point></Placemark>
<Placemark><name>Dealul Chicirei</name><description>Nume: Dealul Chicirei, Tip: chicira, Nivel: 4, Județ: Galati, Formă: Deal, ID: 13536 <br /><b>Variante</b><br />Nume: Dealul Chicirei, Hartă: PDT, Limbă: Limba română<br />Nume: Dealul Chicirei, Hartă: Geomil 25000, Limbă: Limba română</description><Point><coordinates>27.980099,46.042521,0</coordinates></Point></Placemark>
<Placemark><name>Dealul Chicirii</name><description>Nume: Dealul Chicirii, Tip: chicira, Nivel: 4, Județ: Vaslui, Formă: Deal, ID: 13942 <br /><b>Variante</b><br />Nume: Dealul Chicirii, Hartă: Moldova (1892-1898), Limbă: Limba română</description><Point><coordinates>27.781758,46.532106,0</coordinates></Point></Placemark></Document></kml>