<?xml version="1.0" encoding="UTF-8"?><kml xmlns="http://www.opengis.net/kml/2.2"><Document><Placemark><name>Cioara</name><description>Nume: Cioara, Tip: ciori, Nivel: 2, Județ: Alba, Formă: Altele, ID: 1920 <br /><b>Variante</b><br />Nume: Cioara, Hartă: Geomil 25000, Limbă: Limba română</description><Point><coordinates>23.973802,46.226655,0</coordinates></Point></Placemark>
<Placemark><name>Cioara</name><description>Nume: Cioara, Tip: ciori, Nivel: 2, Județ: Alba, Formă: Localitate, ID: 5567 <br /><b>Variante</b><br />Nume: Cioara, Hartă: PDT, Limbă: Limba română</description><Point><coordinates>23.396171,45.907290,0</coordinates></Point></Placemark>
<Placemark><name>Cioara de Sus</name><description>Nume: Cioara de Sus, Tip: ciori, Nivel: 2, Județ: Alba, Formă: Localitate, ID: 13063 <br /><b>Variante</b><br />Nume: Cioara de Sus, Hartă: Geomil 25000, Limbă: Limba română</description><Point><coordinates>23.311521,46.376512,0</coordinates></Point></Placemark>
<Placemark><name>Dealu Cioarei</name><description>Nume: Dealu Cioarei, Tip: ciori, Nivel: 2, Județ: Alba, Formă: Deal, ID: 11237 <br /><b>Variante</b><br />Nume: Dealu Cioarei, Hartă: Geomil 25000, Limbă: Limba română</description><Point><coordinates>23.468039,45.825764,0</coordinates></Point></Placemark>
<Placemark><name>Dealul Ciorii</name><description>Nume: Dealul Ciorii, Tip: ciori, Nivel: 2, Județ: Alba, Formă: Deal, ID: 11238, ID Părinte: 5567 <br /><b>Variante</b><br />Nume: Dealul Ciorii, Hartă: ANCPI, Limbă: Limba română</description><Point><coordinates>23.419322,45.904849,0</coordinates></Point></Placemark>
<Placemark><LineString id="11238_5567"><tessellate>1</tessellate><coordinates>23.419322,45.904849,0.
23.396171,45.907290,0</coordinates></LineString><Style><LineStyle><width>3</width></LineStyle></Style></Placemark>
<Placemark><name>Dealul Ciorii</name><description>Nume: Dealul Ciorii, Tip: ciori, Nivel: 2, Județ: Alba, Formă: Deal, ID: 11826, ID Părinte: 5567 <br /><b>Variante</b><br />Nume: Dealul Ciorii, Hartă: Imperiul Habsburgic (1887), Limbă: Limba română</description><Point><coordinates>23.398440,45.868678,0</coordinates></Point></Placemark>
<Placemark><LineString id="11826_5567"><tessellate>1</tessellate><coordinates>23.398440,45.868678,0.
23.396171,45.907290,0</coordinates></LineString><Style><LineStyle><width>3</width></LineStyle></Style></Placemark>
<Placemark><name>Pădurea Cioara</name><description>Nume: Pădurea Cioara, Tip: ciori, Nivel: 2, Județ: Alba, Formă: Pădure, ID: 8639, ID Părinte: 1920 <br /><b>Variante</b><br />Nume: Pădurea Cioara, Hartă: PDT, Limbă: Limba română</description><Point><coordinates>23.977224,46.221752,0</coordinates></Point></Placemark>
<Placemark><LineString id="8639_1920"><tessellate>1</tessellate><coordinates>23.977224,46.221752,0.
23.973802,46.226655,0</coordinates></LineString><Style><LineStyle><width>3</width></LineStyle></Style></Placemark>
<Placemark><name>Valea Cioarei</name><description>Nume: Valea Cioarei, Tip: ciori, Nivel: 2, Județ: Alba, Formă: Vale, ID: 8644 <br /><b>Variante</b><br />Nume: Valea Cioarei, Hartă: PDT, Limbă: Limba română</description><Point><coordinates>23.669254,46.287051,0</coordinates></Point></Placemark>
<Placemark><name>Valea Cioarei</name><description>Nume: Valea Cioarei, Tip: ciori, Nivel: 2, Județ: Alba, Formă: Vale, ID: 11906 <br /><b>Variante</b><br />Nume: Valea Cioarei, Hartă: PDT, Limbă: Limba română</description><Point><coordinates>24.160954,46.225893,0</coordinates></Point></Placemark>
<Placemark><name>Viile Cioara</name><description>Nume: Viile Cioara, Tip: ciori, Nivel: 2, Județ: Alba, Formă: Altele, ID: 8638, ID Părinte: 1920 <br /><b>Variante</b><br />Nume: Viile Cioara, Hartă: PDT, Limbă: Limba română</description><Point><coordinates>23.980787,46.235139,0</coordinates></Point></Placemark>
<Placemark><LineString id="8638_1920"><tessellate>1</tessellate><coordinates>23.980787,46.235139,0.
23.973802,46.226655,0</coordinates></LineString><Style><LineStyle><width>3</width></LineStyle></Style></Placemark>
<Placemark><name>Culmea Cocoșului</name><description>Nume: Culmea Cocoșului, Tip: cocoș de munte, Nivel: 2, Județ: Alba, Formă: Înălțime, ID: 14202 <br /><b>Variante</b><br />Nume: Culmea Cocoșului, Hartă: Geomil 25000, Limbă: Limba română</description><Point><coordinates>23.390444,45.644779,0</coordinates></Point></Placemark>
<Placemark><name>Valea Cocoșului</name><description>Nume: Valea Cocoșului, Tip: cocoș de munte, Nivel: 2, Județ: Alba, Formă: Vale, ID: 5577 <br /><b>Variante</b><br />Nume: Valea Cocoșului, Hartă: Geomil 25000, Limbă: Limba română</description><Point><coordinates>23.442175,46.143887,0</coordinates></Point></Placemark>
<Placemark><name>Coasta Corbului</name><description>Nume: Coasta Corbului, Tip: corb, Nivel: 2, Județ: Alba, Formă: Înălțime, ID: 8160, ID Părinte: 8159 <br /><b>Variante</b><br />Nume: Coasta Corbului, Hartă: PDT, Limbă: Limba română</description><Point><coordinates>24.109964,46.147268,0</coordinates></Point></Placemark>
<Placemark><LineString id="8160_8159"><tessellate>1</tessellate><coordinates>24.109964,46.147268,0.
24.111174,46.146073,0</coordinates></LineString><Style><LineStyle><width>3</width></LineStyle></Style></Placemark>
<Placemark><name>Colțu Corbului</name><description>Nume: Colțu Corbului, Tip: corb, Nivel: 2, Județ: Alba, Formă: Înălțime, ID: 2570 <br /><b>Variante</b><br />Nume: Colțu Corbului, Hartă: Geomil 25000, Limbă: Limba română</description><Point><coordinates>23.338863,46.107890,0</coordinates></Point></Placemark>
<Placemark><name>Dealu Corbului</name><description>Nume: Dealu Corbului, Tip: corb, Nivel: 2, Județ: Alba, Formă: Deal, ID: 2569, ID Părinte: 2568 <br /><b>Variante</b><br />Nume: Dealu Corbului, Hartă: Geomil 25000, Limbă: Limba română</description><Point><coordinates>23.189351,46.043262,0</coordinates></Point></Placemark>
<Placemark><LineString id="2569_2568"><tessellate>1</tessellate><coordinates>23.189351,46.043262,0.
23.182871,46.041339,0</coordinates></LineString><Style><LineStyle><width>3</width></LineStyle></Style></Placemark>
<Placemark><name>Dealu Corbului</name><description>Nume: Dealu Corbului, Tip: corb, Nivel: 2, Județ: Alba, Formă: Deal, ID: 10242 <br /><b>Variante</b><br />Nume: Dealu Corbului, Hartă: Geomil 25000, Limbă: Limba română</description><Point><coordinates>22.896268,46.342174,0</coordinates></Point></Placemark>
<Placemark><name>Dealul Corbului</name><description>Nume: Dealul Corbului, Tip: corb, Nivel: 2, Județ: Alba, Formă: Deal, ID: 8159 <br /><b>Variante</b><br />Nume: Dealul Corbului, Hartă: PDT, Limbă: Limba română<br />Nume: Dealul Corbului, Hartă: Geomil 25000, Limbă: Limba română</description><Point><coordinates>24.111174,46.146073,0</coordinates></Point></Placemark>
<Placemark><name>Muchia Corbului</name><description>Nume: Muchia Corbului, Tip: corb, Nivel: 2, Județ: Alba, Formă: Înălțime, ID: 12245 <br /><b>Variante</b><br />Nume: Muchia Corbului, Hartă: Geomil 25000, Limbă: Limba română</description><Point><coordinates>23.273086,45.989327,0</coordinates></Point></Placemark>
<Placemark><name>Pârâu Corbului</name><description>Nume: Pârâu Corbului, Tip: corb, Nivel: 2, Județ: Alba, Formă: Vale, ID: 2578 <br /><b>Variante</b><br />Nume: Pârâu Corbului, Hartă: Geomil 25000, Limbă: Limba română</description><Point><coordinates>23.430100,46.128062,0</coordinates></Point></Placemark>
<Placemark><name>Pârâul Corbului</name><description>Nume: Pârâul Corbului, Tip: corb, Nivel: 2, Județ: Alba, Formă: Vale, ID: 8161, ID Părinte: 8159 <br /><b>Variante</b><br />Nume: Pârâul Corbului, Hartă: PDT, Limbă: Limba română</description><Point><coordinates>24.106248,46.147969,0</coordinates></Point></Placemark>
<Placemark><LineString id="8161_8159"><tessellate>1</tessellate><coordinates>24.106248,46.147969,0.
24.111174,46.146073,0</coordinates></LineString><Style><LineStyle><width>3</width></LineStyle></Style></Placemark>
<Placemark><name>Piatra Corbului</name><description>Nume: Piatra Corbului, Tip: corb, Nivel: 2, Județ: Alba, Formă: Înălțime, ID: 2568 <br /><b>Variante</b><br />Nume: Piatra Corbului, Hartă: Geomil 25000, Limbă: Limba română</description><Point><coordinates>23.182871,46.041339,0</coordinates></Point></Placemark>
<Placemark><name>Piatra Corbului</name><description>Nume: Piatra Corbului, Tip: corb, Nivel: 2, Județ: Alba, Formă: Înălțime, ID: 2579 <br /><b>Variante</b><br />Nume: Piatra Corbului, Hartă: Geomil 25000, Limbă: Limba română</description><Point><coordinates>23.392316,46.114807,0</coordinates></Point></Placemark>
<Placemark><name>Piatra Corbului</name><description>Nume: Piatra Corbului, Tip: corb, Nivel: 2, Județ: Alba, Formă: Înălțime, ID: 12901 <br /><b>Variante</b><br />Nume: Piatra Corbului, Hartă: Geomil 25000, Limbă: Limba română</description><Point><coordinates>23.380699,46.090963,0</coordinates></Point></Placemark>
<Placemark><name>Piatra Korbului</name><description>Nume: Piatra Korbului, Tip: corb, Nivel: 2, Județ: Alba, Formă: Înălțime, ID: 13965 <br /><b>Variante</b><br />Nume: Piatra Korbului, Hartă: Transilvania (1769-1773), Limbă: Limba română</description><Point><coordinates>23.540874,45.830518,0</coordinates></Point></Placemark>
<Placemark><name>Valea Corbu</name><description>Nume: Valea Corbu, Tip: corb, Nivel: 2, Județ: Alba, Formă: Vale, ID: 2582 <br /><b>Variante</b><br />Nume: Valea Corbu, Hartă: Geomil 25000, Limbă: Limba română</description><Point><coordinates>23.298330,46.500798,0</coordinates></Point></Placemark>
<Placemark><name>Valea Corbului</name><description>Nume: Valea Corbului, Tip: corb, Nivel: 2, Județ: Alba, Formă: Vale, ID: 5578 <br /><b>Variante</b><br />Nume: Valea Corbului, Hartă: Geomil 25000, Limbă: Limba română</description><Point><coordinates>23.424786,46.212134,0</coordinates></Point></Placemark>
<Placemark><name>Valje Korbuluj</name><description>Nume: Valje Korbuluj, Tip: corb, Nivel: 2, Județ: Alba, Formă: Vale, ID: 12761 <br /><b>Variante</b><br />Nume: Valje Korbuluj, Hartă: Transilvania (1769-1773), Limbă: Limba română</description><Point><coordinates>23.306603,46.405582,0</coordinates></Point></Placemark>
<Placemark><name>Vârfu Piatra Corbului</name><description>Nume: Vârfu Piatra Corbului, Tip: corb, Nivel: 2, Județ: Alba, Formă: Înălțime, ID: 4392 <br /><b>Variante</b><br />Nume: Vârfu Piatra Corbului, Hartă: Geomil 25000, Limbă: Limba română<br />Nume: Piatra Corbului, Hartă: PDT, Limbă: Limba română</description><Point><coordinates>23.548285,46.247560,0</coordinates></Point></Placemark>
<Placemark><name>Vârfu Piatra Corbului</name><description>Nume: Vârfu Piatra Corbului, Tip: corb, Nivel: 2, Județ: Alba, Formă: Înălțime, ID: 12549 <br /><b>Variante</b><br />Nume: Vârfu Piatra Corbului, Hartă: Geomil 25000, Limbă: Limba română<br />Nume: Piatra Corbului, Hartă: PDT, Limbă: Limba română</description><Point><coordinates>22.838979,46.483598,0</coordinates></Point></Placemark>
<Placemark><name>Chicra Cucului</name><description>Nume: Chicra Cucului, Tip: cuc, Nivel: 2, Județ: Alba, Formă: Înălțime, ID: 12553 <br /><b>Variante</b><br />Nume: Chicra Cucului, Hartă: PDT, Limbă: Limba română</description><Point><coordinates>22.789423,46.507619,0</coordinates></Point></Placemark>
<Placemark><name>Muntele Găina Cruce</name><description>Nume: Muntele Găina Cruce, Tip: găină de munte, Nivel: 2, Județ: Alba, Formă: Înălțime, ID: 5590, ID Părinte: 5591 <br /><b>Variante</b><br />Nume: Muntele Găina Cruce, Hartă: Geomil 25000, Limbă: Limba română</description><Point><coordinates>22.761275,46.352921,0</coordinates></Point></Placemark>
<Placemark><LineString id="5590_5591"><tessellate>1</tessellate><coordinates>22.761275,46.352921,0.
22.744015,46.346436,0</coordinates></LineString><Style><LineStyle><width>3</width></LineStyle></Style></Placemark>
<Placemark><name>Vârfu Șoimului</name><description>Nume: Vârfu Șoimului, Tip: șoim, Nivel: 2, Județ: Alba, Formă: Înălțime, ID: 2576 <br /><b>Variante</b><br />Nume: Vârfu Șoimului, Hartă: Geomil 25000, Limbă: Limba română</description><Point><coordinates>23.439327,46.071031,0</coordinates></Point></Placemark>
<Placemark><name>Dealul Uliului</name><description>Nume: Dealul Uliului, Tip: uliu, Nivel: 2, Județ: Alba, Formă: Deal, ID: 2567 <br /><b>Variante</b><br />Nume: Dealul Uliului, Hartă: Geomil 25000, Limbă: Limba română</description><Point><coordinates>23.205667,46.042491,0</coordinates></Point></Placemark>
<Placemark><name>Pârâu Vulturului</name><description>Nume: Pârâu Vulturului, Tip: vultur, Nivel: 2, Județ: Alba, Formă: Vale, ID: 5910, ID Părinte: 5912 <br /><b>Variante</b><br />Nume: Pârâu Vulturului, Hartă: Geomil 25000, Limbă: Limba română</description><Point><coordinates>22.799658,46.538721,0</coordinates></Point></Placemark>
<Placemark><LineString id="5910_5912"><tessellate>1</tessellate><coordinates>22.799658,46.538721,0.
22.792565,46.532973,0</coordinates></LineString><Style><LineStyle><width>3</width></LineStyle></Style></Placemark>
<Placemark><name>Vârful Piatra Vulturului</name><description>Nume: Vârful Piatra Vulturului, Tip: vultur, Nivel: 2, Județ: Alba, Formă: Înălțime, ID: 5912 <br /><b>Variante</b><br />Nume: Vârful Piatra Vulturului, Hartă: Geomil 25000, Limbă: Limba română</description><Point><coordinates>22.792565,46.532973,0</coordinates></Point></Placemark>
<Placemark><name>Vultur B.</name><description>Nume: Vultur B., Tip: vultur, Nivel: 2, Județ: Alba, Formă: Înălțime, ID: 11950 <br /><b>Variante</b><br />Nume: Vultur B., Hartă: Transilvania (1769-1773), Limbă: Limba română</description><Point><coordinates>23.476190,46.290806,0</coordinates></Point></Placemark>
<Placemark><name>Dealu Cocoș</name><description>Nume: Dealu Cocoș, Tip: cocoș, Nivel: 3, Județ: Arad, Formă: Deal, ID: 6994 <br /><b>Variante</b><br />Nume: Dealu Cocoș, Hartă: Geomil 25000, Limbă: Limba română<br />Nume: Dealu Cocoș, Hartă: PDT, Limbă: Limba română</description><Point><coordinates>22.131948,46.445225,0</coordinates></Point></Placemark>
<Placemark><name>Dealu Corbu</name><description>Nume: Dealu Corbu, Tip: corb, Nivel: 2, Județ: Arad, Formă: Deal, ID: 955 <br /><b>Variante</b><br />Nume: Dealu Corbu, Hartă: Geomil 25000, Limbă: Limba română</description><Point><coordinates>21.863201,46.117511,0</coordinates></Point></Placemark>
<Placemark><name>Dealu Corbului</name><description>Nume: Dealu Corbului, Tip: corb, Nivel: 2, Județ: Arad, Formă: Deal, ID: 962 <br /><b>Variante</b><br />Nume: Dealu Corbului, Hartă: Geomil 25000, Limbă: Limba română</description><Point><coordinates>21.935939,46.208003,0</coordinates></Point></Placemark>
<Placemark><name>Dealu Corbului</name><description>Nume: Dealu Corbului, Tip: corb, Nivel: 2, Județ: Arad, Formă: Deal, ID: 1941 <br /><b>Variante</b><br />Nume: Dealu Corbului, Hartă: Geomil 25000, Limbă: Limba română<br />Nume: Dealul Corbu, Hartă: PDT, Limbă: Limba română</description><Point><coordinates>22.337741,46.438904,0</coordinates></Point></Placemark>
<Placemark><name>Dealu Corbului</name><description>Nume: Dealu Corbului, Tip: corb, Nivel: 2, Județ: Arad, Formă: Deal, ID: 6279 <br /><b>Variante</b><br />Nume: Dealu Corbului, Hartă: Geomil 25000, Limbă: Limba română</description><Point><coordinates>22.347877,46.332248,0</coordinates></Point></Placemark>
<Placemark><name>Dealul Corbului</name><description>Nume: Dealul Corbului, Tip: corb, Nivel: 2, Județ: Arad, Formă: Deal, ID: 5608 <br /><b>Variante</b><br />Nume: Dealul Corbului, Hartă: PDT, Limbă: Limba română</description><Point><coordinates>22.348570,46.339037,0</coordinates></Point></Placemark>
<Placemark><name>Izvoru Corbului</name><description>Nume: Izvoru Corbului, Tip: corb, Nivel: 2, Județ: Arad, Formă: Altele, ID: 957 <br /><b>Variante</b><br />Nume: Izvoru Corbului, Hartă: Geomil 25000, Limbă: Limba română</description><Point><coordinates>21.693289,46.253427,0</coordinates></Point></Placemark>
<Placemark><name>Pârâul Corbu</name><description>Nume: Pârâul Corbu, Tip: corb, Nivel: 2, Județ: Arad, Formă: Vale, ID: 10936 <br /><b>Variante</b><br />Nume: Pârâul Corbu, Hartă: Geomil 25000, Limbă: Limba română</description><Point><coordinates>22.142400,46.184853,0</coordinates></Point></Placemark>
<Placemark><name>Pârâul Corbului</name><description>Nume: Pârâul Corbului, Tip: corb, Nivel: 2, Județ: Arad, Formă: Vale, ID: 4201 <br /><b>Variante</b><br />Nume: Pârâul Corbului, Hartă: PDT, Limbă: Limba română</description><Point><coordinates>22.286177,46.385641,0</coordinates></Point></Placemark>
<Placemark><name>Râtul Corbului</name><description>Nume: Râtul Corbului, Tip: corb, Nivel: 2, Județ: Arad, Formă: Altele, ID: 8032 <br /><b>Variante</b><br />Nume: Râtul Corbului, Hartă: PDT, Limbă: Limba română</description><Point><coordinates>21.713633,46.470157,0</coordinates></Point></Placemark>
<Placemark><name>Valea Corbului</name><description>Nume: Valea Corbului, Tip: corb, Nivel: 2, Județ: Arad, Formă: Vale, ID: 4199, ID Părinte: 1941 <br /><b>Variante</b><br />Nume: Valea Corbului, Hartă: Geomil 25000, Limbă: Limba română<br />Nume: Valea Corbului, Hartă: PDT, Limbă: Limba română</description><Point><coordinates>22.340320,46.426664,0</coordinates></Point></Placemark>
<Placemark><LineString id="4199_1941"><tessellate>1</tessellate><coordinates>22.340320,46.426664,0.
22.337741,46.438904,0</coordinates></LineString><Style><LineStyle><width>3</width></LineStyle></Style></Placemark>
<Placemark><name>Valea Corbului</name><description>Nume: Valea Corbului, Tip: corb, Nivel: 2, Județ: Arad, Formă: Vale, ID: 7657 <br /><b>Variante</b><br />Nume: Valea Corbului, Hartă: PDT, Limbă: Limba română</description><Point><coordinates>22.209231,46.362590,0</coordinates></Point></Placemark>
<Placemark><name>Valea Corbului</name><description>Nume: Valea Corbului, Tip: corb, Nivel: 2, Județ: Arad, Formă: Vale, ID: 10233 <br /><b>Variante</b><br />Nume: Valea Corbului, Hartă: Geomil 25000, Limbă: Limba română</description><Point><coordinates>22.116007,45.962104,0</coordinates></Point></Placemark>
<Placemark><name>Veljul Corbului</name><description>Nume: Veljul Corbului, Tip: corb, Nivel: 2, Județ: Arad, Formă: Altele, ID: 4101 <br /><b>Variante</b><br />Nume: Veljul Corbului, Hartă: PDT, Limbă: Limba română</description><Point><coordinates>21.911131,46.586339,0</coordinates></Point></Placemark>
<Placemark><name>Ograda Cucului</name><description>Nume: Ograda Cucului, Tip: cuc, Nivel: 2, Județ: Arad, Formă: Altele, ID: 11673 <br /><b>Variante</b><br />Nume: Ograda Cucului, Hartă: Geomil 25000, Limbă: Limba română</description><Point><coordinates>21.814130,46.535569,0</coordinates></Point></Placemark>
<Placemark><name>Găina</name><description>Nume: Găina, Tip: găină de munte, Nivel: 2, Județ: Arad, Formă: Înălțime, ID: 5591 <br /><b>Variante</b><br />Nume: Găina, Hartă: Geomil 25000, Limbă: Limba română</description><Point><coordinates>22.744015,46.346436,0</coordinates></Point></Placemark>
<Placemark><name>Valea Găinii</name><description>Nume: Valea Găinii, Tip: găină de munte, Nivel: 2, Județ: Arad, Formă: Vale, ID: 5592, ID Părinte: 5591 <br /><b>Variante</b><br />Nume: Valea Găinii, Hartă: Geomil 25000, Limbă: Limba română</description><Point><coordinates>22.713399,46.342240,0</coordinates></Point></Placemark>
<Placemark><LineString id="5592_5591"><tessellate>1</tessellate><coordinates>22.713399,46.342240,0.
22.744015,46.346436,0</coordinates></LineString><Style><LineStyle><width>3</width></LineStyle></Style></Placemark>
<Placemark><name>Fântâna Gâștelor</name><description>Nume: Fântâna Gâștelor, Tip: gâscă, Nivel: 2, Județ: Arad, Formă: Altele, ID: 10368 <br /><b>Variante</b><br />Nume: Fântâna Gâștelor, Hartă: PDT, Limbă: Limba română<br />Nume: Fântâna Gâștelor, Hartă: Geomil 25000, Limbă: Limba română</description><Point><coordinates>21.511445,46.532121,0</coordinates></Point></Placemark>
<Placemark><name>Pârâul Șoimului</name><description>Nume: Pârâul Șoimului, Tip: șoim, Nivel: 2, Județ: Arad, Formă: Vale, ID: 7651 <br /><b>Variante</b><br />Nume: Pârâul Șoimului, Hartă: PDT, Limbă: Limba română</description><Point><coordinates>22.304432,46.397467,0</coordinates></Point></Placemark>
<Placemark><name>Dealu Stârcu</name><description>Nume: Dealu Stârcu, Tip: stârci, Nivel: 2, Județ: Arad, Formă: Deal, ID: 10218 <br /><b>Variante</b><br />Nume: Dealu Stârcu, Hartă: Geomil 25000, Limbă: Limba română</description><Point><coordinates>22.231539,46.137500,0</coordinates></Point></Placemark>
<Placemark><name>Pârâu Stârcu</name><description>Nume: Pârâu Stârcu, Tip: stârci, Nivel: 2, Județ: Arad, Formă: Vale, ID: 10217, ID Părinte: 10218 <br /><b>Variante</b><br />Nume: Pârâu Stârcu, Hartă: Geomil 25000, Limbă: Limba română</description><Point><coordinates>22.236165,46.120479,0</coordinates></Point></Placemark>
<Placemark><LineString id="10217_10218"><tessellate>1</tessellate><coordinates>22.236165,46.120479,0.
22.231539,46.137500,0</coordinates></LineString><Style><LineStyle><width>3</width></LineStyle></Style></Placemark>
<Placemark><name>Dealu Uliului</name><description>Nume: Dealu Uliului, Tip: uliu, Nivel: 2, Județ: Arad, Formă: Deal, ID: 6277 <br /><b>Variante</b><br />Nume: Dealu Uliului, Hartă: Geomil 25000, Limbă: Limba română</description><Point><coordinates>22.480175,46.310230,0</coordinates></Point></Placemark>
<Placemark><name>Pârâul Uliului</name><description>Nume: Pârâul Uliului, Tip: uliu, Nivel: 2, Județ: Arad, Formă: Vale, ID: 7653 <br /><b>Variante</b><br />Nume: Pârâul Uliului, Hartă: PDT, Limbă: Limba română</description><Point><coordinates>22.281731,46.428318,0</coordinates></Point></Placemark>
<Placemark><name>Dealu Chicera Vulturului</name><description>Nume: Dealu Chicera Vulturului, Tip: vultur, Nivel: 2, Județ: Arad, Formă: Deal, ID: 5594 <br /><b>Variante</b><br />Nume: Dealu Chicera Vulturului, Hartă: Geomil 25000, Limbă: Limba română</description><Point><coordinates>22.654524,46.336662,0</coordinates></Point></Placemark>
<Placemark><name>Vulturul</name><description>Nume: Vulturul, Tip: vultur, Nivel: 2, Județ: Arad, Formă: Înălțime, ID: 9001 <br /><b>Variante</b><br />Nume: Vulturul, Hartă: PDT, Limbă: Limba română</description><Point><coordinates>22.464340,46.275128,0</coordinates></Point></Placemark>
<Placemark><name>La Lacul Berzei</name><description>Nume: La Lacul Berzei, Tip: barză, Nivel: 3, Județ: Arges, Formă: Lac, ID: 8329 <br /><b>Variante</b><br />Nume: La Lacul Berzei, Hartă: PDT, Limbă: Limba română<br />Nume: La Lacu Berzei, Hartă: Geomil 25000, Limbă: Limba română</description><Point><coordinates>24.949822,44.477033,0</coordinates></Point></Placemark>
<Placemark><name>La Poiana Berzei</name><description>Nume: La Poiana Berzei, Tip: barză, Nivel: 3, Județ: Arges, Formă: Poiană, ID: 8330, ID Părinte: 8329 <br /><b>Variante</b><br />Nume: La Poiana Berzei, Hartă: PDT, Limbă: Limba română<br />Nume: La Poiana Berzei, Hartă: Geomil 25000, Limbă: Limba română</description><Point><coordinates>24.941999,44.485224,0</coordinates></Point></Placemark>
<Placemark><LineString id="8330_8329"><tessellate>1</tessellate><coordinates>24.941999,44.485224,0.
24.949822,44.477033,0</coordinates></LineString><Style><LineStyle><width>3</width></LineStyle></Style></Placemark>
<Placemark><name>Pădurea Stuful Berzei</name><description>Nume: Pădurea Stuful Berzei, Tip: barză, Nivel: 3, Județ: Arges, Formă: Pădure, ID: 3718 <br /><b>Variante</b><br />Nume: Pădurea Stuful Berzei, Hartă: PDT, Limbă: Limba română</description><Point><coordinates>25.136239,44.573496,0</coordinates></Point></Placemark>
<Placemark><name>Valea Barza</name><description>Nume: Valea Barza, Tip: barză, Nivel: 3, Județ: Arges, Formă: Vale, ID: 8331, ID Părinte: 8329 <br /><b>Variante</b><br />Nume: Valea Barza, Hartă: Geomil 25000, Limbă: Limba română</description><Point><coordinates>24.930105,44.465899,0</coordinates></Point></Placemark>
<Placemark><LineString id="8331_8329"><tessellate>1</tessellate><coordinates>24.930105,44.465899,0.
24.949822,44.477033,0</coordinates></LineString><Style><LineStyle><width>3</width></LineStyle></Style></Placemark>
<Placemark><name>Valea Berzei</name><description>Nume: Valea Berzei, Tip: barză, Nivel: 3, Județ: Arges, Formă: Vale, ID: 14172 <br /><b>Variante</b><br />Nume: Valea Berzei, Hartă: PDT, Limbă: Limba română</description><Point><coordinates>25.078998,45.019507,0</coordinates></Point></Placemark>
<Placemark><name>Cioara</name><description>Nume: Cioara, Tip: ciori, Nivel: 2, Județ: Arges, Formă: Vale, ID: 10181 <br /><b>Variante</b><br />Nume: Cioara, Hartă: Geomil 25000, Limbă: Limba română</description><Point><coordinates>24.883292,45.511542,0</coordinates></Point></Placemark>
<Placemark><name>Culmea Ciorii</name><description>Nume: Culmea Ciorii, Tip: ciori, Nivel: 2, Județ: Arges, Formă: Înălțime, ID: 1481, ID Părinte: 1480 <br /><b>Variante</b><br />Nume: Culmea Ciorii, Hartă: Geomil 25000, Limbă: Limba română</description><Point><coordinates>25.273446,45.338860,0</coordinates></Point></Placemark>
<Placemark><LineString id="1481_1480"><tessellate>1</tessellate><coordinates>25.273446,45.338860,0.
25.246701,45.332801,0</coordinates></LineString><Style><LineStyle><width>3</width></LineStyle></Style></Placemark>
<Placemark><name>Dealul Ciorii</name><description>Nume: Dealul Ciorii, Tip: ciori, Nivel: 2, Județ: Arges, Formă: Deal, ID: 1423 <br /><b>Variante</b><br />Nume: Dealul Ciorii, Hartă: Geomil 25000, Limbă: Limba română</description><Point><coordinates>24.692337,45.146325,0</coordinates></Point></Placemark>
<Placemark><name>La Cioara</name><description>Nume: La Cioara, Tip: ciori, Nivel: 2, Județ: Arges, Formă: Altele, ID: 1439 <br /><b>Variante</b><br />Nume: La Cioara, Hartă: Geomil 25000, Limbă: Limba română</description><Point><coordinates>24.625831,45.284242,0</coordinates></Point></Placemark>
<Placemark><name>Muntele Cioara</name><description>Nume: Muntele Cioara, Tip: ciori, Nivel: 2, Județ: Arges, Formă: Înălțime, ID: 1480 <br /><b>Variante</b><br />Nume: Muntele Cioara, Hartă: Geomil 25000, Limbă: Limba română</description><Point><coordinates>25.246701,45.332801,0</coordinates></Point></Placemark>
<Placemark><name>Valea Cioroiului</name><description>Nume: Valea Cioroiului, Tip: cioroi, Nivel: 3, Județ: Arges, Formă: Vale, ID: 3397 <br /><b>Variante</b><br />Nume: Valea Cioroiului, Hartă: Geomil 25000, Limbă: Limba română<br />Nume: Valea Cioroiului, Hartă: PDT, Limbă: Limba română</description><Point><coordinates>24.865110,44.475747,0</coordinates></Point></Placemark>
<Placemark><name>Pădurea Cocorului</name><description>Nume: Pădurea Cocorului, Tip: cocor, Nivel: 2, Județ: Arges, Formă: Pădure, ID: 4784, ID Părinte: 14553 <br /><b>Variante</b><br />Nume: Pădurea Cocorului, Hartă: PDT, Limbă: Limba română<br />Nume: Pădurea Cocorului, Hartă: Geomil 25000, Limbă: Limba română</description><Point><coordinates>24.587912,44.729083,0</coordinates></Point></Placemark>
<Placemark><LineString id="4784_14553"><tessellate>1</tessellate><coordinates>24.587912,44.729083,0.
24.592630,44.694253,0</coordinates></LineString><Style><LineStyle><width>3</width></LineStyle></Style></Placemark>
<Placemark><name>Dealul Cocoșului</name><description>Nume: Dealul Cocoșului, Tip: cocoș, Nivel: 3, Județ: Arges, Formă: Deal, ID: 10204 <br /><b>Variante</b><br />Nume: Dealul Cocoșului, Hartă: Geomil 25000, Limbă: Limba română</description><Point><coordinates>24.516752,45.242550,0</coordinates></Point></Placemark>
<Placemark><name>La Lacul Cocoșului</name><description>Nume: La Lacul Cocoșului, Tip: cocoș, Nivel: 3, Județ: Arges, Formă: Lac, ID: 14399 <br /><b>Variante</b><br />Nume: La Lacul Cocoșului, Hartă: PDT, Limbă: Limba română</description><Point><coordinates>24.838944,44.468531,0</coordinates></Point></Placemark>
<Placemark><name>Poiana Cocoșului</name><description>Nume: Poiana Cocoșului, Tip: cocoș, Nivel: 3, Județ: Arges, Formă: Poiană, ID: 10120 <br /><b>Variante</b><br />Nume: Poiana Cocoșului, Hartă: PDT, Limbă: Limba română</description><Point><coordinates>25.017698,44.752547,0</coordinates></Point></Placemark>
<Placemark><name>Valea Cocoșului</name><description>Nume: Valea Cocoșului, Tip: cocoș, Nivel: 3, Județ: Arges, Formă: Vale, ID: 6883 <br /><b>Variante</b><br />Nume: Valea Cocoșului, Hartă: Geomil 25000, Limbă: Limba română</description><Point><coordinates>24.869560,45.107398,0</coordinates></Point></Placemark>
<Placemark><name>Valea Cocoșului</name><description>Nume: Valea Cocoșului, Tip: cocoș, Nivel: 3, Județ: Arges, Formă: Vale, ID: 11119 <br /><b>Variante</b><br />Nume: Valea Cocoșului, Hartă: PDT, Limbă: Limba română</description><Point><coordinates>24.969355,45.254016,0</coordinates></Point></Placemark>
<Placemark><name>Cocoșul</name><description>Nume: Cocoșul, Tip: cocoș de munte, Nivel: 2, Județ: Arges, Formă: Vale, ID: 13449 <br /><b>Variante</b><br />Nume: Cocoșul, Hartă: Geomil 25000, Limbă: Limba română</description><Point><coordinates>24.959602,45.422720,0</coordinates></Point></Placemark>
<Placemark><name>Corbi</name><description>Nume: Corbi, Tip: corb, Nivel: 2, Județ: Arges, Formă: Localitate, ID: 4975 <br /><b>Variante</b><br />Nume: Corbi, Hartă: Geomil 25000, Limbă: Limba română</description><Point><coordinates>24.802314,45.288094,0</coordinates></Point></Placemark>
<Placemark><name>Culmea Corbului</name><description>Nume: Culmea Corbului, Tip: corb, Nivel: 2, Județ: Arges, Formă: Înălțime, ID: 5043 <br /><b>Variante</b><br />Nume: Culmea Corbului, Hartă: Geomil 25000, Limbă: Limba română</description><Point><coordinates>25.182616,45.338216,0</coordinates></Point></Placemark>
<Placemark><name>Dealu Corbului</name><description>Nume: Dealu Corbului, Tip: corb, Nivel: 2, Județ: Arges, Formă: Deal, ID: 82 <br /><b>Variante</b><br />Nume: Dealu Corbului, Hartă: Geomil 25000, Limbă: Limba română<br />Nume: ур. Дялул-Корбулуй (Dealul Corbului), Hartă: Sovietică, Limbă: Limba română<br />Nume: Dealul Corbului, Hartă: PDT, Limbă: Limba română</description><Point><coordinates>24.685028,44.839029,0</coordinates></Point></Placemark>
<Placemark><name>Dealul Corbului</name><description>Nume: Dealul Corbului, Tip: corb, Nivel: 2, Județ: Arges, Formă: Deal, ID: 8355, ID Părinte: 8354 <br /><b>Variante</b><br />Nume: Dealul Corbului, Hartă: PDT, Limbă: Limba română</description><Point><coordinates>25.038687,44.909668,0</coordinates></Point></Placemark>
<Placemark><LineString id="8355_8354"><tessellate>1</tessellate><coordinates>25.038687,44.909668,0.
25.038516,44.907734,0</coordinates></LineString><Style><LineStyle><width>3</width></LineStyle></Style></Placemark>
<Placemark><name>Dealul Corbului</name><description>Nume: Dealul Corbului, Tip: corb, Nivel: 2, Județ: Arges, Formă: Deal, ID: 12829 <br /><b>Variante</b><br />Nume: Dealul Corbului, Hartă: Geomil 25000, Limbă: Limba română</description><Point><coordinates>25.078048,45.030467,0</coordinates></Point></Placemark>
<Placemark><name>Lunka Korbu</name><description>Nume: Lunka Korbu, Tip: corb, Nivel: 2, Județ: Arges, Formă: Localitate, ID: 5820 <br /><b>Variante</b><br />Nume: Lunka Korbu, Hartă: Austriacă, Limbă: Limba română<br />Nume: Lunca Corbului, Hartă: Geomil 25000, Limbă: Limba română</description><Point><coordinates>24.765315,44.687466,0</coordinates></Point></Placemark>
<Placemark><name>Malul Corbului</name><description>Nume: Malul Corbului, Tip: corb, Nivel: 2, Județ: Arges, Formă: Înălțime, ID: 5044, ID Părinte: 5043 <br /><b>Variante</b><br />Nume: Malul Corbului, Hartă: Geomil 25000, Limbă: Limba română</description><Point><coordinates>25.173433,45.339073,0</coordinates></Point></Placemark>
<Placemark><LineString id="5044_5043"><tessellate>1</tessellate><coordinates>25.173433,45.339073,0.
25.182616,45.338216,0</coordinates></LineString><Style><LineStyle><width>3</width></LineStyle></Style></Placemark>
<Placemark><name>Pârâul Malul Corbului</name><description>Nume: Pârâul Malul Corbului, Tip: corb, Nivel: 2, Județ: Arges, Formă: Vale, ID: 11114 <br /><b>Variante</b><br />Nume: Pârâul Malul Corbului, Hartă: PDT, Limbă: Limba română</description><Point><coordinates>24.644899,45.212761,0</coordinates></Point></Placemark>
<Placemark><name>Piscul Corbului</name><description>Nume: Piscul Corbului, Tip: corb, Nivel: 2, Județ: Arges, Formă: Înălțime, ID: 8348 <br /><b>Variante</b><br />Nume: Piscul Corbului, Hartă: PDT, Limbă: Limba română</description><Point><coordinates>24.984869,44.951611,0</coordinates></Point></Placemark>
<Placemark><name>Plaiul Râpa Corbului</name><description>Nume: Plaiul Râpa Corbului, Tip: corb, Nivel: 2, Județ: Arges, Formă: Înălțime, ID: 14528 <br /><b>Variante</b><br />Nume: Plaiul Râpa Corbului, Hartă: PDT, Limbă: Limba română</description><Point><coordinates>25.047507,45.161590,0</coordinates></Point></Placemark>
<Placemark><name>Râpa Corbului</name><description>Nume: Râpa Corbului, Tip: corb, Nivel: 2, Județ: Arges, Formă: Altele, ID: 1432 <br /><b>Variante</b><br />Nume: Râpa Corbului, Hartă: Geomil 25000, Limbă: Limba română</description><Point><coordinates>24.675879,45.296465,0</coordinates></Point></Placemark>
<Placemark><name>Valea Corbu</name><description>Nume: Valea Corbu, Tip: corb, Nivel: 2, Județ: Arges, Formă: Vale, ID: 6891 <br /><b>Variante</b><br />Nume: Valea Corbu, Hartă: Geomil 25000, Limbă: Limba română</description><Point><coordinates>24.808952,44.977103,0</coordinates></Point></Placemark>
<Placemark><name>Valea Corbu</name><description>Nume: Valea Corbu, Tip: corb, Nivel: 2, Județ: Arges, Formă: Vale, ID: 9362 <br /><b>Variante</b><br />Nume: Valea Corbu, Hartă: Geomil 25000, Limbă: Limba română</description><Point><coordinates>24.733311,44.862135,0</coordinates></Point></Placemark>
<Placemark><name>Valea Corbului</name><description>Nume: Valea Corbului, Tip: corb, Nivel: 2, Județ: Arges, Formă: Vale, ID: 4972 <br /><b>Variante</b><br />Nume: Valea Corbului, Hartă: Geomil 25000, Limbă: Limba română<br />Nume: Valea Corbului, Hartă: PDT, Limbă: Limba română</description><Point><coordinates>24.821175,45.183766,0</coordinates></Point></Placemark>
<Placemark><name>Valea Corbului</name><description>Nume: Valea Corbului, Tip: corb, Nivel: 2, Județ: Arges, Formă: Vale, ID: 5023 <br /><b>Variante</b><br />Nume: Valea Corbului, Hartă: Geomil 25000, Limbă: Limba română</description><Point><coordinates>25.071108,45.383867,0</coordinates></Point></Placemark>
<Placemark><name>Valea Corbului</name><description>Nume: Valea Corbului, Tip: corb, Nivel: 2, Județ: Arges, Formă: Vale, ID: 8349, ID Părinte: 8348 <br /><b>Variante</b><br />Nume: Valea Corbului, Hartă: PDT, Limbă: Limba română</description><Point><coordinates>24.987840,44.953365,0</coordinates></Point></Placemark>
<Placemark><LineString id="8349_8348"><tessellate>1</tessellate><coordinates>24.987840,44.953365,0.
24.984869,44.951611,0</coordinates></LineString><Style><LineStyle><width>3</width></LineStyle></Style></Placemark>
<Placemark><name>Valea Corbului</name><description>Nume: Valea Corbului, Tip: corb, Nivel: 2, Județ: Arges, Formă: Vale, ID: 8354 <br /><b>Variante</b><br />Nume: Valea Corbului, Hartă: PDT, Limbă: Limba română</description><Point><coordinates>25.038516,44.907734,0</coordinates></Point></Placemark>
<Placemark><name>Valea Corbului</name><description>Nume: Valea Corbului, Tip: corb, Nivel: 2, Județ: Arges, Formă: Localitate, ID: 8356, ID Părinte: 8354 <br /><b>Variante</b><br />Nume: Valea Corbului, Hartă: Geomil 25000, Limbă: Limba română</description><Point><coordinates>25.032858,44.911183,0</coordinates></Point></Placemark>
<Placemark><LineString id="8356_8354"><tessellate>1</tessellate><coordinates>25.032858,44.911183,0.
25.038516,44.907734,0</coordinates></LineString><Style><LineStyle><width>3</width></LineStyle></Style></Placemark>
<Placemark><name>Valea Corbului</name><description>Nume: Valea Corbului, Tip: corb, Nivel: 2, Județ: Arges, Formă: Vale, ID: 8446 <br /><b>Variante</b><br />Nume: Valea Corbului, Hartă: PDT, Limbă: Limba română</description><Point><coordinates>25.116838,45.109552,0</coordinates></Point></Placemark>
<Placemark><name>Valea Corbului</name><description>Nume: Valea Corbului, Tip: corb, Nivel: 2, Județ: Arges, Formă: Vale, ID: 9363 <br /><b>Variante</b><br />Nume: Valea Corbului, Hartă: Geomil 25000, Limbă: Limba română</description><Point><coordinates>24.681172,44.878611,0</coordinates></Point></Placemark>
<Placemark><name>Valea Corbului</name><description>Nume: Valea Corbului, Tip: corb, Nivel: 2, Județ: Arges, Formă: Vale, ID: 13977 <br /><b>Variante</b><br />Nume: Valea Corbului, Hartă: PDT, Limbă: Limba română</description><Point><coordinates>24.544634,45.216670,0</coordinates></Point></Placemark>
<Placemark><name>Valea Corbului</name><description>Nume: Valea Corbului, Tip: corb, Nivel: 2, Județ: Arges, Formă: Vale, ID: 14167 <br /><b>Variante</b><br />Nume: Valea Corbului, Hartă: PDT, Limbă: Limba română</description><Point><coordinates>25.083218,44.970725,0</coordinates></Point></Placemark>
<Placemark><name>Culmea Coțofenei</name><description>Nume: Culmea Coțofenei, Tip: coțofană, Nivel: 2, Județ: Arges, Formă: Înălțime, ID: 4987 <br /><b>Variante</b><br />Nume: Culmea Coțofenei, Hartă: Geomil 25000, Limbă: Limba română</description><Point><coordinates>24.578400,45.430170,0</coordinates></Point></Placemark>
<Placemark><name>Valea Coțofenei</name><description>Nume: Valea Coțofenei, Tip: coțofană, Nivel: 2, Județ: Arges, Formă: Vale, ID: 9447 <br /><b>Variante</b><br />Nume: Valea Coțofenei, Hartă: Geomil 25000, Limbă: Limba română</description><Point><coordinates>25.073130,44.443996,0</coordinates></Point></Placemark>
<Placemark><name>Dealul Cucilor</name><description>Nume: Dealul Cucilor, Tip: cuc, Nivel: 2, Județ: Arges, Formă: Deal, ID: 10165 <br /><b>Variante</b><br />Nume: Dealul Cucilor, Hartă: Geomil 25000, Limbă: Limba română</description><Point><coordinates>25.167655,45.089197,0</coordinates></Point></Placemark>
<Placemark><name>Vâlceaua Găinii</name><description>Nume: Vâlceaua Găinii, Tip: găini, Nivel: 2, Județ: Arges, Formă: Vale, ID: 603 <br /><b>Variante</b><br />Nume: Vâlceaua Găinii, Hartă: Geomil 25000, Limbă: Limba română</description><Point><coordinates>25.222159,45.517826,0</coordinates></Point></Placemark>
<Placemark><name>La Heleșteul Gâscanilor</name><description>Nume: La Heleșteul Gâscanilor, Tip: gâscan, Nivel: 3, Județ: Arges, Formă: Apă-deal-câmpie, ID: 1402 <br /><b>Variante</b><br />Nume: La Heleșteul Gâscanilor, Hartă: Geomil 25000, Limbă: Limba română</description><Point><coordinates>24.921201,44.724076,0</coordinates></Point></Placemark>
<Placemark><name>Ulmu Mierlei</name><description>Nume: Ulmu Mierlei, Tip: mierlă, Nivel: 2, Județ: Arges, Formă: Altele, ID: 3394 <br /><b>Variante</b><br />Nume: Ulmu Mierlei, Hartă: Geomil 25000, Limbă: Limba română</description><Point><coordinates>24.820903,44.436374,0</coordinates></Point></Placemark>
<Placemark><name>Valea Mierlei</name><description>Nume: Valea Mierlei, Tip: mierlă, Nivel: 2, Județ: Arges, Formă: Vale, ID: 4976 <br /><b>Variante</b><br />Nume: Valea Mierlei, Hartă: Geomil 25000, Limbă: Limba română<br />Nume: Valea Mierlei, Hartă: PDT, Limbă: Limba română</description><Point><coordinates>24.765828,45.321542,0</coordinates></Point></Placemark>
<Placemark><name>Dealul Păunilor</name><description>Nume: Dealul Păunilor, Tip: păuni, Nivel: 2, Județ: Arges, Formă: Deal, ID: 543 <br /><b>Variante</b><br />Nume: Dealul Păunilor, Hartă: Geomil 25000, Limbă: Limba română</description><Point><coordinates>25.051648,45.042484,0</coordinates></Point></Placemark>
<Placemark><name>Poiana Porumbiței</name><description>Nume: Poiana Porumbiței, Tip: porumbei, Nivel: 2, Județ: Arges, Formă: Poiană, ID: 12274 <br /><b>Variante</b><br />Nume: Poiana Porumbiței, Hartă: Geomil 25000, Limbă: Limba română</description><Point><coordinates>24.966876,45.355227,0</coordinates></Point></Placemark>
<Placemark><name>Valea Rândunica</name><description>Nume: Valea Rândunica, Tip: rândunică, Nivel: 2, Județ: Arges, Formă: Vale, ID: 12272 <br /><b>Variante</b><br />Nume: Valea Rândunica, Hartă: Geomil 25000, Limbă: Limba română</description><Point><coordinates>24.903161,45.331232,0</coordinates></Point></Placemark>
<Placemark><name>Gruiul Raței</name><description>Nume: Gruiul Raței, Tip: rațe, Nivel: 2, Județ: Arges, Formă: Înălțime, ID: 5030, ID Părinte: 5029 <br /><b>Variante</b><br />Nume: Gruiul Raței, Hartă: Geomil 25000, Limbă: Limba română</description><Point><coordinates>25.185348,45.421420,0</coordinates></Point></Placemark>
<Placemark><LineString id="5030_5029"><tessellate>1</tessellate><coordinates>25.185348,45.421420,0.
25.188654,45.416820,0</coordinates></LineString><Style><LineStyle><width>3</width></LineStyle></Style></Placemark>
<Placemark><name>Rățoiul</name><description>Nume: Rățoiul, Tip: rațe, Nivel: 2, Județ: Arges, Formă: Localitate, ID: 8128 <br /><b>Variante</b><br />Nume: Rățoiul, Hartă: PDT, Limbă: Limba română</description><Point><coordinates>24.651874,44.788363,0</coordinates></Point></Placemark>
<Placemark><name>Valea Raței</name><description>Nume: Valea Raței, Tip: rațe, Nivel: 2, Județ: Arges, Formă: Vale, ID: 1403 <br /><b>Variante</b><br />Nume: Valea Raței, Hartă: Geomil 25000, Limbă: Limba română</description><Point><coordinates>24.919822,44.741450,0</coordinates></Point></Placemark>
<Placemark><name>Valea Raței</name><description>Nume: Valea Raței, Tip: rațe, Nivel: 2, Județ: Arges, Formă: Vale, ID: 5029 <br /><b>Variante</b><br />Nume: Valea Raței, Hartă: Geomil 25000, Limbă: Limba română</description><Point><coordinates>25.188654,45.416820,0</coordinates></Point></Placemark>
<Placemark><name>Dealul Șoimului</name><description>Nume: Dealul Șoimului, Tip: șoim, Nivel: 2, Județ: Arges, Formă: Deal, ID: 12582 <br /><b>Variante</b><br />Nume: Dealul Șoimului, Hartă: British Maps (1944), Limbă: Limba română</description><Point><coordinates>24.514928,45.273072,0</coordinates></Point></Placemark>
<Placemark><name>Pădurea Stârcu</name><description>Nume: Pădurea Stârcu, Tip: stârci, Nivel: 2, Județ: Arges, Formă: Pădure, ID: 9360, ID Părinte: 9359 <br /><b>Variante</b><br />Nume: Pădurea Stârcu, Hartă: Geomil 25000, Limbă: Limba română</description><Point><coordinates>24.744205,44.846090,0</coordinates></Point></Placemark>
<Placemark><LineString id="9360_9359"><tessellate>1</tessellate><coordinates>24.744205,44.846090,0.
24.743653,44.849346,0</coordinates></LineString><Style><LineStyle><width>3</width></LineStyle></Style></Placemark>
<Placemark><name>Stârcu</name><description>Nume: Stârcu, Tip: stârci, Nivel: 2, Județ: Arges, Formă: Înălțime, ID: 9359 <br /><b>Variante</b><br />Nume: Stârcu, Hartă: Geomil 25000, Limbă: Limba română</description><Point><coordinates>24.743653,44.849346,0</coordinates></Point></Placemark>
<Placemark><name>Dealul Uliului</name><description>Nume: Dealul Uliului, Tip: uliu, Nivel: 2, Județ: Arges, Formă: Deal, ID: 8364 <br /><b>Variante</b><br />Nume: Dealul Uliului, Hartă: PDT, Limbă: Limba română</description><Point><coordinates>25.127427,45.041379,0</coordinates></Point></Placemark>
<Placemark><name>Piscu Uliului</name><description>Nume: Piscu Uliului, Tip: uliu, Nivel: 2, Județ: Arges, Formă: Înălțime, ID: 11046 <br /><b>Variante</b><br />Nume: Piscu Uliului, Hartă: Geomil 25000, Limbă: Limba română</description><Point><coordinates>24.513708,44.920917,0</coordinates></Point></Placemark>
<Placemark><name>Poiana Cuibul Uliului</name><description>Nume: Poiana Cuibul Uliului, Tip: uliu, Nivel: 2, Județ: Arges, Formă: Poiană, ID: 11257 <br /><b>Variante</b><br />Nume: Poiana Cuibul Uliului, Hartă: Geomil 25000, Limbă: Limba română</description><Point><coordinates>25.219527,45.466814,0</coordinates></Point></Placemark>
<Placemark><name>Valea Uliului</name><description>Nume: Valea Uliului, Tip: uliu, Nivel: 2, Județ: Arges, Formă: Vale, ID: 6889 <br /><b>Variante</b><br />Nume: Valea Uliului, Hartă: Geomil 25000, Limbă: Limba română</description><Point><coordinates>24.828652,44.938292,0</coordinates></Point></Placemark>
<Placemark><name>Valea Uliului</name><description>Nume: Valea Uliului, Tip: uliu, Nivel: 2, Județ: Arges, Formă: Vale, ID: 8365, ID Părinte: 8364 <br /><b>Variante</b><br />Nume: Valea Uliului, Hartă: PDT, Limbă: Limba română</description><Point><coordinates>25.124390,45.041321,0</coordinates></Point></Placemark>
<Placemark><LineString id="8365_8364"><tessellate>1</tessellate><coordinates>25.124390,45.041321,0.
25.127427,45.041379,0</coordinates></LineString><Style><LineStyle><width>3</width></LineStyle></Style></Placemark>
<Placemark><name>Valea Uliului</name><description>Nume: Valea Uliului, Tip: uliu, Nivel: 2, Județ: Arges, Formă: Vale, ID: 9802 <br /><b>Variante</b><br />Nume: Valea Uliului, Hartă: PDT, Limbă: Limba română</description><Point><coordinates>25.145366,45.396668,0</coordinates></Point></Placemark>
<Placemark><name>Valea Uliului</name><description>Nume: Valea Uliului, Tip: uliu, Nivel: 2, Județ: Arges, Formă: Vale, ID: 11047, ID Părinte: 11046 <br /><b>Variante</b><br />Nume: Valea Uliului, Hartă: Geomil 25000, Limbă: Limba română</description><Point><coordinates>24.513771,44.917985,0</coordinates></Point></Placemark>
<Placemark><LineString id="11047_11046"><tessellate>1</tessellate><coordinates>24.513771,44.917985,0.
24.513708,44.920917,0</coordinates></LineString><Style><LineStyle><width>3</width></LineStyle></Style></Placemark>
<Placemark><name>Culmea Vulturilor</name><description>Nume: Culmea Vulturilor, Tip: vultur, Nivel: 2, Județ: Arges, Formă: Înălțime, ID: 1454 <br /><b>Variante</b><br />Nume: Culmea Vulturilor, Hartă: Geomil 25000, Limbă: Limba română</description><Point><coordinates>24.581049,45.474061,0</coordinates></Point></Placemark>
<Placemark><name>Piscul Vultur</name><description>Nume: Piscul Vultur, Tip: vultur, Nivel: 2, Județ: Arges, Formă: Înălțime, ID: 6868 <br /><b>Variante</b><br />Nume: Piscul Vultur, Hartă: PDT, Limbă: Limba română</description><Point><coordinates>25.254648,45.363074,0</coordinates></Point></Placemark>
<Placemark><name>Piscul Vulturului</name><description>Nume: Piscul Vulturului, Tip: vultur, Nivel: 2, Județ: Arges, Formă: Înălțime, ID: 11258 <br /><b>Variante</b><br />Nume: Piscul Vulturului, Hartă: Geomil 25000, Limbă: Limba română</description><Point><coordinates>25.219277,45.457311,0</coordinates></Point></Placemark>
<Placemark><name>Dealul Cioarei</name><description>Nume: Dealul Cioarei, Tip: ciori, Nivel: 2, Județ: Bacau, Formă: Deal, ID: 3903 <br /><b>Variante</b><br />Nume: Dealul Cioarei, Hartă: PDT, Limbă: Limba română</description><Point><coordinates>27.149432,46.658862,0</coordinates></Point></Placemark>
<Placemark><name>Dealul Ciorii</name><description>Nume: Dealul Ciorii, Tip: ciori, Nivel: 2, Județ: Bacau, Formă: Deal, ID: 7864 <br /><b>Variante</b><br />Nume: Dealul Ciorii, Hartă: Geomil 25000, Limbă: Limba română</description><Point><coordinates>27.276642,46.471462,0</coordinates></Point></Placemark>
<Placemark><name>Valea Ciorii</name><description>Nume: Valea Ciorii, Tip: ciori, Nivel: 2, Județ: Bacau, Formă: Vale, ID: 1598, ID Părinte: 3903 <br /><b>Variante</b><br />Nume: Valea Ciorii, Hartă: Geomil 25000, Limbă: Limba română<br />Nume: Valea Cioarei, Hartă: PDT, Limbă: Limba română</description><Point><coordinates>27.145138,46.650379,0</coordinates></Point></Placemark>
<Placemark><LineString id="1598_3903"><tessellate>1</tessellate><coordinates>27.145138,46.650379,0.
27.149432,46.658862,0</coordinates></LineString><Style><LineStyle><width>3</width></LineStyle></Style></Placemark>
<Placemark><name>Dealul Cocorilor</name><description>Nume: Dealul Cocorilor, Tip: cocor, Nivel: 2, Județ: Bacau, Formă: Deal, ID: 5331 <br /><b>Variante</b><br />Nume: Dealul Cocorilor, Hartă: Geomil 25000, Limbă: Limba română</description><Point><coordinates>26.721452,46.279845,0</coordinates></Point></Placemark>
<Placemark><name>Pârâul Cuibul Cocostârcului</name><description>Nume: Pârâul Cuibul Cocostârcului, Tip: cocostârc, Nivel: 2, Județ: Bacau, Formă: Vale, ID: 13595 <br /><b>Variante</b><br />Nume: Pârâul Cuibul Cocostârcului, Hartă: PDT, Limbă: Limba română</description><Point><coordinates>26.836936,46.157775,0</coordinates></Point></Placemark>
<Placemark><name>Arșița Piatra Corbului</name><description>Nume: Arșița Piatra Corbului, Tip: corb, Nivel: 2, Județ: Bacau, Formă: Altele, ID: 9164, ID Părinte: 9163 <br /><b>Variante</b><br />Nume: Arșița Piatra Corbului, Hartă: PDT, Limbă: Limba română</description><Point><coordinates>26.433314,46.542758,0</coordinates></Point></Placemark>
<Placemark><LineString id="9164_9163"><tessellate>1</tessellate><coordinates>26.433314,46.542758,0.
26.437099,46.542828,0</coordinates></LineString><Style><LineStyle><width>3</width></LineStyle></Style></Placemark>
<Placemark><name>Bâtca la Pana Corbului</name><description>Nume: Bâtca la Pana Corbului, Tip: corb, Nivel: 2, Județ: Bacau, Formă: Înălțime, ID: 6545 <br /><b>Variante</b><br />Nume: Bâtca la Pana Corbului, Hartă: PDT, Limbă: Limba română</description><Point><coordinates>26.343378,46.520611,0</coordinates></Point></Placemark>
<Placemark><name>Corbu</name><description>Nume: Corbu, Tip: corb, Nivel: 2, Județ: Bacau, Formă: Localitate, ID: 9503 <br /><b>Variante</b><br />Nume: Corbu, Hartă: PDT, Limbă: Limba română</description><Point><coordinates>27.292470,46.573883,0</coordinates></Point></Placemark>
<Placemark><name>Corbu</name><description>Nume: Corbu, Tip: corb, Nivel: 2, Județ: Bacau, Formă: Localitate, ID: 11968 <br /><b>Variante</b><br />Nume: Corbu, Hartă: Moldova (1892-1898), Limbă: Limba română</description><Point><coordinates>26.882150,46.236198,0</coordinates></Point></Placemark>
<Placemark><name>Corbul</name><description>Nume: Corbul, Tip: corb, Nivel: 2, Județ: Bacau, Formă: Înălțime, ID: 4603 <br /><b>Variante</b><br />Nume: Corbul, Hartă: Geomil 25000, Limbă: Limba română</description><Point><coordinates>26.360123,46.622003,0</coordinates></Point></Placemark>
<Placemark><name>Dealul Corbului</name><description>Nume: Dealul Corbului, Tip: corb, Nivel: 2, Județ: Bacau, Formă: Deal, ID: 5310 <br /><b>Variante</b><br />Nume: Dealul Corbului, Hartă: PDT, Limbă: Limba română<br />Nume: Dealul Corbului, Hartă: Geomil 25000, Limbă: Limba română</description><Point><coordinates>26.680300,46.183454,0</coordinates></Point></Placemark>
<Placemark><name>Dealul Corbului</name><description>Nume: Dealul Corbului, Tip: corb, Nivel: 2, Județ: Bacau, Formă: Deal, ID: 9504, ID Părinte: 9503 <br /><b>Variante</b><br />Nume: Dealul Corbului, Hartă: Geomil 25000, Limbă: Limba română</description><Point><coordinates>27.295449,46.572136,0</coordinates></Point></Placemark>
<Placemark><LineString id="9504_9503"><tessellate>1</tessellate><coordinates>27.295449,46.572136,0.
27.292470,46.573883,0</coordinates></LineString><Style><LineStyle><width>3</width></LineStyle></Style></Placemark>
<Placemark><name>Dealul Corbului</name><description>Nume: Dealul Corbului, Tip: corb, Nivel: 2, Județ: Bacau, Formă: Deal, ID: 12248 <br /><b>Variante</b><br />Nume: Dealul Corbului, Hartă: Geomil 25000, Limbă: Limba română</description><Point><coordinates>27.068474,46.503862,0</coordinates></Point></Placemark>
<Placemark><name>Dealul Cuibul Corbului</name><description>Nume: Dealul Cuibul Corbului, Tip: corb, Nivel: 2, Județ: Bacau, Formă: Deal, ID: 4587 <br /><b>Variante</b><br />Nume: Dealul Cuibul Corbului, Hartă: Geomil 25000, Limbă: Limba română</description><Point><coordinates>26.523875,46.410048,0</coordinates></Point></Placemark>
<Placemark><name>Dosul Corbului</name><description>Nume: Dosul Corbului, Tip: corb, Nivel: 2, Județ: Bacau, Formă: Înălțime, ID: 6539, ID Părinte: 6537 <br /><b>Variante</b><br />Nume: Dosul Corbului, Hartă: Geomil 25000, Limbă: Limba română</description><Point><coordinates>26.168687,46.539231,0</coordinates></Point></Placemark>
<Placemark><LineString id="6539_6537"><tessellate>1</tessellate><coordinates>26.168687,46.539231,0.
26.162268,46.532255,0</coordinates></LineString><Style><LineStyle><width>3</width></LineStyle></Style></Placemark>
<Placemark><name>Pârâul Corbului</name><description>Nume: Pârâul Corbului, Tip: corb, Nivel: 2, Județ: Bacau, Formă: Vale, ID: 6536, ID Părinte: 6537 <br /><b>Variante</b><br />Nume: Pârâul Corbului, Hartă: PDT, Limbă: Limba română</description><Point><coordinates>26.164426,46.542103,0</coordinates></Point></Placemark>
<Placemark><LineString id="6536_6537"><tessellate>1</tessellate><coordinates>26.164426,46.542103,0.
26.162268,46.532255,0</coordinates></LineString><Style><LineStyle><width>3</width></LineStyle></Style></Placemark>
<Placemark><name>Pârâul Corbului</name><description>Nume: Pârâul Corbului, Tip: corb, Nivel: 2, Județ: Bacau, Formă: Vale, ID: 9541 <br /><b>Variante</b><br />Nume: Pârâul Corbului, Hartă: Moldova (1892-1898), Limbă: Limba română</description><Point><coordinates>26.435783,46.454368,0</coordinates></Point></Placemark>
<Placemark><name>Piatra Corbului</name><description>Nume: Piatra Corbului, Tip: corb, Nivel: 2, Județ: Bacau, Formă: Înălțime, ID: 9163 <br /><b>Variante</b><br />Nume: Piatra Corbului, Hartă: PDT, Limbă: Limba română</description><Point><coordinates>26.437099,46.542828,0</coordinates></Point></Placemark>
<Placemark><name>Piscu Corbului</name><description>Nume: Piscu Corbului, Tip: corb, Nivel: 2, Județ: Bacau, Formă: Înălțime, ID: 5307 <br /><b>Variante</b><br />Nume: Piscu Corbului, Hartă: PDT, Limbă: Limba română</description><Point><coordinates>26.883064,46.111423,0</coordinates></Point></Placemark>
<Placemark><name>Piscul Corbului</name><description>Nume: Piscul Corbului, Tip: corb, Nivel: 2, Județ: Bacau, Formă: Înălțime, ID: 5286 <br /><b>Variante</b><br />Nume: Piscul Corbului, Hartă: Geomil 25000, Limbă: Limba română</description><Point><coordinates>26.883821,46.101791,0</coordinates></Point></Placemark>
<Placemark><name>Piscul Corbului</name><description>Nume: Piscul Corbului, Tip: corb, Nivel: 2, Județ: Bacau, Formă: Înălțime, ID: 6537 <br /><b>Variante</b><br />Nume: Piscul Corbului, Hartă: PDT, Limbă: Limba română<br />Nume: Piscul Corbului, Hartă: Geomil 25000, Limbă: Limba română</description><Point><coordinates>26.162268,46.532255,0</coordinates></Point></Placemark>
<Placemark><name>Cucul</name><description>Nume: Cucul, Tip: cuc, Nivel: 2, Județ: Bacau, Formă: Vale, ID: 1716, ID Părinte: 1717 <br /><b>Variante</b><br />Nume: Cucul, Hartă: Geomil 25000, Limbă: Limba română</description><Point><coordinates>27.338515,46.218197,0</coordinates></Point></Placemark>
<Placemark><LineString id="1716_1717"><tessellate>1</tessellate><coordinates>27.338515,46.218197,0.
27.339749,46.213870,0</coordinates></LineString><Style><LineStyle><width>3</width></LineStyle></Style></Placemark>
<Placemark><name>Dealul Cucului</name><description>Nume: Dealul Cucului, Tip: cuc, Nivel: 2, Județ: Bacau, Formă: Deal, ID: 1715, ID Părinte: 1717 <br /><b>Variante</b><br />Nume: Dealul Cucului, Hartă: Geomil 25000, Limbă: Limba română</description><Point><coordinates>27.340466,46.209632,0</coordinates></Point></Placemark>
<Placemark><LineString id="1715_1717"><tessellate>1</tessellate><coordinates>27.340466,46.209632,0.
27.339749,46.213870,0</coordinates></LineString><Style><LineStyle><width>3</width></LineStyle></Style></Placemark>
<Placemark><name>Pădurea Cucului</name><description>Nume: Pădurea Cucului, Tip: cuc, Nivel: 2, Județ: Bacau, Formă: Pădure, ID: 1717 <br /><b>Variante</b><br />Nume: Pădurea Cucului, Hartă: Geomil 25000, Limbă: Limba română</description><Point><coordinates>27.339749,46.213870,0</coordinates></Point></Placemark>
<Placemark><name>Plaiul Cucului</name><description>Nume: Plaiul Cucului, Tip: cuc, Nivel: 2, Județ: Bacau, Formă: Înălțime, ID: 4609 <br /><b>Variante</b><br />Nume: Plaiul Cucului, Hartă: Geomil 25000, Limbă: Limba română</description><Point><coordinates>26.323968,46.815888,0</coordinates></Point></Placemark>
<Placemark><name>Poiana Cucului</name><description>Nume: Poiana Cucului, Tip: cuc, Nivel: 2, Județ: Bacau, Formă: Poiană, ID: 4564 <br /><b>Variante</b><br />Nume: Poiana Cucului, Hartă: PDT, Limbă: Limba română</description><Point><coordinates>26.509813,46.280887,0</coordinates></Point></Placemark>
<Placemark><name>Stânca Cucului</name><description>Nume: Stânca Cucului, Tip: cuc, Nivel: 2, Județ: Bacau, Formă: Înălțime, ID: 5321 <br /><b>Variante</b><br />Nume: Stânca Cucului, Hartă: PDT, Limbă: Limba română</description><Point><coordinates>26.535779,46.312686,0</coordinates></Point></Placemark>
<Placemark><name>Valea Cucului</name><description>Nume: Valea Cucului, Tip: cuc, Nivel: 2, Județ: Bacau, Formă: Vale, ID: 7807 <br /><b>Variante</b><br />Nume: Valea Cucului, Hartă: Geomil 25000, Limbă: Limba română</description><Point><coordinates>27.191797,46.753945,0</coordinates></Point></Placemark>
<Placemark><name>Piatra Găinei</name><description>Nume: Piatra Găinei, Tip: găini, Nivel: 2, Județ: Bacau, Formă: Înălțime, ID: 4594 <br /><b>Variante</b><br />Nume: Piatra Găinei, Hartă: PDT, Limbă: Limba română</description><Point><coordinates>26.354329,46.453809,0</coordinates></Point></Placemark>
<Placemark><name>Pârâul Mierlelor</name><description>Nume: Pârâul Mierlelor, Tip: mierlă, Nivel: 2, Județ: Bacau, Formă: Vale, ID: 9180 <br /><b>Variante</b><br />Nume: Pârâul Mierlelor, Hartă: Geomil 25000, Limbă: Limba română</description><Point><coordinates>26.771778,46.307392,0</coordinates></Point></Placemark>
<Placemark><name>Piciorul Mierlelor</name><description>Nume: Piciorul Mierlelor, Tip: mierlă, Nivel: 2, Județ: Bacau, Formă: Înălțime, ID: 6554 <br /><b>Variante</b><br />Nume: Piciorul Mierlelor, Hartă: PDT, Limbă: Limba română</description><Point><coordinates>26.245746,46.408960,0</coordinates></Point></Placemark>
<Placemark><name>Muntele Pițigoiului</name><description>Nume: Muntele Pițigoiului, Tip: pițigoi, Nivel: 2, Județ: Bacau, Formă: Înălțime, ID: 4602 <br /><b>Variante</b><br />Nume: Muntele Pițigoiului, Hartă: Geomil 25000, Limbă: Limba română</description><Point><coordinates>26.462778,46.589746,0</coordinates></Point></Placemark>
<Placemark><name>Curmătura Pupezei</name><description>Nume: Curmătura Pupezei, Tip: pupăză, Nivel: 2, Județ: Bacau, Formă: Înălțime, ID: 7931 <br /><b>Variante</b><br />Nume: Curmătura Pupezei, Hartă: PDT, Limbă: Limba română</description><Point><coordinates>26.597577,46.355669,0</coordinates></Point></Placemark>
<Placemark><name>Șesu Pupezei</name><description>Nume: Șesu Pupezei, Tip: pupăză, Nivel: 2, Județ: Bacau, Formă: Câmp, ID: 7930, ID Părinte: 7931 <br /><b>Variante</b><br />Nume: Șesu Pupezei, Hartă: PDT, Limbă: Limba română</description><Point><coordinates>26.597578,46.348383,0</coordinates></Point></Placemark>
<Placemark><LineString id="7930_7931"><tessellate>1</tessellate><coordinates>26.597578,46.348383,0.
26.597577,46.355669,0</coordinates></LineString><Style><LineStyle><width>3</width></LineStyle></Style></Placemark>
<Placemark><name>Dealul Șoimului</name><description>Nume: Dealul Șoimului, Tip: șoim, Nivel: 2, Județ: Bacau, Formă: Deal, ID: 1600 <br /><b>Variante</b><br />Nume: Dealul Șoimului, Hartă: Geomil 25000, Limbă: Limba română</description><Point><coordinates>27.228923,46.650215,0</coordinates></Point></Placemark>
<Placemark><name>Dealul Șoimului</name><description>Nume: Dealul Șoimului, Tip: șoim, Nivel: 2, Județ: Bacau, Formă: Deal, ID: 7853 <br /><b>Variante</b><br />Nume: Dealul Șoimului, Hartă: Geomil 25000, Limbă: Limba română</description><Point><coordinates>27.057517,46.351508,0</coordinates></Point></Placemark>
<Placemark><name>Pădurea de la Șoimul</name><description>Nume: Pădurea de la Șoimul, Tip: șoim, Nivel: 2, Județ: Bacau, Formă: Pădure, ID: 7866 <br /><b>Variante</b><br />Nume: Pădurea de la Șoimul, Hartă: Geomil 25000, Limbă: Limba română</description><Point><coordinates>27.242753,46.502632,0</coordinates></Point></Placemark>
<Placemark><name>Pădurea Șoimului</name><description>Nume: Pădurea Șoimului, Tip: șoim, Nivel: 2, Județ: Bacau, Formă: Pădure, ID: 1599, ID Părinte: 1600 <br /><b>Variante</b><br />Nume: Pădurea Șoimului, Hartă: Geomil 25000, Limbă: Limba română</description><Point><coordinates>27.250984,46.646596,0</coordinates></Point></Placemark>
<Placemark><LineString id="1599_1600"><tessellate>1</tessellate><coordinates>27.250984,46.646596,0.
27.228923,46.650215,0</coordinates></LineString><Style><LineStyle><width>3</width></LineStyle></Style></Placemark>
<Placemark><name>Pârâul Piatra Șoimului</name><description>Nume: Pârâul Piatra Șoimului, Tip: șoim, Nivel: 2, Județ: Bacau, Formă: Vale, ID: 4565 <br /><b>Variante</b><br />Nume: Pârâul Piatra Șoimului, Hartă: PDT, Limbă: Limba română</description><Point><coordinates>26.488846,46.290508,0</coordinates></Point></Placemark>
<Placemark><name>Poiana Piatra Șoimului</name><description>Nume: Poiana Piatra Șoimului, Tip: șoim, Nivel: 2, Județ: Bacau, Formă: Poiană, ID: 4567, ID Părinte: 4565 <br /><b>Variante</b><br />Nume: Poiana Piatra Șoimului, Hartă: PDT, Limbă: Limba română</description><Point><coordinates>26.488243,46.288500,0</coordinates></Point></Placemark>
<Placemark><LineString id="4567_4565"><tessellate>1</tessellate><coordinates>26.488243,46.288500,0.
26.488846,46.290508,0</coordinates></LineString><Style><LineStyle><width>3</width></LineStyle></Style></Placemark>
<Placemark><name>Șoimul</name><description>Nume: Șoimul, Tip: șoim, Nivel: 2, Județ: Bacau, Formă: Vale, ID: 4608, ID Părinte: 4606 <br /><b>Variante</b><br />Nume: Șoimul, Hartă: Geomil 25000, Limbă: Limba română</description><Point><coordinates>26.367905,46.683685,0</coordinates></Point></Placemark>
<Placemark><LineString id="4608_4606"><tessellate>1</tessellate><coordinates>26.367905,46.683685,0.
26.407148,46.691584,0</coordinates></LineString><Style><LineStyle><width>3</width></LineStyle></Style></Placemark>
<Placemark><name>Valea Șoimului</name><description>Nume: Valea Șoimului, Tip: șoim, Nivel: 2, Județ: Bacau, Formă: Vale, ID: 1601, ID Părinte: 1600 <br /><b>Variante</b><br />Nume: Valea Șoimului, Hartă: Geomil 25000, Limbă: Limba română</description><Point><coordinates>27.237929,46.657135,0</coordinates></Point></Placemark>
<Placemark><LineString id="1601_1600"><tessellate>1</tessellate><coordinates>27.237929,46.657135,0.
27.228923,46.650215,0</coordinates></LineString><Style><LineStyle><width>3</width></LineStyle></Style></Placemark>
<Placemark><name>Piatra Șoimuțului</name><description>Nume: Piatra Șoimuțului, Tip: șoimuț, Nivel: 3, Județ: Bacau, Formă: Înălțime, ID: 4601 <br /><b>Variante</b><br />Nume: Piatra Șoimuțului, Hartă: Geomil 25000, Limbă: Limba română</description><Point><coordinates>26.478263,46.569331,0</coordinates></Point></Placemark>
<Placemark><name>Dealul Vrabiei</name><description>Nume: Dealul Vrabiei, Tip: vrabie, Nivel: 2, Județ: Bacau, Formă: Deal, ID: 11646 <br /><b>Variante</b><br />Nume: Dealul Vrabiei, Hartă: Geomil 25000, Limbă: Limba română</description><Point><coordinates>26.994093,46.340147,0</coordinates></Point></Placemark>
<Placemark><name>Valea Cioroilor</name><description>Nume: Valea Cioroilor, Tip: cioroi, Nivel: 3, Județ: Bihor, Formă: Vale, ID: 1082 <br /><b>Variante</b><br />Nume: Valea Cioroilor, Hartă: Geomil 25000, Limbă: Limba română</description><Point><coordinates>22.094387,46.862082,0</coordinates></Point></Placemark>
<Placemark><name>Valea Cioroilor</name><description>Nume: Valea Cioroilor, Tip: cioroi, Nivel: 3, Județ: Bihor, Formă: Vale, ID: 4158 <br /><b>Variante</b><br />Nume: Valea Cioroilor, Hartă: PDT, Limbă: Limba română</description><Point><coordinates>22.349249,46.976137,0</coordinates></Point></Placemark>
<Placemark><name>Valea Cioroiu</name><description>Nume: Valea Cioroiu, Tip: cioroi, Nivel: 3, Județ: Bihor, Formă: Vale, ID: 9939 <br /><b>Variante</b><br />Nume: Valea Cioroiu, Hartă: Geomil 25000, Limbă: Limba română</description><Point><coordinates>22.425134,47.007668,0</coordinates></Point></Placemark>
<Placemark><name>Valea Cioroiului</name><description>Nume: Valea Cioroiului, Tip: cioroi, Nivel: 3, Județ: Bihor, Formă: Vale, ID: 10274 <br /><b>Variante</b><br />Nume: Valea Cioroiului, Hartă: PDT, Limbă: Limba română</description><Point><coordinates>22.487750,46.978557,0</coordinates></Point></Placemark>
<Placemark><name>Valea Cocoșului</name><description>Nume: Valea Cocoșului, Tip: cocoș, Nivel: 3, Județ: Bihor, Formă: Vale, ID: 12364 <br /><b>Variante</b><br />Nume: Valea Cocoșului, Hartă: PDT, Limbă: Limba română</description><Point><coordinates>22.099217,46.934265,0</coordinates></Point></Placemark>
<Placemark><name>Dealu Corbului</name><description>Nume: Dealu Corbului, Tip: corb, Nivel: 2, Județ: Bihor, Formă: Deal, ID: 1933 <br /><b>Variante</b><br />Nume: Dealu Corbului, Hartă: Geomil 25000, Limbă: Limba română<br />Nume: Dealul Corbului, Hartă: PDT, Limbă: Limba română</description><Point><coordinates>22.659312,46.449304,0</coordinates></Point></Placemark>
<Placemark><name>Dealul Corbului</name><description>Nume: Dealul Corbului, Tip: corb, Nivel: 2, Județ: Bihor, Formă: Deal, ID: 9405 <br /><b>Variante</b><br />Nume: Dealul Corbului, Hartă: PDT, Limbă: Limba română</description><Point><coordinates>22.512481,46.627994,0</coordinates></Point></Placemark>
<Placemark><name>Dealul Corbului</name><description>Nume: Dealul Corbului, Tip: corb, Nivel: 2, Județ: Bihor, Formă: Deal, ID: 12043 <br /><b>Variante</b><br />Nume: Dealul Corbului, Hartă: PDT, Limbă: Limba română</description><Point><coordinates>22.374188,46.538627,0</coordinates></Point></Placemark>
<Placemark><name>Dealul Corbului</name><description>Nume: Dealul Corbului, Tip: corb, Nivel: 2, Județ: Bihor, Formă: Deal, ID: 12362 <br /><b>Variante</b><br />Nume: Dealul Corbului, Hartă: PDT, Limbă: Limba română</description><Point><coordinates>22.134340,46.925324,0</coordinates></Point></Placemark>
<Placemark><name>La Corbul</name><description>Nume: La Corbul, Tip: corb, Nivel: 2, Județ: Bihor, Formă: Înălțime, ID: 12369 <br /><b>Variante</b><br />Nume: La Corbul, Hartă: PDT, Limbă: Limba română</description><Point><coordinates>21.988048,46.871538,0</coordinates></Point></Placemark>
<Placemark><name>Piatra Corbului</name><description>Nume: Piatra Corbului, Tip: corb, Nivel: 2, Județ: Bihor, Formă: Înălțime, ID: 5612 <br /><b>Variante</b><br />Nume: Piatra Corbului, Hartă: Geomil 25000, Limbă: Limba română</description><Point><coordinates>22.632529,46.413433,0</coordinates></Point></Placemark>
<Placemark><name>Tău Corbului</name><description>Nume: Tău Corbului, Tip: corb, Nivel: 2, Județ: Bihor, Formă: Altele, ID: 4128 <br /><b>Variante</b><br />Nume: Tău Corbului, Hartă: Geomil 25000, Limbă: Limba română</description><Point><coordinates>22.408031,46.779090,0</coordinates></Point></Placemark>
<Placemark><name>Valea Corbului</name><description>Nume: Valea Corbului, Tip: corb, Nivel: 2, Județ: Bihor, Formă: Vale, ID: 2003 <br /><b>Variante</b><br />Nume: Valea Corbului, Hartă: Geomil 25000, Limbă: Limba română<br />Nume: Valea Corbului, Hartă: PDT, Limbă: Limba română</description><Point><coordinates>22.273428,46.723996,0</coordinates></Point></Placemark>
<Placemark><name>Valea Corbului</name><description>Nume: Valea Corbului, Tip: corb, Nivel: 2, Județ: Bihor, Formă: Vale, ID: 4141 <br /><b>Variante</b><br />Nume: Valea Corbului, Hartă: PDT, Limbă: Limba română</description><Point><coordinates>22.188060,46.865209,0</coordinates></Point></Placemark>
<Placemark><name>Valea Corbului</name><description>Nume: Valea Corbului, Tip: corb, Nivel: 2, Județ: Bihor, Formă: Vale, ID: 12363, ID Părinte: 12362 <br /><b>Variante</b><br />Nume: Valea Corbului, Hartă: PDT, Limbă: Limba română</description><Point><coordinates>22.121360,46.930408,0</coordinates></Point></Placemark>
<Placemark><LineString id="12363_12362"><tessellate>1</tessellate><coordinates>22.121360,46.930408,0.
22.134340,46.925324,0</coordinates></LineString><Style><LineStyle><width>3</width></LineStyle></Style></Placemark>
<Placemark><name>Dealu Cucului</name><description>Nume: Dealu Cucului, Tip: cuc, Nivel: 2, Județ: Bihor, Formă: Deal, ID: 1073 <br /><b>Variante</b><br />Nume: Dealu Cucului, Hartă: Geomil 25000, Limbă: Limba română</description><Point><coordinates>22.501190,47.044058,0</coordinates></Point></Placemark>
<Placemark><name>Lapu Cucului</name><description>Nume: Lapu Cucului, Tip: cuc, Nivel: 2, Județ: Bihor, Formă: Altele, ID: 11509 <br /><b>Variante</b><br />Nume: Lapu Cucului, Hartă: Geomil 25000, Limbă: Limba română</description><Point><coordinates>22.205092,47.172273,0</coordinates></Point></Placemark>
<Placemark><name>Valea Cucului</name><description>Nume: Valea Cucului, Tip: cuc, Nivel: 2, Județ: Bihor, Formă: Vale, ID: 5945 <br /><b>Variante</b><br />Nume: Valea Cucului, Hartă: Geomil 25000, Limbă: Limba română</description><Point><coordinates>22.565846,47.346070,0</coordinates></Point></Placemark>
<Placemark><name>Valea Cucului</name><description>Nume: Valea Cucului, Tip: cuc, Nivel: 2, Județ: Bihor, Formă: Vale, ID: 14212 <br /><b>Variante</b><br />Nume: Valea Cucului, Hartă: PDT, Limbă: Limba română</description><Point><coordinates>22.030172,46.821020,0</coordinates></Point></Placemark>
<Placemark><name>Cucoaia</name><description>Nume: Cucoaia, Tip: cucoaie, Nivel: 3, Județ: Bihor, Formă: Înălțime, ID: 6951 <br /><b>Variante</b><br />Nume: Cucoaia, Hartă: Geomil 25000, Limbă: Limba română</description><Point><coordinates>22.511380,47.394929,0</coordinates></Point></Placemark>
<Placemark><name>Pădurea Cucoaia</name><description>Nume: Pădurea Cucoaia, Tip: cucoaie, Nivel: 3, Județ: Bihor, Formă: Pădure, ID: 6952, ID Părinte: 6951 <br /><b>Variante</b><br />Nume: Pădurea Cucoaia, Hartă: Geomil 25000, Limbă: Limba română</description><Point><coordinates>22.526209,47.394953,0</coordinates></Point></Placemark>
<Placemark><LineString id="6952_6951"><tessellate>1</tessellate><coordinates>22.526209,47.394953,0.
22.511380,47.394929,0</coordinates></LineString><Style><LineStyle><width>3</width></LineStyle></Style></Placemark>
<Placemark><name>Valea Fazanilor</name><description>Nume: Valea Fazanilor, Tip: fazan, Nivel: 2, Județ: Bihor, Formă: Vale, ID: 11871 <br /><b>Variante</b><br />Nume: Valea Fazanilor, Hartă: Geomil 25000, Limbă: Limba română</description><Point><coordinates>21.960110,47.364364,0</coordinates></Point></Placemark>
<Placemark><name>Diriu Mierlei</name><description>Nume: Diriu Mierlei, Tip: mierlă, Nivel: 2, Județ: Bihor, Formă: Altele, ID: 11671 <br /><b>Variante</b><br />Nume: Diriu Mierlei, Hartă: Geomil 25000, Limbă: Limba română</description><Point><coordinates>21.908326,46.652359,0</coordinates></Point></Placemark>
<Placemark><name>Culmea Pițigoi</name><description>Nume: Culmea Pițigoi, Tip: pițigoi, Nivel: 2, Județ: Bihor, Formă: Înălțime, ID: 10378 <br /><b>Variante</b><br />Nume: Culmea Pițigoi, Hartă: PDT, Limbă: Limba română</description><Point><coordinates>22.262045,47.101591,0</coordinates></Point></Placemark>
<Placemark><name>Dealu Rândunicii</name><description>Nume: Dealu Rândunicii, Tip: rândunică, Nivel: 2, Județ: Bihor, Formă: Deal, ID: 5946 <br /><b>Variante</b><br />Nume: Dealu Rândunicii, Hartă: Geomil 25000, Limbă: Limba română</description><Point><coordinates>22.406200,47.358254,0</coordinates></Point></Placemark>
<Placemark><name>Cetatea Șoimului</name><description>Nume: Cetatea Șoimului, Tip: șoim, Nivel: 2, Județ: Bihor, Formă: Altele, ID: 4175 <br /><b>Variante</b><br />Nume: Cetatea Șoimului, Hartă: Geomil 25000, Limbă: Limba română<br />Nume: Ruinele Șoimului, Hartă: PDT, Limbă: Limba română</description><Point><coordinates>22.384851,47.110973,0</coordinates></Point></Placemark>
<Placemark><name>Chicera Șoimului</name><description>Nume: Chicera Șoimului, Tip: șoim, Nivel: 2, Județ: Bihor, Formă: Înălțime, ID: 4154 <br /><b>Variante</b><br />Nume: Chicera Șoimului, Hartă: Geomil 25000, Limbă: Limba română</description><Point><coordinates>22.442026,46.884766,0</coordinates></Point></Placemark>
<Placemark><name>Dealul Șoimului</name><description>Nume: Dealul Șoimului, Tip: șoim, Nivel: 2, Județ: Bihor, Formă: Deal, ID: 4171 <br /><b>Variante</b><br />Nume: Dealul Șoimului, Hartă: Geomil 25000, Limbă: Limba română</description><Point><coordinates>22.354986,47.021030,0</coordinates></Point></Placemark>
<Placemark><name>La Piatra Șoimului</name><description>Nume: La Piatra Șoimului, Tip: șoim, Nivel: 2, Județ: Bihor, Formă: Înălțime, ID: 1005 <br /><b>Variante</b><br />Nume: La Piatra Șoimului, Hartă: Geomil 25000, Limbă: Limba română</description><Point><coordinates>22.503839,46.721375,0</coordinates></Point></Placemark>
<Placemark><name>Piatra Șoimului</name><description>Nume: Piatra Șoimului, Tip: șoim, Nivel: 2, Județ: Bihor, Formă: Înălțime, ID: 4153 <br /><b>Variante</b><br />Nume: Piatra Șoimului, Hartă: Geomil 25000, Limbă: Limba română</description><Point><coordinates>22.428575,46.892378,0</coordinates></Point></Placemark>
<Placemark><name>Pusta Șoim</name><description>Nume: Pusta Șoim, Tip: șoim, Nivel: 2, Județ: Bihor, Formă: Câmp, ID: 6980 <br /><b>Variante</b><br />Nume: Pusta Șoim, Hartă: Geomil 25000, Limbă: Limba română</description><Point><coordinates>21.711066,46.888567,0</coordinates></Point></Placemark>
<Placemark><name>Șoimi</name><description>Nume: Șoimi, Tip: șoim, Nivel: 2, Județ: Bihor, Formă: Localitate, ID: 4118, ID Părinte: 1087 <br /><b>Variante</b><br />Nume: Șoimi, Hartă: Geomil 25000, Limbă: Limba română</description><Point><coordinates>22.121366,46.685651,0</coordinates></Point></Placemark>
<Placemark><LineString id="4118_1087"><tessellate>1</tessellate><coordinates>22.121366,46.685651,0.
22.107111,46.672562,0</coordinates></LineString><Style><LineStyle><width>3</width></LineStyle></Style></Placemark>
<Placemark><name>Șoimi</name><description>Nume: Șoimi, Tip: șoim, Nivel: 2, Județ: Bihor, Formă: Localitate, ID: 4121 <br /><b>Variante</b><br />Nume: Șoimi, Hartă: PDT, Limbă: Limba română</description><Point><coordinates>22.325784,46.718189,0</coordinates></Point></Placemark>
<Placemark><name>Valea Șoim</name><description>Nume: Valea Șoim, Tip: șoim, Nivel: 2, Județ: Bihor, Formă: Vale, ID: 6983 <br /><b>Variante</b><br />Nume: Valea Șoim, Hartă: Geomil 25000, Limbă: Limba română</description><Point><coordinates>21.890911,46.960757,0</coordinates></Point></Placemark>
<Placemark><name>Valea Șoimului</name><description>Nume: Valea Șoimului, Tip: șoim, Nivel: 2, Județ: Bihor, Formă: Vale, ID: 982 <br /><b>Variante</b><br />Nume: Valea Șoimului, Hartă: Geomil 25000, Limbă: Limba română</description><Point><coordinates>22.126813,46.621258,0</coordinates></Point></Placemark>
<Placemark><name>Valea Șoimului</name><description>Nume: Valea Șoimului, Tip: șoim, Nivel: 2, Județ: Bihor, Formă: Vale, ID: 1087 <br /><b>Variante</b><br />Nume: Valea Șoimului, Hartă: Geomil 25000, Limbă: Limba română</description><Point><coordinates>22.107111,46.672562,0</coordinates></Point></Placemark>
<Placemark><name>Valea Șoimului</name><description>Nume: Valea Șoimului, Tip: șoim, Nivel: 2, Județ: Bihor, Formă: Vale, ID: 4093 <br /><b>Variante</b><br />Nume: Valea Șoimului, Hartă: Geomil 25000, Limbă: Limba română</description><Point><coordinates>22.172057,46.605386,0</coordinates></Point></Placemark>
<Placemark><name>Pârâul Uliului</name><description>Nume: Pârâul Uliului, Tip: uliu, Nivel: 2, Județ: Bihor, Formă: Vale, ID: 8195 <br /><b>Variante</b><br />Nume: Pârâul Uliului, Hartă: PDT, Limbă: Limba română</description><Point><coordinates>22.612856,47.041100,0</coordinates></Point></Placemark>
<Placemark><name>Valea Uliului</name><description>Nume: Valea Uliului, Tip: uliu, Nivel: 2, Județ: Bihor, Formă: Vale, ID: 14216 <br /><b>Variante</b><br />Nume: Valea Uliului, Hartă: PDT, Limbă: Limba română</description><Point><coordinates>22.300002,46.863411,0</coordinates></Point></Placemark>
<Placemark><name>Vârful Uliului</name><description>Nume: Vârful Uliului, Tip: uliu, Nivel: 2, Județ: Bihor, Formă: Înălțime, ID: 8200 <br /><b>Variante</b><br />Nume: Vârful Uliului, Hartă: PDT, Limbă: Limba română</description><Point><coordinates>22.392650,47.100747,0</coordinates></Point></Placemark>
<Placemark><name>Fântâna Lacul Vulturului</name><description>Nume: Fântâna Lacul Vulturului, Tip: vultur, Nivel: 2, Județ: Bihor, Formă: Altele, ID: 12788 <br /><b>Variante</b><br />Nume: Fântâna Lacul Vulturului, Hartă: PDT, Limbă: Limba română</description><Point><coordinates>22.613005,47.271672,0</coordinates></Point></Placemark>
<Placemark><name>Pădurea Vulturului</name><description>Nume: Pădurea Vulturului, Tip: vultur, Nivel: 2, Județ: Bihor, Formă: Pădure, ID: 8046 <br /><b>Variante</b><br />Nume: Pădurea Vulturului, Hartă: PDT, Limbă: Limba română</description><Point><coordinates>21.882643,46.693401,0</coordinates></Point></Placemark>
<Placemark><name>Vârfu Aria Vulturului</name><description>Nume: Vârfu Aria Vulturului, Tip: vultur, Nivel: 2, Județ: Bihor, Formă: Înălțime, ID: 7007 <br /><b>Variante</b><br />Nume: Vârfu Aria Vulturului, Hartă: Geomil 25000, Limbă: Limba română</description><Point><coordinates>22.641620,46.702382,0</coordinates></Point></Placemark>
<Placemark><name>Dealul Cioarei</name><description>Nume: Dealul Cioarei, Tip: ciori, Nivel: 2, Județ: Bistrita Nasaud, Formă: Deal, ID: 12073 <br /><b>Variante</b><br />Nume: Dealul Cioarei, Hartă: PDT, Limbă: Limba română</description><Point><coordinates>24.281376,47.066872,0</coordinates></Point></Placemark>
<Placemark><name>Pădurea Ciorii</name><description>Nume: Pădurea Ciorii, Tip: ciori, Nivel: 2, Județ: Bistrita Nasaud, Formă: Pădure, ID: 7073 <br /><b>Variante</b><br />Nume: Pădurea Ciorii, Hartă: Geomil 25000, Limbă: Limba română</description><Point><coordinates>24.260126,47.087813,0</coordinates></Point></Placemark>
<Placemark><name>Valea Ciorii</name><description>Nume: Valea Ciorii, Tip: ciori, Nivel: 2, Județ: Bistrita Nasaud, Formă: Vale, ID: 2085 <br /><b>Variante</b><br />Nume: Valea Ciorii, Hartă: Geomil 25000, Limbă: Limba română</description><Point><coordinates>24.633278,46.971726,0</coordinates></Point></Placemark>
<Placemark><name>Dealul Cocoșului</name><description>Nume: Dealul Cocoșului, Tip: cocoș, Nivel: 3, Județ: Bistrita Nasaud, Formă: Deal, ID: 4511 <br /><b>Variante</b><br />Nume: Dealul Cocoșului, Hartă: Geomil 25000, Limbă: Limba română</description><Point><coordinates>24.532841,47.145829,0</coordinates></Point></Placemark>
<Placemark><name>Dealul Corbului</name><description>Nume: Dealul Corbului, Tip: corb, Nivel: 2, Județ: Bistrita Nasaud, Formă: Deal, ID: 4514 <br /><b>Variante</b><br />Nume: Dealul Corbului, Hartă: Geomil 25000, Limbă: Limba română</description><Point><coordinates>24.495023,47.212576,0</coordinates></Point></Placemark>
<Placemark><name>Dealul Corbului</name><description>Nume: Dealul Corbului, Tip: corb, Nivel: 2, Județ: Bistrita Nasaud, Formă: Deal, ID: 9907 <br /><b>Variante</b><br />Nume: Dealul Corbului, Hartă: Geomil 25000, Limbă: Limba română</description><Point><coordinates>24.588780,47.154846,0</coordinates></Point></Placemark>
<Placemark><name>Dealul Corbului</name><description>Nume: Dealul Corbului, Tip: corb, Nivel: 2, Județ: Bistrita Nasaud, Formă: Deal, ID: 10647 <br /><b>Variante</b><br />Nume: Dealul Corbului, Hartă: Imperiul Habsburgic (1887), Limbă: Limba română</description><Point><coordinates>24.344282,47.392294,0</coordinates></Point></Placemark>
<Placemark><name>Muntele Corbului</name><description>Nume: Muntele Corbului, Tip: corb, Nivel: 2, Județ: Bistrita Nasaud, Formă: Înălțime, ID: 10774, ID Părinte: 6349 <br /><b>Variante</b><br />Nume: Muntele Corbului, Hartă: Geomil 25000, Limbă: Limba română</description><Point><coordinates>25.008095,47.524074,0</coordinates></Point></Placemark>
<Placemark><LineString id="10774_6349"><tessellate>1</tessellate><coordinates>25.008095,47.524074,0.
25.011195,47.519522,0</coordinates></LineString><Style><LineStyle><width>3</width></LineStyle></Style></Placemark>
<Placemark><name>Piatra Corbului</name><description>Nume: Piatra Corbului, Tip: corb, Nivel: 2, Județ: Bistrita Nasaud, Formă: Înălțime, ID: 9903 <br /><b>Variante</b><br />Nume: Piatra Corbului, Hartă: PDT, Limbă: Limba română</description><Point><coordinates>24.715402,47.090225,0</coordinates></Point></Placemark>
<Placemark><name>Poiana Corbului</name><description>Nume: Poiana Corbului, Tip: corb, Nivel: 2, Județ: Bistrita Nasaud, Formă: Poiană, ID: 12072, ID Părinte: 9907 <br /><b>Variante</b><br />Nume: Poiana Corbului, Hartă: Geomil 25000, Limbă: Limba română</description><Point><coordinates>24.596999,47.169574,0</coordinates></Point></Placemark>
<Placemark><LineString id="12072_9907"><tessellate>1</tessellate><coordinates>24.596999,47.169574,0.
24.588780,47.154846,0</coordinates></LineString><Style><LineStyle><width>3</width></LineStyle></Style></Placemark>
<Placemark><name>Valea Corbului</name><description>Nume: Valea Corbului, Tip: corb, Nivel: 2, Județ: Bistrita Nasaud, Formă: Vale, ID: 6349 <br /><b>Variante</b><br />Nume: Valea Corbului, Hartă: PDT, Limbă: Limba română</description><Point><coordinates>25.011195,47.519522,0</coordinates></Point></Placemark>
<Placemark><name>Valea Corbului</name><description>Nume: Valea Corbului, Tip: corb, Nivel: 2, Județ: Bistrita Nasaud, Formă: Vale, ID: 7077 <br /><b>Variante</b><br />Nume: Valea Corbului, Hartă: Geomil 25000, Limbă: Limba română</description><Point><coordinates>24.546629,47.271102,0</coordinates></Point></Placemark>
<Placemark><name>Dealul Coțofenei</name><description>Nume: Dealul Coțofenei, Tip: coțofană, Nivel: 2, Județ: Bistrita Nasaud, Formă: Deal, ID: 1010 <br /><b>Variante</b><br />Nume: Dealul Coțofenei, Hartă: Geomil 25000, Limbă: Limba română</description><Point><coordinates>24.277579,47.104788,0</coordinates></Point></Placemark>
<Placemark><name>Dealul Cucilor</name><description>Nume: Dealul Cucilor, Tip: cuc, Nivel: 2, Județ: Bistrita Nasaud, Formă: Deal, ID: 5480 <br /><b>Variante</b><br />Nume: Dealul Cucilor, Hartă: Geomil 25000, Limbă: Limba română</description><Point><coordinates>24.476793,46.971054,0</coordinates></Point></Placemark>
<Placemark><name>Dealul Cucului</name><description>Nume: Dealul Cucului, Tip: cuc, Nivel: 2, Județ: Bistrita Nasaud, Formă: Deal, ID: 4497 <br /><b>Variante</b><br />Nume: Dealul Cucului, Hartă: Geomil 25000, Limbă: Limba română<br />Nume: Dealul Cucului, Hartă: PDT, Limbă: Limba română</description><Point><coordinates>24.434228,47.310463,0</coordinates></Point></Placemark>
<Placemark><name>Izvorul Cucului</name><description>Nume: Izvorul Cucului, Tip: cuc, Nivel: 2, Județ: Bistrita Nasaud, Formă: Vale, ID: 10778, ID Părinte: 13137 <br /><b>Variante</b><br />Nume: Izvorul Cucului, Hartă: Imperiul Habsburgic (1887), Limbă: Limba română</description><Point><coordinates>24.700606,47.502714,0</coordinates></Point></Placemark>
<Placemark><LineString id="10778_13137"><tessellate>1</tessellate><coordinates>24.700606,47.502714,0.
24.682587,47.470565,0</coordinates></LineString><Style><LineStyle><width>3</width></LineStyle></Style></Placemark>
<Placemark><name>Muntele Cucului</name><description>Nume: Muntele Cucului, Tip: cuc, Nivel: 2, Județ: Bistrita Nasaud, Formă: Înălțime, ID: 13137 <br /><b>Variante</b><br />Nume: Muntele Cucului, Hartă: Geomil 25000, Limbă: Limba română</description><Point><coordinates>24.682587,47.470565,0</coordinates></Point></Placemark>
<Placemark><name>Poienița Cucului</name><description>Nume: Poienița Cucului, Tip: cuc, Nivel: 2, Județ: Bistrita Nasaud, Formă: Poiană, ID: 1014 <br /><b>Variante</b><br />Nume: Poienița Cucului, Hartă: Geomil 25000, Limbă: Limba română</description><Point><coordinates>24.191032,47.350770,0</coordinates></Point></Placemark>
<Placemark><name>Valea Cucilor</name><description>Nume: Valea Cucilor, Tip: cuc, Nivel: 2, Județ: Bistrita Nasaud, Formă: Vale, ID: 9867 <br /><b>Variante</b><br />Nume: Valea Cucilor, Hartă: PDT, Limbă: Limba română</description><Point><coordinates>24.638469,47.349714,0</coordinates></Point></Placemark>
<Placemark><name>Piciorul Mierlei</name><description>Nume: Piciorul Mierlei, Tip: mierlă, Nivel: 2, Județ: Bistrita Nasaud, Formă: Înălțime, ID: 7117 <br /><b>Variante</b><br />Nume: Piciorul Mierlei, Hartă: Geomil 25000, Limbă: Limba română</description><Point><coordinates>24.460459,47.274027,0</coordinates></Point></Placemark>
<Placemark><name>Dealul Șoimului</name><description>Nume: Dealul Șoimului, Tip: șoim, Nivel: 2, Județ: Bistrita Nasaud, Formă: Deal, ID: 9890 <br /><b>Variante</b><br />Nume: Dealul Șoimului, Hartă: Geomil 25000, Limbă: Limba română</description><Point><coordinates>24.836340,47.162282,0</coordinates></Point></Placemark>
<Placemark><name>Muchia Șoimului</name><description>Nume: Muchia Șoimului, Tip: șoim, Nivel: 2, Județ: Bistrita Nasaud, Formă: Înălțime, ID: 9893, ID Părinte: 9890 <br /><b>Variante</b><br />Nume: Muchia Șoimului, Hartă: Geomil 25000, Limbă: Limba română</description><Point><coordinates>24.847721,47.145613,0</coordinates></Point></Placemark>
<Placemark><LineString id="9893_9890"><tessellate>1</tessellate><coordinates>24.847721,47.145613,0.
24.836340,47.162282,0</coordinates></LineString><Style><LineStyle><width>3</width></LineStyle></Style></Placemark>
<Placemark><name>Pârâul Șoimul de Jos</name><description>Nume: Pârâul Șoimul de Jos, Tip: șoim, Nivel: 2, Județ: Bistrita Nasaud, Formă: Vale, ID: 9891, ID Părinte: 9890 <br /><b>Variante</b><br />Nume: Pârâul Șoimul de Jos, Hartă: Geomil 25000, Limbă: Limba română</description><Point><coordinates>24.823741,47.158730,0</coordinates></Point></Placemark>
<Placemark><LineString id="9891_9890"><tessellate>1</tessellate><coordinates>24.823741,47.158730,0.
24.836340,47.162282,0</coordinates></LineString><Style><LineStyle><width>3</width></LineStyle></Style></Placemark>
<Placemark><name>Pârâul Șoimul de Sus</name><description>Nume: Pârâul Șoimul de Sus, Tip: șoim, Nivel: 2, Județ: Bistrita Nasaud, Formă: Vale, ID: 9892, ID Părinte: 9890 <br /><b>Variante</b><br />Nume: Pârâul Șoimul de Sus, Hartă: Geomil 25000, Limbă: Limba română</description><Point><coordinates>24.823596,47.139009,0</coordinates></Point></Placemark>
<Placemark><LineString id="9892_9890"><tessellate>1</tessellate><coordinates>24.823596,47.139009,0.
24.836340,47.162282,0</coordinates></LineString><Style><LineStyle><width>3</width></LineStyle></Style></Placemark>
<Placemark><name>Poiana dintre Șoimi</name><description>Nume: Poiana dintre Șoimi, Tip: șoim, Nivel: 2, Județ: Bistrita Nasaud, Formă: Poiană, ID: 9894, ID Părinte: 9890 <br /><b>Variante</b><br />Nume: Poiana dintre Șoimi, Hartă: Geomil 25000, Limbă: Limba română</description><Point><coordinates>24.820826,47.146063,0</coordinates></Point></Placemark>
<Placemark><LineString id="9894_9890"><tessellate>1</tessellate><coordinates>24.820826,47.146063,0.
24.836340,47.162282,0</coordinates></LineString><Style><LineStyle><width>3</width></LineStyle></Style></Placemark>
<Placemark><name>Dealul Stârcilor</name><description>Nume: Dealul Stârcilor, Tip: stârci, Nivel: 2, Județ: Bistrita Nasaud, Formă: Deal, ID: 9861 <br /><b>Variante</b><br />Nume: Dealul Stârcilor, Hartă: PDT, Limbă: Limba română</description><Point><coordinates>24.580043,47.267743,0</coordinates></Point></Placemark>
<Placemark><name>Valea Stârcului</name><description>Nume: Valea Stârcului, Tip: stârci, Nivel: 2, Județ: Bistrita Nasaud, Formă: Vale, ID: 9868 <br /><b>Variante</b><br />Nume: Valea Stârcului, Hartă: PDT, Limbă: Limba română</description><Point><coordinates>24.559546,47.314390,0</coordinates></Point></Placemark>
<Placemark><name>Valea Vrabiei</name><description>Nume: Valea Vrabiei, Tip: vrabie, Nivel: 2, Județ: Bistrita Nasaud, Formă: Vale, ID: 5864 <br /><b>Variante</b><br />Nume: Valea Vrabiei, Hartă: Geomil 25000, Limbă: Limba română</description><Point><coordinates>24.174731,46.938331,0</coordinates></Point></Placemark>
<Placemark><name>Culmea Vulturilor</name><description>Nume: Culmea Vulturilor, Tip: vultur, Nivel: 2, Județ: Bistrita Nasaud, Formă: Înălțime, ID: 9884 <br /><b>Variante</b><br />Nume: Culmea Vulturilor, Hartă: Geomil 25000, Limbă: Limba română</description><Point><coordinates>24.892749,47.244641,0</coordinates></Point></Placemark>
<Placemark><name>Valea Vulturilor</name><description>Nume: Valea Vulturilor, Tip: vultur, Nivel: 2, Județ: Bistrita Nasaud, Formă: Vale, ID: 10030, ID Părinte: 9904 <br /><b>Variante</b><br />Nume: Valea Vulturilor, Hartă: PDT, Limbă: Limba română</description><Point><coordinates>24.794440,47.114328,0</coordinates></Point></Placemark>
<Placemark><LineString id="10030_9904"><tessellate>1</tessellate><coordinates>24.794440,47.114328,0.
24.792744,47.124811,0</coordinates></LineString><Style><LineStyle><width>3</width></LineStyle></Style></Placemark>
<Placemark><name>Valea Vulturului</name><description>Nume: Valea Vulturului, Tip: vultur, Nivel: 2, Județ: Bistrita Nasaud, Formă: Vale, ID: 7116 <br /><b>Variante</b><br />Nume: Valea Vulturului, Hartă: PDT, Limbă: Limba română</description><Point><coordinates>24.366410,47.288889,0</coordinates></Point></Placemark>
<Placemark><name>Vulturul</name><description>Nume: Vulturul, Tip: vultur, Nivel: 2, Județ: Bistrita Nasaud, Formă: Înălțime, ID: 9904 <br /><b>Variante</b><br />Nume: Vulturul, Hartă: Geomil 25000, Limbă: Limba română</description><Point><coordinates>24.792744,47.124811,0</coordinates></Point></Placemark>
<Placemark><name>Movila Corbul</name><description>Nume: Movila Corbul, Tip: corb, Nivel: 2, Județ: Botosani, Formă: Înălțime, ID: 8939 <br /><b>Variante</b><br />Nume: Movila Corbul, Hartă: PDT, Limbă: Limba română</description><Point><coordinates>26.994589,47.976633,0</coordinates></Point></Placemark>
<Placemark><name>Piscul Corbului</name><description>Nume: Piscul Corbului, Tip: corb, Nivel: 2, Județ: Botosani, Formă: Înălțime, ID: 1837 <br /><b>Variante</b><br />Nume: Piscul Corbului, Hartă: Geomil 25000, Limbă: Limba română</description><Point><coordinates>26.364783,47.870487,0</coordinates></Point></Placemark>
<Placemark><name>Valea Corbu</name><description>Nume: Valea Corbu, Tip: corb, Nivel: 2, Județ: Botosani, Formă: Vale, ID: 9592 <br /><b>Variante</b><br />Nume: Valea Corbu, Hartă: Moldova (1892-1898), Limbă: Limba română</description><Point><coordinates>26.676285,47.513017,0</coordinates></Point></Placemark>
<Placemark><name>La Casa Cucului</name><description>Nume: La Casa Cucului, Tip: cuc, Nivel: 2, Județ: Botosani, Formă: Altele, ID: 2384 <br /><b>Variante</b><br />Nume: La Casa Cucului, Hartă: Geomil 25000, Limbă: Limba română</description><Point><coordinates>27.103569,47.715230,0</coordinates></Point></Placemark>
<Placemark><name>Pârâul Cucului</name><description>Nume: Pârâul Cucului, Tip: cuc, Nivel: 2, Județ: Botosani, Formă: Vale, ID: 4885, ID Părinte: 4884 <br /><b>Variante</b><br />Nume: Pârâul Cucului, Hartă: PDT, Limbă: Limba română</description><Point><coordinates>26.515988,48.203289,0</coordinates></Point></Placemark>
<Placemark><LineString id="4885_4884"><tessellate>1</tessellate><coordinates>26.515988,48.203289,0.
26.519526,48.197719,0</coordinates></LineString><Style><LineStyle><width>3</width></LineStyle></Style></Placemark>
<Placemark><name>Poiana Cucului</name><description>Nume: Poiana Cucului, Tip: cuc, Nivel: 2, Județ: Botosani, Formă: Poiană, ID: 4884 <br /><b>Variante</b><br />Nume: Poiana Cucului, Hartă: PDT, Limbă: Limba română</description><Point><coordinates>26.519526,48.197719,0</coordinates></Point></Placemark>
<Placemark><name>Dealul Podișul Curcanului</name><description>Nume: Dealul Podișul Curcanului, Tip: curcan, Nivel: 2, Județ: Botosani, Formă: Deal, ID: 2369 <br /><b>Variante</b><br />Nume: Dealul Podișul Curcanului, Hartă: Geomil 25000, Limbă: Limba română</description><Point><coordinates>27.186100,47.579407,0</coordinates></Point></Placemark>
<Placemark><name>Dealul Găinării</name><description>Nume: Dealul Găinării, Tip: găinărie, Nivel: 3, Județ: Botosani, Formă: Deal, ID: 4914 <br /><b>Variante</b><br />Nume: Dealul Găinării, Hartă: PDT, Limbă: Limba română<br />Nume: Dealul Găinăriei, Hartă: Geomil 25000, Limbă: Limba română</description><Point><coordinates>26.457638,47.848512,0</coordinates></Point></Placemark>
<Placemark><name>La Găinărie</name><description>Nume: La Găinărie, Tip: găinărie, Nivel: 3, Județ: Botosani, Formă: Altele, ID: 7762 <br /><b>Variante</b><br />Nume: La Găinărie, Hartă: Geomil 25000, Limbă: Limba română</description><Point><coordinates>26.482287,47.751222,0</coordinates></Point></Placemark>
<Placemark><name>La Găinărie</name><description>Nume: La Găinărie, Tip: găinărie, Nivel: 3, Județ: Botosani, Formă: Altele, ID: 11556 <br /><b>Variante</b><br />Nume: La Găinărie, Hartă: Geomil 25000, Limbă: Limba română</description><Point><coordinates>27.025321,47.829787,0</coordinates></Point></Placemark>
<Placemark><name>La Găinărie</name><description>Nume: La Găinărie, Tip: găinărie, Nivel: 3, Județ: Botosani, Formă: Altele, ID: 11664 <br /><b>Variante</b><br />Nume: La Găinărie, Hartă: ANCPI, Limbă: Limba română</description><Point><coordinates>27.055778,47.872182,0</coordinates></Point></Placemark>
<Placemark><name>Lacul Găinăria</name><description>Nume: Lacul Găinăria, Tip: găinărie, Nivel: 3, Județ: Botosani, Formă: Lac, ID: 4875 <br /><b>Variante</b><br />Nume: Lacul Găinăria, Hartă: PDT, Limbă: Limba română</description><Point><coordinates>26.984175,48.018522,0</coordinates></Point></Placemark>
<Placemark><name>Lacul Găinăriei</name><description>Nume: Lacul Găinăriei, Tip: găinărie, Nivel: 3, Județ: Botosani, Formă: Lac, ID: 8935 <br /><b>Variante</b><br />Nume: Lacul Găinăriei, Hartă: PDT, Limbă: Limba română</description><Point><coordinates>27.258139,47.654428,0</coordinates></Point></Placemark>
<Placemark><name>Valea Găinăriei</name><description>Nume: Valea Găinăriei, Tip: găinărie, Nivel: 3, Județ: Botosani, Formă: Vale, ID: 14076 <br /><b>Variante</b><br />Nume: Valea Găinăriei, Hartă: Geomil 25000, Limbă: Limba română</description><Point><coordinates>26.971925,47.861164,0</coordinates></Point></Placemark>
<Placemark><name>Valea Găinăriei</name><description>Nume: Valea Găinăriei, Tip: găinărie, Nivel: 3, Județ: Botosani, Formă: Vale, ID: 14087 <br /><b>Variante</b><br />Nume: Valea Găinăriei, Hartă: Geomil 25000, Limbă: Limba română</description><Point><coordinates>26.350203,47.876332,0</coordinates></Point></Placemark>
<Placemark><name>Lunca Mierlei</name><description>Nume: Lunca Mierlei, Tip: mierlă, Nivel: 2, Județ: Botosani, Formă: Apă-deal-câmpie, ID: 1834 <br /><b>Variante</b><br />Nume: Lunca Mierlei, Hartă: Geomil 25000, Limbă: Limba română</description><Point><coordinates>26.495279,47.691117,0</coordinates></Point></Placemark>
<Placemark><name>Movila Privighetorii</name><description>Nume: Movila Privighetorii, Tip: privighetoare, Nivel: 2, Județ: Botosani, Formă: Înălțime, ID: 2334 <br /><b>Variante</b><br />Nume: Movila Privighetorii, Hartă: Geomil 25000, Limbă: Limba română</description><Point><coordinates>26.732587,48.028758,0</coordinates></Point></Placemark>
<Placemark><name>La Rățoi</name><description>Nume: La Rățoi, Tip: rațe, Nivel: 2, Județ: Botosani, Formă: Altele, ID: 2402 <br /><b>Variante</b><br />Nume: La Rățoi, Hartă: Geomil 25000, Limbă: Limba română</description><Point><coordinates>26.664951,48.243546,0</coordinates></Point></Placemark>
<Placemark><name>Dealul Vulturului</name><description>Nume: Dealul Vulturului, Tip: vultur, Nivel: 2, Județ: Botosani, Formă: Deal, ID: 2343, ID Părinte: 2341 <br /><b>Variante</b><br />Nume: Dealul Vulturului, Hartă: Geomil 25000, Limbă: Limba română</description><Point><coordinates>26.671368,47.868208,0</coordinates></Point></Placemark>
<Placemark><LineString id="2343_2341"><tessellate>1</tessellate><coordinates>26.671368,47.868208,0.
26.665920,47.873070,0</coordinates></LineString><Style><LineStyle><width>3</width></LineStyle></Style></Placemark>
<Placemark><name>Dealul Vulturului</name><description>Nume: Dealul Vulturului, Tip: vultur, Nivel: 2, Județ: Botosani, Formă: Deal, ID: 2370 <br /><b>Variante</b><br />Nume: Dealul Vulturului, Hartă: Geomil 25000, Limbă: Limba română</description><Point><coordinates>27.203071,47.616346,0</coordinates></Point></Placemark>
<Placemark><name>Holmul la Cuibul Vulturului</name><description>Nume: Holmul la Cuibul Vulturului, Tip: vultur, Nivel: 2, Județ: Botosani, Formă: Altele, ID: 2383 <br /><b>Variante</b><br />Nume: Holmul la Cuibul Vulturului, Hartă: Geomil 25000, Limbă: Limba română</description><Point><coordinates>27.146290,47.706063,0</coordinates></Point></Placemark>
<Placemark><name>Movila Vulturilor</name><description>Nume: Movila Vulturilor, Tip: vultur, Nivel: 2, Județ: Botosani, Formă: Înălțime, ID: 3570 <br /><b>Variante</b><br />Nume: Movila Vulturilor, Hartă: PDT, Limbă: Limba română<br />Nume: Movila Vulturului, Hartă: Geomil 25000, Limbă: Limba română</description><Point><coordinates>26.743104,47.814102,0</coordinates></Point></Placemark>
<Placemark><name>Movila Vulturului</name><description>Nume: Movila Vulturului, Tip: vultur, Nivel: 2, Județ: Botosani, Formă: Înălțime, ID: 2341 <br /><b>Variante</b><br />Nume: Movila Vulturului, Hartă: Geomil 25000, Limbă: Limba română</description><Point><coordinates>26.665920,47.873070,0</coordinates></Point></Placemark>
<Placemark><name>Movila Vulturului</name><description>Nume: Movila Vulturului, Tip: vultur, Nivel: 2, Județ: Botosani, Formă: Înălțime, ID: 6671 <br /><b>Variante</b><br />Nume: Movila Vulturului, Hartă: PDT, Limbă: Limba română</description><Point><coordinates>27.055151,47.760749,0</coordinates></Point></Placemark>
<Placemark><name>Valea Vulturului</name><description>Nume: Valea Vulturului, Tip: vultur, Nivel: 2, Județ: Botosani, Formă: Vale, ID: 2342, ID Părinte: 2341 <br /><b>Variante</b><br />Nume: Valea Vulturului, Hartă: Geomil 25000, Limbă: Limba română</description><Point><coordinates>26.670575,47.879348,0</coordinates></Point></Placemark>
<Placemark><LineString id="2342_2341"><tessellate>1</tessellate><coordinates>26.670575,47.879348,0.
26.665920,47.873070,0</coordinates></LineString><Style><LineStyle><width>3</width></LineStyle></Style></Placemark>
<Placemark><name>Valea Vulturului</name><description>Nume: Valea Vulturului, Tip: vultur, Nivel: 2, Județ: Botosani, Formă: Vale, ID: 2371, ID Părinte: 2370 <br /><b>Variante</b><br />Nume: Valea Vulturului, Hartă: Geomil 25000, Limbă: Limba română</description><Point><coordinates>27.215382,47.614695,0</coordinates></Point></Placemark>
<Placemark><LineString id="2371_2370"><tessellate>1</tessellate><coordinates>27.215382,47.614695,0.
27.203071,47.616346,0</coordinates></LineString><Style><LineStyle><width>3</width></LineStyle></Style></Placemark>
<Placemark><name>Vultureni</name><description>Nume: Vultureni, Tip: vultur, Nivel: 2, Județ: Botosani, Formă: Înălțime, ID: 2410, ID Părinte: 2411 <br /><b>Variante</b><br />Nume: Vultureni, Hartă: Geomil 25000, Limbă: Limba română</description><Point><coordinates>26.716068,47.853111,0</coordinates></Point></Placemark>
<Placemark><LineString id="2410_2411"><tessellate>1</tessellate><coordinates>26.716068,47.853111,0.
26.708646,47.853722,0</coordinates></LineString><Style><LineStyle><width>3</width></LineStyle></Style></Placemark>
<Placemark><name>Vultureni</name><description>Nume: Vultureni, Tip: vultur, Nivel: 2, Județ: Botosani, Formă: Localitate, ID: 2411 <br /><b>Variante</b><br />Nume: Vultureni, Hartă: Geomil 25000, Limbă: Limba română</description><Point><coordinates>26.708646,47.853722,0</coordinates></Point></Placemark>
<Placemark><name>Grindul Bâtlanului</name><description>Nume: Grindul Bâtlanului, Tip: bâtlan, Nivel: 3, Județ: Braila, Formă: Apă-deal-câmpie, ID: 3490 <br /><b>Variante</b><br />Nume: Grindul Bâtlanului, Hartă: Geomil 25000, Limbă: Limba română</description><Point><coordinates>28.003709,44.812188,0</coordinates></Point></Placemark>