<?xml version="1.0" encoding="UTF-8"?><kml xmlns="http://www.opengis.net/kml/2.2"><Document><Placemark><name>Vârfu Zidurilor</name><description>Nume: Vârfu Zidurilor, Tip: ziduri, Nivel: 2, Județ: Sibiu, Formă: Înălțime, ID: 1159 <br /><b>Variante</b><br />Nume: Vârfu Zidurilor, Hartă: Geomil 25000, Limbă: Limba română</description><Point><coordinates>23.908012,45.751730</coordinates></Point></Placemark>
<Placemark><name>La Ziduri</name><description>Nume: La Ziduri, Tip: ziduri, Nivel: 2, Județ: Vrancea, Formă: Altele, ID: 3547 <br /><b>Variante</b><br />Nume: La Ziduri, Hartă: PDT, Limbă: Limba română</description><Point><coordinates>27.362818,45.584439</coordinates></Point></Placemark>
<Placemark><name>La Ziduri</name><description>Nume: La Ziduri, Tip: ziduri, Nivel: 2, Județ: Brasov, Formă: Altele, ID: 4026 <br /><b>Variante</b><br />Nume: La Ziduri, Hartă: PDT, Limbă: Limba română</description><Point><coordinates>24.947260,45.722487</coordinates></Point></Placemark>
<Placemark><name>Ogașul Zidului</name><description>Nume: Ogașul Zidului, Tip: ziduri, Nivel: 2, Județ: Caras Severin, Formă: Vale, ID: 6185 <br /><b>Variante</b><br />Nume: Ogașul Zidului, Hartă: PDT, Limbă: Limba română</description><Point><coordinates>22.087341,45.543434</coordinates></Point></Placemark>
<Placemark><name>La Ziduri</name><description>Nume: La Ziduri, Tip: ziduri, Nivel: 2, Județ: Caras Severin, Formă: Altele, ID: 6189 <br /><b>Variante</b><br />Nume: La Ziduri, Hartă: PDT, Limbă: Limba română</description><Point><coordinates>22.185843,45.461456</coordinates></Point></Placemark>
<Placemark><name>Plaiul Zidului</name><description>Nume: Plaiul Zidului, Tip: ziduri, Nivel: 2, Județ: Neamt, Formă: Înălțime, ID: 6529 <br /><b>Variante</b><br />Nume: Plaiul Zidului, Hartă: PDT, Limbă: Limba română<br />Nume: Plaiul Zidului, Hartă: Geomil 25000, Limbă: Limba română</description><Point><coordinates>26.147596,46.696589</coordinates></Point></Placemark>
<Placemark><name>Poiana Zidului</name><description>Nume: Poiana Zidului, Tip: ziduri, Nivel: 2, Județ: Buzau, Formă: Poiană, ID: 7497 <br /><b>Variante</b><br />Nume: Poiana Zidului, Hartă: PDT, Limbă: Limba română</description><Point><coordinates>26.369388,45.195848</coordinates></Point></Placemark>
<Placemark><name>Pădurea Zidul</name><description>Nume: Pădurea Zidul, Tip: ziduri, Nivel: 2, Județ: Sibiu, Formă: Pădure, ID: 8006 <br /><b>Variante</b><br />Nume: Pădurea Zidul, Hartă: PDT, Limbă: Limba română</description><Point><coordinates>23.944784,45.762276</coordinates></Point></Placemark>
<Placemark><name>Piscul Zidului</name><description>Nume: Piscul Zidului, Tip: ziduri, Nivel: 2, Județ: Dolj, Formă: Înălțime, ID: 8276 <br /><b>Variante</b><br />Nume: Piscul Zidului, Hartă: PDT, Limbă: Limba română</description><Point><coordinates>23.586299,44.592437</coordinates></Point></Placemark>
<Placemark><name>Valea Zidului</name><description>Nume: Valea Zidului, Tip: ziduri, Nivel: 2, Județ: Teleorman, Formă: Vale, ID: 8323 <br /><b>Variante</b><br />Nume: Valea Zidului, Hartă: PDT, Limbă: Limba română<br />Nume: Valea Zidului, Hartă: Geomil 25000, Limbă: Limba română</description><Point><coordinates>25.159689,44.408129</coordinates></Point></Placemark>
<Placemark><name>Ziduri</name><description>Nume: Ziduri, Tip: ziduri, Nivel: 2, Județ: Buzau, Formă: Localitate, ID: 8723 <br /><b>Variante</b><br />Nume: Ziduri, Hartă: PDT, Limbă: Limba română<br />Nume: Ziduri, Hartă: Geomil 25000, Limbă: Limba română</description><Point><coordinates>27.073585,45.280948</coordinates></Point></Placemark>
<Placemark><name>Movila Zid</name><description>Nume: Movila Zid, Tip: ziduri, Nivel: 2, Județ: Bacau, Formă: Înălțime, ID: 9151 <br /><b>Variante</b><br />Nume: Movila Zid, Hartă: PDT, Limbă: Limba română</description><Point><coordinates>26.704866,46.705941</coordinates></Point></Placemark>
<Placemark><name>Zidurile</name><description>Nume: Zidurile, Tip: ziduri, Nivel: 2, Județ: Dambovita, Formă: Altele, ID: 9442 <br /><b>Variante</b><br />Nume: Zidurile, Hartă: PDT, Limbă: Limba română</description><Point><coordinates>25.552429,44.581837</coordinates></Point></Placemark>
<Placemark><name>Dealu Zidurilor</name><description>Nume: Dealu Zidurilor, Tip: ziduri, Nivel: 2, Județ: Prahova, Formă: Deal, ID: 11277 <br /><b>Variante</b><br />Nume: Dealu Zidurilor, Hartă: Geomil 25000, Limbă: Limba română</description><Point><coordinates>26.143470,44.971175</coordinates></Point></Placemark></Document></kml>