<?xml version="1.0" encoding="UTF-8"?><kml xmlns="http://www.opengis.net/kml/2.2"><Document><Placemark><name>Valea Țapului</name><description>Nume: Valea Țapului, Tip: țap, Nivel: 3, Județ: Alba, Formă: Vale, ID: 2552 <br /><b>Variante</b><br />Nume: Valea Țapului, Hartă: Geomil 25000, Limbă: Limba română<br />Nume: Valea Țapului, Hartă: PDT, Limbă: Limba română</description><Point><coordinates>24.030187,46.047907,0</coordinates></Point></Placemark>
<Placemark><name>La Țapi</name><description>Nume: La Țapi, Tip: țap, Nivel: 3, Județ: Arad, Formă: Altele, ID: 5609 <br /><b>Variante</b><br />Nume: La Țapi, Hartă: Geomil 25000, Limbă: Limba română</description><Point><coordinates>22.378456,46.384437,0</coordinates></Point></Placemark>
<Placemark><name>Pârâu Țapului</name><description>Nume: Pârâu Țapului, Tip: țap, Nivel: 3, Județ: Arad, Formă: Vale, ID: 975 <br /><b>Variante</b><br />Nume: Pârâu Țapului, Hartă: Geomil 25000, Limbă: Limba română</description><Point><coordinates>22.139002,46.447226,0</coordinates></Point></Placemark>
<Placemark><name>Valea Țapului</name><description>Nume: Valea Țapului, Tip: țap, Nivel: 3, Județ: Arad, Formă: Vale, ID: 10354 <br /><b>Variante</b><br />Nume: Valea Țapului, Hartă: Geomil 25000, Limbă: Limba română</description><Point><coordinates>21.625041,45.989880,0</coordinates></Point></Placemark>
<Placemark><name>Dealul Țapului</name><description>Nume: Dealul Țapului, Tip: țap, Nivel: 3, Județ: Bacau, Formă: Deal, ID: 7814 <br /><b>Variante</b><br />Nume: Dealul Țapului, Hartă: Geomil 25000, Limbă: Limba română</description><Point><coordinates>27.027923,46.594606,0</coordinates></Point></Placemark>
<Placemark><name>Plaiul Țapului</name><description>Nume: Plaiul Țapului, Tip: țap, Nivel: 3, Județ: Bacau, Formă: Înălțime, ID: 12776 <br /><b>Variante</b><br />Nume: Plaiul Țapului, Hartă: PDT, Limbă: Limba română<br />Nume: Plaiul Țapului, Hartă: Geomil 25000, Limbă: Limba română</description><Point><coordinates>26.320297,46.359904,0</coordinates></Point></Placemark>
<Placemark><name>Dealu Țapu</name><description>Nume: Dealu Țapu, Tip: țap, Nivel: 3, Județ: Bihor, Formă: Deal, ID: 7010 <br /><b>Variante</b><br />Nume: Dealu Țapu, Hartă: Geomil 25000, Limbă: Limba română</description><Point><coordinates>22.388929,46.786296,0</coordinates></Point></Placemark>
<Placemark><name>Dealul Țapului</name><description>Nume: Dealul Țapului, Tip: țap, Nivel: 3, Județ: Bihor, Formă: Deal, ID: 12366 <br /><b>Variante</b><br />Nume: Dealul Țapului, Hartă: PDT, Limbă: Limba română</description><Point><coordinates>22.213450,46.865521,0</coordinates></Point></Placemark>
<Placemark><name>Pârâu Țapului</name><description>Nume: Pârâu Țapului, Tip: țap, Nivel: 3, Județ: Bihor, Formă: Vale, ID: 14208 <br /><b>Variante</b><br />Nume: Pârâu Țapului, Hartă: Geomil 25000, Limbă: Limba română</description><Point><coordinates>22.600896,46.575932,0</coordinates></Point></Placemark>
<Placemark><name>Țapu</name><description>Nume: Țapu, Tip: țap, Nivel: 3, Județ: Bihor, Formă: Înălțime, ID: 7005 <br /><b>Variante</b><br />Nume: Țapu, Hartă: Geomil 25000, Limbă: Limba română</description><Point><coordinates>22.646104,46.524310,0</coordinates></Point></Placemark>
<Placemark><name>Valea Țapilor</name><description>Nume: Valea Țapilor, Tip: țap, Nivel: 3, Județ: Bihor, Formă: Vale, ID: 9406 <br /><b>Variante</b><br />Nume: Valea Țapilor, Hartă: PDT, Limbă: Limba română</description><Point><coordinates>22.595582,46.670741,0</coordinates></Point></Placemark>
<Placemark><name>Părâul Țapului</name><description>Nume: Părâul Țapului, Tip: țap, Nivel: 3, Județ: Bistrita Nasaud, Formă: Vale, ID: 10646 <br /><b>Variante</b><br />Nume: Părâul Țapului, Hartă: Imperiul Habsburgic (1887), Limbă: Limba română</description><Point><coordinates>24.338095,47.389768,0</coordinates></Point></Placemark>
<Placemark><name>Movila Țapului</name><description>Nume: Movila Țapului, Tip: țap, Nivel: 3, Județ: Buzau, Formă: Înălțime, ID: 64 <br /><b>Variante</b><br />Nume: Movila Țapului, Hartă: Geomil 25000, Limbă: Limba română<br />Nume: Movila Țapului, Hartă: PDT, Limbă: Limba română<br />Nume: кург. Цап (mov. Țap), Hartă: Sovietică, Limbă: Limba română</description><Point><coordinates>26.847348,44.940480,0</coordinates></Point></Placemark>
<Placemark><name>Tâlva Țapului</name><description>Nume: Tâlva Țapului, Tip: țap, Nivel: 3, Județ: Caras Severin, Formă: Înălțime, ID: 4324 <br /><b>Variante</b><br />Nume: Tâlva Țapului, Hartă: Geomil 25000, Limbă: Limba română</description><Point><coordinates>21.834227,45.302588,0</coordinates></Point></Placemark>
<Placemark><name>Dealul Țapului</name><description>Nume: Dealul Țapului, Tip: țap, Nivel: 3, Județ: Covasna, Formă: Deal, ID: 10060 <br /><b>Variante</b><br />Nume: Dealul Țapului, Hartă: Geomil 25000, Limbă: Limba română</description><Point><coordinates>25.516724,46.178948,0</coordinates></Point></Placemark>
<Placemark><name>Dealul Țapului</name><description>Nume: Dealul Țapului, Tip: țap, Nivel: 3, Județ: Dolj, Formă: Deal, ID: 3017 <br /><b>Variante</b><br />Nume: Dealul Țapului, Hartă: Geomil 25000, Limbă: Limba română</description><Point><coordinates>23.948178,44.117221,0</coordinates></Point></Placemark>
<Placemark><name>Dealul Țapului</name><description>Nume: Dealul Țapului, Tip: țap, Nivel: 3, Județ: Dolj, Formă: Deal, ID: 7694 <br /><b>Variante</b><br />Nume: Dealul Țapului, Hartă: PDT, Limbă: Limba română</description><Point><coordinates>23.945608,44.113681,0</coordinates></Point></Placemark>
<Placemark><name>Dealul Țapului</name><description>Nume: Dealul Țapului, Tip: țap, Nivel: 3, Județ: Galati, Formă: Deal, ID: 727 <br /><b>Variante</b><br />Nume: Dealul Țapului, Hartă: Geomil 25000, Limbă: Limba română</description><Point><coordinates>27.494087,46.102925,0</coordinates></Point></Placemark>
<Placemark><name>Muntele Țapul</name><description>Nume: Muntele Țapul, Tip: țap, Nivel: 3, Județ: Gorj, Formă: Înălțime, ID: 1186 <br /><b>Variante</b><br />Nume: Muntele Țapul, Hartă: Geomil 25000, Limbă: Limba română</description><Point><coordinates>23.515363,45.313603,0</coordinates></Point></Placemark>
<Placemark><name>Dealul Țapului</name><description>Nume: Dealul Țapului, Tip: țap, Nivel: 3, Județ: Hunedoara, Formă: Deal, ID: 5552 <br /><b>Variante</b><br />Nume: Dealul Țapului, Hartă: Geomil 25000, Limbă: Limba română</description><Point><coordinates>23.088222,45.616990,0</coordinates></Point></Placemark>
<Placemark><name>Valea Țapului</name><description>Nume: Valea Țapului, Tip: țap, Nivel: 3, Județ: Hunedoara, Formă: Vale, ID: 5546 <br /><b>Variante</b><br />Nume: Valea Țapului, Hartă: Geomil 25000, Limbă: Limba română</description><Point><coordinates>22.983883,45.643926,0</coordinates></Point></Placemark>
<Placemark><name>Vârfu Țapului</name><description>Nume: Vârfu Țapului, Tip: țap, Nivel: 3, Județ: Hunedoara, Formă: Înălțime, ID: 933 <br /><b>Variante</b><br />Nume: Vârfu Țapului, Hartă: Geomil 25000, Limbă: Limba română</description><Point><coordinates>22.777688,46.175706,0</coordinates></Point></Placemark>
<Placemark><name>Vârfu Țapului</name><description>Nume: Vârfu Țapului, Tip: țap, Nivel: 3, Județ: Hunedoara, Formă: Înălțime, ID: 6111 <br /><b>Variante</b><br />Nume: Vârfu Țapului, Hartă: Geomil 25000, Limbă: Limba română</description><Point><coordinates>22.951778,45.668243,0</coordinates></Point></Placemark>
<Placemark><name>Obcina Țapului</name><description>Nume: Obcina Țapului, Tip: țap, Nivel: 3, Județ: Maramures, Formă: Înălțime, ID: 1031 <br /><b>Variante</b><br />Nume: Obcina Țapului, Hartă: Geomil 25000, Limbă: Limba română</description><Point><coordinates>24.153800,47.522378,0</coordinates></Point></Placemark>
<Placemark><name>Secătura Țapului</name><description>Nume: Secătura Țapului, Tip: țap, Nivel: 3, Județ: Maramures, Formă: Altele, ID: 7095 <br /><b>Variante</b><br />Nume: Secătura Țapului, Hartă: Geomil 25000, Limbă: Limba română</description><Point><coordinates>24.093405,47.434046,0</coordinates></Point></Placemark>
<Placemark><name>Vârfu Țapului</name><description>Nume: Vârfu Țapului, Tip: țap, Nivel: 3, Județ: Maramures, Formă: Înălțime, ID: 4477 <br /><b>Variante</b><br />Nume: Vârfu Țapului, Hartă: Geomil 25000, Limbă: Limba română</description><Point><coordinates>23.378055,47.762666,0</coordinates></Point></Placemark>
<Placemark><name>Piciorul Țapului</name><description>Nume: Piciorul Țapului, Tip: țap, Nivel: 3, Județ: Neamt, Formă: Înălțime, ID: 6530 <br /><b>Variante</b><br />Nume: Piciorul Țapului, Hartă: PDT, Limbă: Limba română</description><Point><coordinates>26.174989,46.666274,0</coordinates></Point></Placemark>
<Placemark><name>Podul Valea Țapului</name><description>Nume: Podul Valea Țapului, Tip: țap, Nivel: 3, Județ: Neamt, Formă: Altele, ID: 11638 <br /><b>Variante</b><br />Nume: Podul Valea Țapului, Hartă: Geomil 25000, Limbă: Limba română</description><Point><coordinates>26.773574,47.061193,0</coordinates></Point></Placemark>
<Placemark><name>Dealul Țapul</name><description>Nume: Dealul Țapul, Tip: țap, Nivel: 3, Județ: Olt, Formă: Deal, ID: 13529 <br /><b>Variante</b><br />Nume: Dealul Țapul, Hartă: PDT, Limbă: Limba română</description><Point><coordinates>24.524685,44.809008,0</coordinates></Point></Placemark>
<Placemark><name>Dealul Țapului</name><description>Nume: Dealul Țapului, Tip: țap, Nivel: 3, Județ: Olt, Formă: Deal, ID: 14235 <br /><b>Variante</b><br />Nume: Dealul Țapului, Hartă: PDT, Limbă: Limba română</description><Point><coordinates>24.530057,44.780721,0</coordinates></Point></Placemark>
<Placemark><name>Poiana Țapului</name><description>Nume: Poiana Țapului, Tip: țap, Nivel: 3, Județ: Prahova, Formă: Localitate, ID: 9796 <br /><b>Variante</b><br />Nume: Poiana Țapului, Hartă: Geomil 25000, Limbă: Limba română</description><Point><coordinates>25.537692,45.394104,0</coordinates></Point></Placemark>
<Placemark><name>Tabla Țapilor</name><description>Nume: Tabla Țapilor, Tip: țap, Nivel: 3, Județ: Satu Mare, Formă: Altele, ID: 6965 <br /><b>Variante</b><br />Nume: Tabla Țapilor, Hartă: Geomil 25000, Limbă: Limba română</description><Point><coordinates>22.764267,47.697839,0</coordinates></Point></Placemark>
<Placemark><name>Dealul Țapului</name><description>Nume: Dealul Țapului, Tip: țap, Nivel: 3, Județ: Suceava, Formă: Deal, ID: 2277 <br /><b>Variante</b><br />Nume: Dealul Țapului, Hartă: Geomil 25000, Limbă: Limba română</description><Point><coordinates>25.879674,47.730807,0</coordinates></Point></Placemark>
<Placemark><name>Țapul Mare</name><description>Nume: Țapul Mare, Tip: țap, Nivel: 3, Județ: Suceava, Formă: Înălțime, ID: 7239 <br /><b>Variante</b><br />Nume: Țapul Mare, Hartă: Geomil 25000, Limbă: Limba română</description><Point><coordinates>25.081944,47.638455,0</coordinates></Point></Placemark>
<Placemark><name>Pârâul Țapului</name><description>Nume: Pârâul Țapului, Tip: țap, Nivel: 3, Județ: Valcea, Formă: Vale, ID: 12971 <br /><b>Variante</b><br />Nume: Pârâul Țapului, Hartă: Geomil 25000, Limbă: Limba română</description><Point><coordinates>24.242015,45.283299,0</coordinates></Point></Placemark>
<Placemark><name>Valea Țapului</name><description>Nume: Valea Țapului, Tip: țap, Nivel: 3, Județ: Valcea, Formă: Vale, ID: 8417 <br /><b>Variante</b><br />Nume: Valea Țapului, Hartă: PDT, Limbă: Limba română</description><Point><coordinates>23.971112,44.773179,0</coordinates></Point></Placemark>
<Placemark><name>Dealul Țapului</name><description>Nume: Dealul Țapului, Tip: țap, Nivel: 3, Județ: Vrancea, Formă: Deal, ID: 2106 <br /><b>Variante</b><br />Nume: Dealul Țapului, Hartă: Geomil 25000, Limbă: Limba română</description><Point><coordinates>26.731171,45.652355,0</coordinates></Point></Placemark></Document></kml>