<?xml version="1.0" encoding="UTF-8"?><kml xmlns="http://www.opengis.net/kml/2.2"><Document><Placemark><name>Dealul Cobâli</name><description>Nume: Dealul Cobâli, Tip: cobâlă, Nivel: 4, Județ: Botosani, Formă: Deal, ID: 4912 <br /><b>Variante</b><br />Nume: Dealul Cobâli, Hartă: Geomil 25000, Limbă: Limba română</description><Point><coordinates>26.417533,47.929251,0</coordinates></Point></Placemark>
<Placemark><name>Valea Cobâlei</name><description>Nume: Valea Cobâlei, Tip: cobâlă, Nivel: 4, Județ: Botosani, Formă: Vale, ID: 1806 <br /><b>Variante</b><br />Nume: Valea Cobâlei, Hartă: Geomil 25000, Limbă: Limba română</description><Point><coordinates>26.354209,47.937600,0</coordinates></Point></Placemark>
<Placemark><name>Cobia</name><description>Nume: Cobia, Tip: cobia, Nivel: 5, Județ: Dambovita, Formă: Localitate, ID: 10126 <br /><b>Variante</b><br />Nume: Cobia, Hartă: Geomil 25000, Limbă: Limba română</description><Point><coordinates>25.336287,44.793071,0</coordinates></Point></Placemark>
<Placemark><name>Dealu Cobia</name><description>Nume: Dealu Cobia, Tip: cobia, Nivel: 5, Județ: Dambovita, Formă: Deal, ID: 10130 <br /><b>Variante</b><br />Nume: Dealu Cobia, Hartă: Geomil 25000, Limbă: Limba română</description><Point><coordinates>25.322015,44.885069,0</coordinates></Point></Placemark>
<Placemark><name>Pădurea Cobia</name><description>Nume: Pădurea Cobia, Tip: cobia, Nivel: 5, Județ: Dolj, Formă: Pădure, ID: 7716 <br /><b>Variante</b><br />Nume: Pădurea Cobia, Hartă: PDT, Limbă: Limba română<br />Nume: Pădurea Cobia, Hartă: Geomil 25000, Limbă: Limba română</description><Point><coordinates>23.736796,44.150496,0</coordinates></Point></Placemark>
<Placemark><name>Dealul Cobiei</name><description>Nume: Dealul Cobiei, Tip: cobia, Nivel: 5, Județ: Teleorman, Formă: Deal, ID: 11187 <br /><b>Variante</b><br />Nume: Dealul Cobiei, Hartă: ANCPI, Limbă: Limba română<br />Nume: Dealu Cobiei, Hartă: Geomil 25000, Limbă: Limba română</description><Point><coordinates>25.035522,44.055603,0</coordinates></Point></Placemark></Document></kml>