<?xml version="1.0" encoding="UTF-8"?><kml xmlns="http://www.opengis.net/kml/2.2"><Document><Placemark><name>Gruiul Rudarul Mare</name><description>Nume: Gruiul Rudarul Mare, Tip: rudar, Nivel: 2, Județ: Valcea, Formă: Înălțime, ID: 1178 <br /><b>Variante</b><br />Nume: Gruiul Rudarul Mare, Hartă: Geomil 25000, Limbă: Limba română</description><Point><coordinates>24.044881,45.436904</coordinates></Point></Placemark>
<Placemark><name>Puțu Rudarului</name><description>Nume: Puțu Rudarului, Tip: rudar, Nivel: 2, Județ: Calarasi, Formă: Altele, ID: 3269 <br /><b>Variante</b><br />Nume: Puțu Rudarului, Hartă: PDT, Limbă: Limba română</description><Point><coordinates>26.672951,44.109595</coordinates></Point></Placemark>
<Placemark><name>Lacul Rudarului</name><description>Nume: Lacul Rudarului, Tip: rudar, Nivel: 2, Județ: Giurgiu, Formă: Lac, ID: 3631 <br /><b>Variante</b><br />Nume: Lacul Rudarului, Hartă: Austriacă, Limbă: Limba română</description><Point><coordinates>26.192668,44.052938</coordinates></Point></Placemark>
<Placemark><name>Puțul-Rudarului</name><description>Nume: Puțul-Rudarului, Tip: rudar, Nivel: 2, Județ: Giurgiu, Formă: Altele, ID: 3739 <br /><b>Variante</b><br />Nume: Puțul-Rudarului, Hartă: PDT, Limbă: Limba română</description><Point><coordinates>25.629036,44.417585</coordinates></Point></Placemark>
<Placemark><name>Valea Rudarului</name><description>Nume: Valea Rudarului, Tip: rudar, Nivel: 2, Județ: Dolj, Formă: Vale, ID: 4646 <br /><b>Variante</b><br />Nume: Valea Rudarului, Hartă: PDT, Limbă: Limba română<br />Nume: Valea Rudarului, Hartă: Geomil 25000, Limbă: Limba română</description><Point><coordinates>23.356303,44.136204</coordinates></Point></Placemark>
<Placemark><name>Piscul Rudarului</name><description>Nume: Piscul Rudarului, Tip: rudar, Nivel: 2, Județ: Dolj, Formă: Înălțime, ID: 4725 <br /><b>Variante</b><br />Nume: Piscul Rudarului, Hartă: PDT, Limbă: Limba română</description><Point><coordinates>23.811549,44.582347</coordinates></Point></Placemark>
<Placemark><name>Piscul cu Rudarul</name><description>Nume: Piscul cu Rudarul, Tip: rudar, Nivel: 2, Județ: Dolj, Formă: Înălțime, ID: 4733 <br /><b>Variante</b><br />Nume: Piscul cu Rudarul, Hartă: PDT, Limbă: Limba română</description><Point><coordinates>23.826450,44.596492</coordinates></Point></Placemark>
<Placemark><name>Valea Rudarului</name><description>Nume: Valea Rudarului, Tip: rudar, Nivel: 2, Județ: Valcea, Formă: Vale, ID: 4797 <br /><b>Variante</b><br />Nume: Valea Rudarului, Hartă: PDT, Limbă: Limba română</description><Point><coordinates>24.136276,44.670586</coordinates></Point></Placemark>
<Placemark><name>Valea Rudarului</name><description>Nume: Valea Rudarului, Tip: rudar, Nivel: 2, Județ: Arges, Formă: Vale, ID: 4985 <br /><b>Variante</b><br />Nume: Valea Rudarului, Hartă: Geomil 25000, Limbă: Limba română</description><Point><coordinates>24.635290,45.391212</coordinates></Point></Placemark>
<Placemark><name>Valea Rudarului</name><description>Nume: Valea Rudarului, Tip: rudar, Nivel: 2, Județ: Buzau, Formă: Vale, ID: 7493 <br /><b>Variante</b><br />Nume: Valea Rudarului, Hartă: Geomil 25000, Limbă: Limba română</description><Point><coordinates>26.455203,45.180899</coordinates></Point></Placemark>
<Placemark><name>Valea Rudarului</name><description>Nume: Valea Rudarului, Tip: rudar, Nivel: 2, Județ: Prahova, Formă: Vale, ID: 10086 <br /><b>Variante</b><br />Nume: Valea Rudarului, Hartă: PDT, Limbă: Limba română</description><Point><coordinates>26.200546,45.035364</coordinates></Point></Placemark>
<Placemark><name>Muchia Rudarului</name><description>Nume: Muchia Rudarului, Tip: rudar, Nivel: 2, Județ: Buzau, Formă: Înălțime, ID: 11709 <br /><b>Variante</b><br />Nume: Muchia Rudarului, Hartă: Geomil 25000, Limbă: Limba română</description><Point><coordinates>26.545682,45.387169</coordinates></Point></Placemark></Document></kml>