<?xml version="1.0" encoding="UTF-8"?><kml xmlns="http://www.opengis.net/kml/2.2"><Document><Placemark><name>Beșineu</name><description>Nume: Beșineu, Tip: beșineu, Nivel: 3, Județ: Alba, Formă: Localitate, ID: 10482 <br /><b>Variante</b><br />Nume: Beșineu, Hartă: Transilvania (1869-1870), Limbă: Limba română</description><Point><coordinates>23.808713,46.094450,0</coordinates></Point></Placemark>
<Placemark><name>Beșineu</name><description>Nume: Beșineu, Tip: beșineu, Nivel: 3, Județ: Arad, Formă: Altele, ID: 11360 <br /><b>Variante</b><br />Nume: Beșineu, Hartă: Geomil 25000, Limbă: Limba română</description><Point><coordinates>21.596031,46.355901,0</coordinates></Point></Placemark>
<Placemark><name>Fântâna Beșeneu</name><description>Nume: Fântâna Beșeneu, Tip: beșeneu, Nivel: 3, Județ: Bihor, Formă: Altele, ID: 11868, ID Părinte: 11867 <br /><b>Variante</b><br />Nume: Fântâna Beșeneu, Hartă: Geomil 25000, Limbă: Limba română</description><Point><coordinates>22.019836,47.321066,0</coordinates></Point></Placemark>
<Placemark><LineString id="11868_11867"><tessellate>1</tessellate><coordinates>22.019836,47.321066,0.
22.012070,47.325909,0</coordinates></LineString><Style><LineStyle><width>3</width></LineStyle></Style></Placemark>
<Placemark><name>Beseny ér</name><description>Nume: Beseny ér, Tip: beseny, Nivel: 3, Județ: Bihor, Formă: Vale, ID: 11867 <br /><b>Variante</b><br />Nume: Beseny ér, Hartă: Imperiul Habsburgic (1887), Limbă: Limba maghiară</description><Point><coordinates>22.012070,47.325909,0</coordinates></Point></Placemark>
<Placemark><name>Câmpia Beșineu</name><description>Nume: Câmpia Beșineu, Tip: beșineu, Nivel: 3, Județ: Bihor, Formă: Câmp, ID: 6973 <br /><b>Variante</b><br />Nume: Câmpia Beșineu, Hartă: Geomil 25000, Limbă: Limba română</description><Point><coordinates>21.840654,47.036211,0</coordinates></Point></Placemark>
<Placemark><name>Dealul Bejeneu</name><description>Nume: Dealul Bejeneu, Tip: bejeneu, Nivel: 4, Județ: Bistrita Nasaud, Formă: Deal, ID: 6362 <br /><b>Variante</b><br />Nume: Dealul Bejeneu, Hartă: Geomil 25000, Limbă: Limba română</description><Point><coordinates>24.756823,47.336307,0</coordinates></Point></Placemark>
<Placemark><name>Bessenyő</name><description>Nume: Bessenyő, Tip: besenyő, Nivel: 3, Județ: Bistrita Nasaud, Formă: Localitate, ID: 10581 <br /><b>Variante</b><br />Nume: Bessenyő, Hartă: Imperiul Habsburgic (1887), Limbă: Limba maghiară</description><Point><coordinates>24.446649,47.102057,0</coordinates></Point></Placemark>
<Placemark><name>Beschenbach (Valea Pecinegilor)</name><description>Nume: Beschenbach (Valea Pecinegilor), Tip: beschen, Nivel: 3, Județ: Brasov, Formă: Localitate, ID: 11776 <br /><b>Variante</b><br />Nume: Beschenbach (Valea Pecinegilor), Hartă: Transilvania (1869-1870), Limbă: Limba germană</description><Point><coordinates>24.763824,45.802223,0</coordinates></Point></Placemark>
<Placemark><name>Besenyő</name><description>Nume: Besenyő, Tip: besenyő, Nivel: 3, Județ: Covasna, Formă: Localitate, ID: 10636 <br /><b>Variante</b><br />Nume: Besenyő, Hartă: Imperiul Habsburgic (1887), Limbă: Limba maghiară</description><Point><coordinates>25.930318,45.885675,0</coordinates></Point></Placemark>
<Placemark><name>Eszenyő patak</name><description>Nume: Eszenyő patak, Tip: eszenyő, Nivel: 4, Județ: Harghita, Formă: Vale, ID: 14501 <br /><b>Variante</b><br />Nume: Eszenyő patak, Hartă: Transilvania (1869-1870), Limbă: Limba maghiară</description><Point><coordinates>25.433591,46.811057,0</coordinates></Point></Placemark>
<Placemark><name>Beczinegy B.</name><description>Nume: Beczinegy B., Tip: beczinegy, Nivel: 3, Județ: Maramures, Formă: Deal, ID: 11894 <br /><b>Variante</b><br />Nume: Beczinegy B., Hartă: Transilvania (1869-1870), Limbă: Limba română<br />Nume: Dealul Piținidea, Hartă: ANCPI, Limbă: Limba română</description><Point><coordinates>23.435079,46.890512,0</coordinates></Point></Placemark>
<Placemark><name>Beschendorf (Satul Pecenegilor)</name><description>Nume: Beschendorf (Satul Pecenegilor), Tip: beschen, Nivel: 3, Județ: Mures, Formă: Localitate, ID: 14499 <br /><b>Variante</b><br />Nume: Beschendorf (Satul Pecenegilor), Hartă: Transilvania (1769-1773), Limbă: Limba germană</description><Point><coordinates>24.721603,46.151009,0</coordinates></Point></Placemark>
<Placemark><name>Bese</name><description>Nume: Bese, Tip: beșe, Nivel: 4, Județ: Mures, Formă: Localitate, ID: 14511 <br /><b>Variante</b><br />Nume: Bese, Hartă: PDT, Limbă: Limba română</description><Point><coordinates>24.510942,46.575667,0</coordinates></Point></Placemark>
<Placemark><name>Pârâul Beșa</name><description>Nume: Pârâul Beșa, Tip: beșe, Nivel: 4, Județ: Mures, Formă: Vale, ID: 14512, ID Părinte: 14511 <br /><b>Variante</b><br />Nume: Pârâul Beșa, Hartă: PDT, Limbă: Limba română</description><Point><coordinates>24.531100,46.567714,0</coordinates></Point></Placemark>
<Placemark><LineString id="14512_14511"><tessellate>1</tessellate><coordinates>24.531100,46.567714,0.
24.510942,46.575667,0</coordinates></LineString><Style><LineStyle><width>3</width></LineStyle></Style></Placemark>
<Placemark><name>Beșineu</name><description>Nume: Beșineu, Tip: beșineu, Nivel: 3, Județ: Mures, Formă: Localitate, ID: 7340 <br /><b>Variante</b><br />Nume: Beșineu, Hartă: PDT, Limbă: Limba română</description><Point><coordinates>24.378795,46.435292,0</coordinates></Point></Placemark>
<Placemark><name>Dealul Beșineu</name><description>Nume: Dealul Beșineu, Tip: beșineu, Nivel: 3, Județ: Mures, Formă: Deal, ID: 11361, ID Părinte: 7340 <br /><b>Variante</b><br />Nume: Dealul Beșineu, Hartă: Geomil 25000, Limbă: Limba română</description><Point><coordinates>24.394324,46.422318,0</coordinates></Point></Placemark>
<Placemark><LineString id="11361_7340"><tessellate>1</tessellate><coordinates>24.394324,46.422318,0.
24.378795,46.435292,0</coordinates></LineString><Style><LineStyle><width>3</width></LineStyle></Style></Placemark>
<Placemark><name>Valea Beșineu</name><description>Nume: Valea Beșineu, Tip: beșineu, Nivel: 3, Județ: Mures, Formă: Vale, ID: 7349, ID Părinte: 7340 <br /><b>Variante</b><br />Nume: Valea Beșineu, Hartă: Geomil 25000, Limbă: Limba română</description><Point><coordinates>24.367945,46.456602,0</coordinates></Point></Placemark>
<Placemark><LineString id="7349_7340"><tessellate>1</tessellate><coordinates>24.367945,46.456602,0.
24.378795,46.435292,0</coordinates></LineString><Style><LineStyle><width>3</width></LineStyle></Style></Placemark>
<Placemark><name>Beseny tag</name><description>Nume: Beseny tag, Tip: beseny, Nivel: 3, Județ: Satu Mare, Formă: Vale, ID: 14505 <br /><b>Variante</b><br />Nume: Beseny tag, Hartă: Imperiul Habsburgic (1887), Limbă: Limba maghiară</description><Point><coordinates>22.324465,47.561806,0</coordinates></Point></Placemark>
<Placemark><name>Beșineul</name><description>Nume: Beșineul, Tip: beșineu, Nivel: 3, Județ: Sibiu, Formă: Înălțime, ID: 10674, ID Părinte: 9970 <br /><b>Variante</b><br />Nume: Beșineul, Hartă: Imperiul Habsburgic (1887), Limbă: Limba română</description><Point><coordinates>23.858959,45.612460,0</coordinates></Point></Placemark>
<Placemark><LineString id="10674_9970"><tessellate>1</tessellate><coordinates>23.858959,45.612460,0.
23.881367,45.614792,0</coordinates></LineString><Style><LineStyle><width>3</width></LineStyle></Style></Placemark>
<Placemark><name>Poiana Beșineului</name><description>Nume: Poiana Beșineului, Tip: beșineu, Nivel: 3, Județ: Sibiu, Formă: Poiană, ID: 9970 <br /><b>Variante</b><br />Nume: Poiana Beșineului, Hartă: Geomil 25000, Limbă: Limba română</description><Point><coordinates>23.881367,45.614792,0</coordinates></Point></Placemark>
<Placemark><name>Valea Beșineu</name><description>Nume: Valea Beșineu, Tip: beșineu, Nivel: 3, Județ: Sibiu, Formă: Vale, ID: 9971, ID Părinte: 9970 <br /><b>Variante</b><br />Nume: Valea Beșineu, Hartă: Geomil 25000, Limbă: Limba română</description><Point><coordinates>23.880634,45.618472,0</coordinates></Point></Placemark>
<Placemark><LineString id="9971_9970"><tessellate>1</tessellate><coordinates>23.880634,45.618472,0.
23.881367,45.614792,0</coordinates></LineString><Style><LineStyle><width>3</width></LineStyle></Style></Placemark>
<Placemark><name>Dealul Beșinești</name><description>Nume: Dealul Beșinești, Tip: beșinești, Nivel: 3, Județ: Suceava, Formă: Deal, ID: 11998 <br /><b>Variante</b><br />Nume: Dealul Beșinești, Hartă: Geomil 25000, Limbă: Limba română</description><Point><coordinates>26.480068,47.319205,0</coordinates></Point></Placemark>
<Placemark><name>Alt Bessenova (Beșenova Veche)</name><description>Nume: Alt Bessenova (Beșenova Veche), Tip: beșenova, Nivel: 4, Județ: Timis, Formă: Localitate, ID: 7629 <br /><b>Variante</b><br />Nume: Alt Bessenova (Beșenova Veche), Hartă: PDT, Limbă: Limba germană</description><Point><coordinates>20.474540,46.044361,0</coordinates></Point></Placemark>
<Placemark><name>Beșenova Nouă</name><description>Nume: Beșenova Nouă, Tip: beșenova, Nivel: 4, Județ: Timis, Formă: Localitate, ID: 7639 <br /><b>Variante</b><br />Nume: Beșenova Nouă, Hartă: PDT, Limbă: Limba română</description><Point><coordinates>21.097671,45.838330,0</coordinates></Point></Placemark>
<Placemark><name>Dealul Bușina</name><description>Nume: Dealul Bușina, Tip: bușina, Nivel: 3, Județ: Timis, Formă: Deal, ID: 15930 <br /><b>Variante</b><br />Nume: Dealul Bușina, Hartă: PDT, Limbă: Limba română</description><Point><coordinates>21.661337,45.912512,0</coordinates></Point></Placemark></Document></kml>