<?xml version="1.0" encoding="UTF-8"?><kml xmlns="http://www.opengis.net/kml/2.2"><Document><Placemark><name>Movila Căprăriei</name><description>Nume: Movila Căprăriei, Tip: căprărie, Nivel: 2, Județ: Braila, Formă: Înălțime, ID: 490 <br /><b>Variante</b><br />Nume: Movila Căprăriei, Hartă: Geomil 25000, Limbă: Limba română</description><Point><coordinates>27.814917,45.292070</coordinates></Point></Placemark>
<Placemark><name>Valea Căprăria</name><description>Nume: Valea Căprăria, Tip: căprărie, Nivel: 2, Județ: Buzau, Formă: Vale, ID: 569 <br /><b>Variante</b><br />Nume: Valea Căprăria, Hartă: Geomil 25000, Limbă: Limba română</description><Point><coordinates>26.950879,45.511181</coordinates></Point></Placemark>
<Placemark><name>Dealul Căprăriei</name><description>Nume: Dealul Căprăriei, Tip: căprărie, Nivel: 2, Județ: Neamt, Formă: Deal, ID: 656 <br /><b>Variante</b><br />Nume: Dealul Căprăriei, Hartă: Geomil 25000, Limbă: Limba română</description><Point><coordinates>26.319770,47.263529</coordinates></Point></Placemark>
<Placemark><name>Valea Căprăriei</name><description>Nume: Valea Căprăriei, Tip: căprărie, Nivel: 2, Județ: Vaslui, Formă: Vale, ID: 716 <br /><b>Variante</b><br />Nume: Valea Căprăriei, Hartă: Geomil 25000, Limbă: Limba română</description><Point><coordinates>27.802458,46.290286</coordinates></Point></Placemark>
<Placemark><name>Valea Căprăriei</name><description>Nume: Valea Căprăriei, Tip: căprărie, Nivel: 2, Județ: Galati, Formă: Vale, ID: 739 <br /><b>Variante</b><br />Nume: Valea Căprăriei, Hartă: Geomil 25000, Limbă: Limba română</description><Point><coordinates>27.493648,45.898986</coordinates></Point></Placemark>
<Placemark><name>Dealul Căprăriei</name><description>Nume: Dealul Căprăriei, Tip: căprărie, Nivel: 2, Județ: Suceava, Formă: Deal, ID: 1792 <br /><b>Variante</b><br />Nume: Dealul Căprăriei, Hartă: Geomil 25000, Limbă: Limba română<br />Nume: Dealul Căprăriei, Hartă: PDT, Limbă: Limba română</description><Point><coordinates>26.334680,47.690540</coordinates></Point></Placemark>
<Placemark><name>Coasta Căprăriei</name><description>Nume: Coasta Căprăriei, Tip: căprărie, Nivel: 2, Județ: Botosani, Formă: Înălțime, ID: 1830 <br /><b>Variante</b><br />Nume: Coasta Căprăriei, Hartă: Geomil 25000, Limbă: Limba română</description><Point><coordinates>26.607034,47.671522</coordinates></Point></Placemark>
<Placemark><name>Vârful Căprăriei</name><description>Nume: Vârful Căprăriei, Tip: căprărie, Nivel: 2, Județ: Suceava, Formă: Înălțime, ID: 1860 <br /><b>Variante</b><br />Nume: Vârful Căprăriei, Hartă: Geomil 25000, Limbă: Limba română</description><Point><coordinates>25.279772,47.493324</coordinates></Point></Placemark>
<Placemark><name>Piciorul Căprăriei</name><description>Nume: Piciorul Căprăriei, Tip: căprărie, Nivel: 2, Județ: Suceava, Formă: Înălțime, ID: 1879 <br /><b>Variante</b><br />Nume: Piciorul Căprăriei, Hartă: Geomil 25000, Limbă: Limba română</description><Point><coordinates>25.578034,47.314177</coordinates></Point></Placemark>
<Placemark><name>Coasta Căprăriei</name><description>Nume: Coasta Căprăriei, Tip: căprărie, Nivel: 2, Județ: Botosani, Formă: Înălțime, ID: 2019 <br /><b>Variante</b><br />Nume: Coasta Căprăriei, Hartă: Geomil 25000, Limbă: Limba română</description><Point><coordinates>26.288320,48.108456</coordinates></Point></Placemark>
<Placemark><name>Dealul Căprăriei</name><description>Nume: Dealul Căprăriei, Tip: căprărie, Nivel: 2, Județ: Vaslui, Formă: Deal, ID: 2209 <br /><b>Variante</b><br />Nume: Dealul Căprăriei, Hartă: Geomil 25000, Limbă: Limba română<br />Nume: Dealul Căprăria, Hartă: Moldova (1892-1898), Limbă: Limba română</description><Point><coordinates>27.878971,46.891271</coordinates></Point></Placemark>
<Placemark><name>La Căprărie</name><description>Nume: La Căprărie, Tip: căprărie, Nivel: 2, Județ: Neamt, Formă: Altele, ID: 3847 <br /><b>Variante</b><br />Nume: La Căprărie, Hartă: PDT, Limbă: Limba română</description><Point><coordinates>26.500596,46.741984</coordinates></Point></Placemark>
<Placemark><name>Padina Caprăriei</name><description>Nume: Padina Caprăriei, Tip: căprărie, Nivel: 2, Județ: Giurgiu, Formă: Altele, ID: 4228 <br /><b>Variante</b><br />Nume: Padina Caprăriei, Hartă: PDT, Limbă: Limba română</description><Point><coordinates>25.680690,44.217353</coordinates></Point></Placemark>
<Placemark><name>Culmea Căprăriei</name><description>Nume: Culmea Căprăriei, Tip: căprărie, Nivel: 2, Județ: Arges, Formă: Înălțime, ID: 5045 <br /><b>Variante</b><br />Nume: Culmea Căprăriei, Hartă: Geomil 25000, Limbă: Limba română</description><Point><coordinates>25.105660,45.345071</coordinates></Point></Placemark>
<Placemark><name>Culmea Căprăriei</name><description>Nume: Culmea Căprăriei, Tip: căprărie, Nivel: 2, Județ: Bacau, Formă: Înălțime, ID: 5332 <br /><b>Variante</b><br />Nume: Culmea Căprăriei, Hartă: PDT, Limbă: Limba română</description><Point><coordinates>26.884864,46.161093</coordinates></Point></Placemark>
<Placemark><name>Căprăria</name><description>Nume: Căprăria, Tip: căprărie, Nivel: 2, Județ: Vrancea, Formă: Localitate, ID: 5362 <br /><b>Variante</b><br />Nume: Căprăria, Hartă: PDT, Limbă: Limba română</description><Point><coordinates>26.926120,45.785908</coordinates></Point></Placemark>
<Placemark><name>Vârful Căprăria Mare</name><description>Nume: Vârful Căprăria Mare, Tip: căprărie, Nivel: 2, Județ: Suceava, Formă: Înălțime, ID: 6406 <br /><b>Variante</b><br />Nume: Vârful Căprăria Mare, Hartă: Geomil 25000, Limbă: Limba română</description><Point><coordinates>25.648454,47.202665</coordinates></Point></Placemark>
<Placemark><name>Bâtca Căprăriilor</name><description>Nume: Bâtca Căprăriilor, Tip: căprărie, Nivel: 2, Județ: Neamt, Formă: Înălțime, ID: 6502 <br /><b>Variante</b><br />Nume: Bâtca Căprăriilor, Hartă: PDT, Limbă: Limba română</description><Point><coordinates>26.082427,46.886843</coordinates></Point></Placemark>
<Placemark><name>Bâtca Căprăriei</name><description>Nume: Bâtca Căprăriei, Tip: căprărie, Nivel: 2, Județ: Neamt, Formă: Înălțime, ID: 6522 <br /><b>Variante</b><br />Nume: Bâtca Căprăriei, Hartă: PDT, Limbă: Limba română</description><Point><coordinates>26.126465,46.802308</coordinates></Point></Placemark>
<Placemark><name>Vârful Căprăriei</name><description>Nume: Vârful Căprăriei, Tip: căprărie, Nivel: 2, Județ: Neamt, Formă: Înălțime, ID: 7138 <br /><b>Variante</b><br />Nume: Vârful Căprăriei, Hartă: Geomil 25000, Limbă: Limba română</description><Point><coordinates>25.822940,47.095916</coordinates></Point></Placemark>
<Placemark><name>Dealul Căprăriei</name><description>Nume: Dealul Căprăriei, Tip: căprărie, Nivel: 2, Județ: Vaslui, Formă: Deal, ID: 7280 <br /><b>Variante</b><br />Nume: Dealul Căprăriei, Hartă: Geomil 25000, Limbă: Limba română</description><Point><coordinates>27.606065,46.496229</coordinates></Point></Placemark>
<Placemark><name>La Căpărie</name><description>Nume: La Căpărie, Tip: căprărie, Nivel: 2, Județ: Vaslui, Formă: Altele, ID: 7293 <br /><b>Variante</b><br />Nume: La Căpărie, Hartă: Geomil 25000, Limbă: Limba română</description><Point><coordinates>27.306778,46.826779</coordinates></Point></Placemark>
<Placemark><name>Dealul Căprăriei</name><description>Nume: Dealul Căprăriei, Tip: căprărie, Nivel: 2, Județ: Vaslui, Formă: Deal, ID: 7378 <br /><b>Variante</b><br />Nume: Dealul Căprăriei, Hartă: Geomil 25000, Limbă: Limba română</description><Point><coordinates>27.862941,46.227260</coordinates></Point></Placemark>
<Placemark><name>La Căprărie</name><description>Nume: La Căprărie, Tip: căprărie, Nivel: 2, Județ: Suceava, Formă: Altele, ID: 7786 <br /><b>Variante</b><br />Nume: La Căprărie, Hartă: Geomil 25000, Limbă: Limba română</description><Point><coordinates>26.370196,47.673881</coordinates></Point></Placemark>
<Placemark><name>În Căprărie</name><description>Nume: În Căprărie, Tip: căprărie, Nivel: 2, Județ: Bacau, Formă: Altele, ID: 7843 <br /><b>Variante</b><br />Nume: În Căprărie, Hartă: Geomil 25000, Limbă: Limba română</description><Point><coordinates>27.069963,46.278078</coordinates></Point></Placemark>
<Placemark><name>Poiana Căprăriei</name><description>Nume: Poiana Căprăriei, Tip: căprărie, Nivel: 2, Județ: Neamt, Formă: Vale, ID: 9106 <br /><b>Variante</b><br />Nume: Poiana Căprăriei, Hartă: PDT, Limbă: Limba română</description><Point><coordinates>25.879878,47.073694</coordinates></Point></Placemark>
<Placemark><name>Dealul Căprăria</name><description>Nume: Dealul Căprăria, Tip: căprărie, Nivel: 2, Județ: Neamt, Formă: Deal, ID: 9126 <br /><b>Variante</b><br />Nume: Dealul Căprăria, Hartă: PDT, Limbă: Limba română</description><Point><coordinates>26.181527,47.127308</coordinates></Point></Placemark>
<Placemark><name>Dealul Căprăria</name><description>Nume: Dealul Căprăria, Tip: căprărie, Nivel: 2, Județ: Vrancea, Formă: Deal, ID: 9228 <br /><b>Variante</b><br />Nume: Dealul Căprăria, Hartă: PDT, Limbă: Limba română</description><Point><coordinates>26.927728,45.775401</coordinates></Point></Placemark>
<Placemark><name>Dealul la Căprărie</name><description>Nume: Dealul la Căprărie, Tip: căprărie, Nivel: 2, Județ: Vaslui, Formă: Deal, ID: 9616 <br /><b>Variante</b><br />Nume: Dealul la Căprărie, Hartă: Moldova (1892-1898), Limbă: Limba română</description><Point><coordinates>27.911932,46.427620</coordinates></Point></Placemark>
<Placemark><name>Căprăria</name><description>Nume: Căprăria, Tip: căprărie, Nivel: 2, Județ: Suceava, Formă: Altele, ID: 10747 <br /><b>Variante</b><br />Nume: Căprăria, Hartă: Imperiul Habsburgic (1887), Limbă: Limba română</description><Point><coordinates>25.904056,47.517030</coordinates></Point></Placemark>
<Placemark><name>Piscul Căprăriei</name><description>Nume: Piscul Căprăriei, Tip: căprărie, Nivel: 2, Județ: Galati, Formă: Înălțime, ID: 10913 <br /><b>Variante</b><br />Nume: Piscul Căprăriei, Hartă: Moldova (1892-1898), Limbă: Limba română</description><Point><coordinates>27.876552,45.841792</coordinates></Point></Placemark>
<Placemark><name>La Căprărie</name><description>Nume: La Căprărie, Tip: căprărie, Nivel: 2, Județ: Teleorman, Formă: Altele, ID: 10983 <br /><b>Variante</b><br />Nume: La Căprărie, Hartă: Geomil 25000, Limbă: Limba română</description><Point><coordinates>24.936103,44.210339</coordinates></Point></Placemark>
<Placemark><name>Pădurea Caprariei</name><description>Nume: Pădurea Caprariei, Tip: căprărie, Nivel: 2, Județ: Vaslui, Formă: Pădure, ID: 12331 <br /><b>Variante</b><br />Nume: Pădurea Caprariei, Hartă: Moldova (1892-1898), Limbă: Limba română</description><Point><coordinates>27.521154,46.375418</coordinates></Point></Placemark>
<Placemark><name>Valea Căprăriei</name><description>Nume: Valea Căprăriei, Tip: căprărie, Nivel: 2, Județ: Bacau, Formă: Vale, ID: 12343 <br /><b>Variante</b><br />Nume: Valea Căprăriei, Hartă: PDT, Limbă: Limba română</description><Point><coordinates>26.720167,46.582261</coordinates></Point></Placemark>
<Placemark><name>Căprăria</name><description>Nume: Căprăria, Tip: căprărie, Nivel: 2, Județ: Botosani, Formă: Vale, ID: 12922 <br /><b>Variante</b><br />Nume: Căprăria, Hartă: Geomil 25000, Limbă: Limba română</description><Point><coordinates>26.681894,47.490014</coordinates></Point></Placemark>
<Placemark><name>Dealul Căprăriei</name><description>Nume: Dealul Căprăriei, Tip: căprărie, Nivel: 2, Județ: Bacau, Formă: Deal, ID: 13629 <br /><b>Variante</b><br />Nume: Dealul Căprăriei, Hartă: Moldova (1892-1898), Limbă: Limba română</description><Point><coordinates>27.044263,46.524992</coordinates></Point></Placemark>
<Placemark><name>Căprăriște</name><description>Nume: Căprăriște, Tip: căprăriște, Nivel: 3, Județ: Bihor, Formă: Altele, ID: 5986 <br /><b>Variante</b><br />Nume: Căprăriște, Hartă: Geomil 25000, Limbă: Limba română</description><Point><coordinates>21.777075,46.752961</coordinates></Point></Placemark>
<Placemark><name>Piciorul Iezăriei</name><description>Nume: Piciorul Iezăriei, Tip: iezărie, Nivel: 3, Județ: Neamt, Formă: Înălțime, ID: 6453 <br /><b>Variante</b><br />Nume: Piciorul Iezăriei, Hartă: PDT, Limbă: Limba română</description><Point><coordinates>25.851755,47.234037</coordinates></Point></Placemark></Document></kml>