<?xml version="1.0" encoding="UTF-8"?><kml xmlns="http://www.opengis.net/kml/2.2"><Document><Placemark><name>Piscul Bivoliței</name><description>Nume: Piscul Bivoliței, Tip: bivoliță, Nivel: 4, Județ: Arges, Formă: Înălțime, ID: 6880 <br /><b>Variante</b><br />Nume: Piscul Bivoliței, Hartă: Geomil 25000, Limbă: Limba română</description><Point><coordinates>24.954151,45.086154,0</coordinates></Point></Placemark>
<Placemark><name>Valea Bivoliței</name><description>Nume: Valea Bivoliței, Tip: bivoliță, Nivel: 4, Județ: Arges, Formă: Vale, ID: 1412 <br /><b>Variante</b><br />Nume: Valea Bivoliței, Hartă: Geomil 25000, Limbă: Limba română</description><Point><coordinates>24.631442,44.966193,0</coordinates></Point></Placemark>
<Placemark><name>Lacul Bivolița</name><description>Nume: Lacul Bivolița, Tip: bivoliță, Nivel: 4, Județ: Calarasi, Formă: Lac, ID: 3267 <br /><b>Variante</b><br />Nume: Lacul Bivolița, Hartă: PDT, Limbă: Limba română</description><Point><coordinates>26.769455,44.100027,0</coordinates></Point></Placemark>
<Placemark><name>Valea Bivolitza</name><description>Nume: Valea Bivolitza, Tip: bivoliță, Nivel: 4, Județ: Giurgiu, Formă: Vale, ID: 8301 <br /><b>Variante</b><br />Nume: Valea Bivolitza, Hartă: Austriacă, Limbă: Limba română</description><Point><coordinates>25.858079,44.050035,0</coordinates></Point></Placemark>
<Placemark><name>Poiana Bivolița</name><description>Nume: Poiana Bivolița, Tip: bivoliță, Nivel: 4, Județ: Ilfov, Formă: Poiană, ID: 43, ID Părinte: 44 <br /><b>Variante</b><br />Nume: Poiana Bivolița, Hartă: PDT, Limbă: Limba română</description><Point><coordinates>26.121092,44.730503,0</coordinates></Point></Placemark>
<Placemark><LineString id="43_44"><tessellate>1</tessellate><coordinates>26.121092,44.730503,0.
26.116827,44.739615,0</coordinates></LineString><Style><LineStyle><width>3</width></LineStyle></Style></Placemark>
<Placemark><name>Bivolitza</name><description>Nume: Bivolitza, Tip: bivoliță, Nivel: 4, Județ: Teleorman, Formă: Localitate, ID: 5782 <br /><b>Variante</b><br />Nume: Bivolitza, Hartă: Austriacă, Limbă: Limba română</description><Point><coordinates>25.219539,44.138686,0</coordinates></Point></Placemark></Document></kml>