<?xml version="1.0" encoding="UTF-8"?><kml xmlns="http://www.opengis.net/kml/2.2"><Document><Placemark><name>Calea Țigăncii</name><description>Nume: Calea Țigăncii, Tip: țigancă, Nivel: 3, Județ: Arad, Formă: Drum, ID: 1093 <br /><b>Variante</b><br />Nume: Calea Țigăncii, Hartă: Geomil 25000, Limbă: Limba română</description><Point><coordinates>21.542811,46.343602,0</coordinates></Point></Placemark>
<Placemark><name>Pârâu Țiganca</name><description>Nume: Pârâu Țiganca, Tip: țigancă, Nivel: 3, Județ: Arad, Formă: Vale, ID: 14248 <br /><b>Variante</b><br />Nume: Pârâu Țiganca, Hartă: Geomil 25000, Limbă: Limba română</description><Point><coordinates>21.329118,46.151313,0</coordinates></Point></Placemark>
<Placemark><name>Culmea Țiganca Mare</name><description>Nume: Culmea Țiganca Mare, Tip: țigancă, Nivel: 3, Județ: Arges, Formă: Înălțime, ID: 5024 <br /><b>Variante</b><br />Nume: Culmea Țiganca Mare, Hartă: Geomil 25000, Limbă: Limba română</description><Point><coordinates>25.041554,45.427293,0</coordinates></Point></Placemark>
<Placemark><name>Dealul Țigăncei</name><description>Nume: Dealul Țigăncei, Tip: țigancă, Nivel: 3, Județ: Arges, Formă: Deal, ID: 3406 <br /><b>Variante</b><br />Nume: Dealul Țigăncei, Hartă: PDT, Limbă: Limba română</description><Point><coordinates>24.743747,44.709254,0</coordinates></Point></Placemark>
<Placemark><name>Poiana Țigăncei</name><description>Nume: Poiana Țigăncei, Tip: țigancă, Nivel: 3, Județ: Arges, Formă: Poiană, ID: 8832 <br /><b>Variante</b><br />Nume: Poiana Țigăncei, Hartă: PDT, Limbă: Limba română</description><Point><coordinates>25.047183,45.092760,0</coordinates></Point></Placemark>
<Placemark><name>Valea Țiganca</name><description>Nume: Valea Țiganca, Tip: țigancă, Nivel: 3, Județ: Arges, Formă: Vale, ID: 4780 <br /><b>Variante</b><br />Nume: Valea Țiganca, Hartă: PDT, Limbă: Limba română</description><Point><coordinates>24.777745,44.749699,0</coordinates></Point></Placemark>
<Placemark><name>Valea Țigăncei</name><description>Nume: Valea Țigăncei, Tip: țigancă, Nivel: 3, Județ: Arges, Formă: Vale, ID: 3407, ID Părinte: 3406 <br /><b>Variante</b><br />Nume: Valea Țigăncei, Hartă: PDT, Limbă: Limba română</description><Point><coordinates>24.745096,44.707082,0</coordinates></Point></Placemark>
<Placemark><LineString id="3407_3406"><tessellate>1</tessellate><coordinates>24.745096,44.707082,0.
24.743747,44.709254,0</coordinates></LineString><Style><LineStyle><width>3</width></LineStyle></Style></Placemark>
<Placemark><name>Valea Țigăncii</name><description>Nume: Valea Țigăncii, Tip: țigancă, Nivel: 3, Județ: Arges, Formă: Vale, ID: 88 <br /><b>Variante</b><br />Nume: Valea Țigăncii, Hartă: Geomil 25000, Limbă: Limba română<br />Nume: Valea Țigănei, Hartă: PDT, Limbă: Limba română<br />Nume: дол. Цигэнчи (val. Țigăncii), Hartă: Sovietică, Limbă: Limba română</description><Point><coordinates>24.641450,44.946676,0</coordinates></Point></Placemark>
<Placemark><name>Valea Țigăncii</name><description>Nume: Valea Țigăncii, Tip: țigancă, Nivel: 3, Județ: Arges, Formă: Vale, ID: 8346 <br /><b>Variante</b><br />Nume: Valea Țigăncii, Hartă: Geomil 25000, Limbă: Limba română</description><Point><coordinates>24.736848,44.961991,0</coordinates></Point></Placemark>
<Placemark><name>Dealul Țigăncii</name><description>Nume: Dealul Țigăncii, Tip: țigancă, Nivel: 3, Județ: Bacau, Formă: Deal, ID: 12249 <br /><b>Variante</b><br />Nume: Dealul Țigăncii, Hartă: Geomil 25000, Limbă: Limba română</description><Point><coordinates>27.089518,46.457121,0</coordinates></Point></Placemark>
<Placemark><name>În Țiganca</name><description>Nume: În Țiganca, Tip: țigancă, Nivel: 3, Județ: Bacau, Formă: Altele, ID: 1613 <br /><b>Variante</b><br />Nume: În Țiganca, Hartă: Geomil 25000, Limbă: Limba română</description><Point><coordinates>26.991164,46.662378,0</coordinates></Point></Placemark>
<Placemark><name>Râpa Țigăncii</name><description>Nume: Râpa Țigăncii, Tip: țigancă, Nivel: 3, Județ: Bacau, Formă: Altele, ID: 1714 <br /><b>Variante</b><br />Nume: Râpa Țigăncii, Hartă: Geomil 25000, Limbă: Limba română</description><Point><coordinates>27.330161,46.213182,0</coordinates></Point></Placemark>
<Placemark><name>Valea Țigăncii</name><description>Nume: Valea Țigăncii, Tip: țigancă, Nivel: 3, Județ: Bacau, Formă: Vale, ID: 1612, ID Părinte: 1613 <br /><b>Variante</b><br />Nume: Valea Țigăncii, Hartă: Geomil 25000, Limbă: Limba română</description><Point><coordinates>26.976340,46.676164,0</coordinates></Point></Placemark>
<Placemark><LineString id="1612_1613"><tessellate>1</tessellate><coordinates>26.976340,46.676164,0.
26.991164,46.662378,0</coordinates></LineString><Style><LineStyle><width>3</width></LineStyle></Style></Placemark>
<Placemark><name>Țigănoaia</name><description>Nume: Țigănoaia, Tip: tiganoaia, Nivel: 4, Județ: Bacau, Formă: Altele, ID: 13154 <br /><b>Variante</b><br />Nume: Țigănoaia, Hartă: Geomil 25000, Limbă: Limba română</description><Point><coordinates>26.704327,46.513501,0</coordinates></Point></Placemark>
<Placemark><name>Valea Țigăncii</name><description>Nume: Valea Țigăncii, Tip: țigancă, Nivel: 3, Județ: Bihor, Formă: Vale, ID: 4196, ID Părinte: 4195 <br /><b>Variante</b><br />Nume: Valea Țigăncii, Hartă: PDT, Limbă: Limba română</description><Point><coordinates>22.247694,47.175360,0</coordinates></Point></Placemark>
<Placemark><LineString id="4196_4195"><tessellate>1</tessellate><coordinates>22.247694,47.175360,0.
22.242126,47.186647,0</coordinates></LineString><Style><LineStyle><width>3</width></LineStyle></Style></Placemark>
<Placemark><name>Vârful Țigăncii</name><description>Nume: Vârful Țigăncii, Tip: țigancă, Nivel: 3, Județ: Bistrita Nasaud, Formă: Înălțime, ID: 5431 <br /><b>Variante</b><br />Nume: Vârful Țigăncii, Hartă: Geomil 25000, Limbă: Limba română</description><Point><coordinates>24.962463,47.120159,0</coordinates></Point></Placemark>
<Placemark><name>Dealul Țigăncii</name><description>Nume: Dealul Țigăncii, Tip: țigancă, Nivel: 3, Județ: Botosani, Formă: Deal, ID: 1803 <br /><b>Variante</b><br />Nume: Dealul Țigăncii, Hartă: Geomil 25000, Limbă: Limba română</description><Point><coordinates>26.425173,47.867593,0</coordinates></Point></Placemark>
<Placemark><name>Dealul Țigăncii</name><description>Nume: Dealul Țigăncii, Tip: țigancă, Nivel: 3, Județ: Botosani, Formă: Deal, ID: 2360 <br /><b>Variante</b><br />Nume: Dealul Țigăncii, Hartă: Geomil 25000, Limbă: Limba română</description><Point><coordinates>26.718710,47.589458,0</coordinates></Point></Placemark>
<Placemark><name>Dealul Țigăncii</name><description>Nume: Dealul Țigăncii, Tip: țigancă, Nivel: 3, Județ: Botosani, Formă: Deal, ID: 2366 <br /><b>Variante</b><br />Nume: Dealul Țigăncii, Hartă: Geomil 25000, Limbă: Limba română</description><Point><coordinates>27.079442,47.475338,0</coordinates></Point></Placemark>
<Placemark><name>Lacul din Țiganca</name><description>Nume: Lacul din Țiganca, Tip: țigancă, Nivel: 3, Județ: Botosani, Formă: Lac, ID: 2354 <br /><b>Variante</b><br />Nume: Lacul din Țiganca, Hartă: Geomil 25000, Limbă: Limba română</description><Point><coordinates>26.865231,47.695503,0</coordinates></Point></Placemark>
<Placemark><name>Pădurea la Țiganca</name><description>Nume: Pădurea la Țiganca, Tip: țigancă, Nivel: 3, Județ: Botosani, Formă: Pădure, ID: 1761 <br /><b>Variante</b><br />Nume: Pădurea la Țiganca, Hartă: Geomil 25000, Limbă: Limba română</description><Point><coordinates>26.856531,47.589827,0</coordinates></Point></Placemark>
<Placemark><name>Pădurea Țigăncii</name><description>Nume: Pădurea Țigăncii, Tip: țigancă, Nivel: 3, Județ: Botosani, Formă: Pădure, ID: 2361 <br /><b>Variante</b><br />Nume: Pădurea Țigăncii, Hartă: Geomil 25000, Limbă: Limba română</description><Point><coordinates>26.694847,47.570911,0</coordinates></Point></Placemark>
<Placemark><name>Țiganca</name><description>Nume: Țiganca, Tip: țigancă, Nivel: 3, Județ: Botosani, Formă: Vale, ID: 14089 <br /><b>Variante</b><br />Nume: Țiganca, Hartă: Geomil 25000, Limbă: Limba română</description><Point><coordinates>26.178582,47.977150,0</coordinates></Point></Placemark>
<Placemark><name>Valea Țigăncii</name><description>Nume: Valea Țigăncii, Tip: țigancă, Nivel: 3, Județ: Botosani, Formă: Vale, ID: 1762, ID Părinte: 1761 <br /><b>Variante</b><br />Nume: Valea Țigăncii, Hartă: Geomil 25000, Limbă: Limba română</description><Point><coordinates>26.851168,47.597578,0</coordinates></Point></Placemark>
<Placemark><LineString id="1762_1761"><tessellate>1</tessellate><coordinates>26.851168,47.597578,0.
26.856531,47.589827,0</coordinates></LineString><Style><LineStyle><width>3</width></LineStyle></Style></Placemark>
<Placemark><name>Valea Țigăncii</name><description>Nume: Valea Țigăncii, Tip: țigancă, Nivel: 3, Județ: Botosani, Formă: Vale, ID: 2355, ID Părinte: 2354 <br /><b>Variante</b><br />Nume: Valea Țigăncii, Hartă: Geomil 25000, Limbă: Limba română</description><Point><coordinates>26.864949,47.692328,0</coordinates></Point></Placemark>
<Placemark><LineString id="2355_2354"><tessellate>1</tessellate><coordinates>26.864949,47.692328,0.
26.865231,47.695503,0</coordinates></LineString><Style><LineStyle><width>3</width></LineStyle></Style></Placemark>
<Placemark><name>Valea Țigăncii</name><description>Nume: Valea Țigăncii, Tip: țigancă, Nivel: 3, Județ: Botosani, Formă: Vale, ID: 2380 <br /><b>Variante</b><br />Nume: Valea Țigăncii, Hartă: Geomil 25000, Limbă: Limba română</description><Point><coordinates>26.940551,47.713321,0</coordinates></Point></Placemark>
<Placemark><name>Valea Țigăncii</name><description>Nume: Valea Țigăncii, Tip: țigancă, Nivel: 3, Județ: Botosani, Formă: Vale, ID: 4913, ID Părinte: 1803 <br /><b>Variante</b><br />Nume: Valea Țigăncii, Hartă: PDT, Limbă: Limba română</description><Point><coordinates>26.439282,47.864467,0</coordinates></Point></Placemark>
<Placemark><LineString id="4913_1803"><tessellate>1</tessellate><coordinates>26.439282,47.864467,0.
26.425173,47.867593,0</coordinates></LineString><Style><LineStyle><width>3</width></LineStyle></Style></Placemark>
<Placemark><name>Balta Țiganca</name><description>Nume: Balta Țiganca, Tip: țigancă, Nivel: 3, Județ: Braila, Formă: Apă-deal-câmpie, ID: 9264 <br /><b>Variante</b><br />Nume: Balta Țiganca, Hartă: PDT, Limbă: Limba română</description><Point><coordinates>27.941439,45.144412,0</coordinates></Point></Placemark>
<Placemark><name>Gârla Țigăncii</name><description>Nume: Gârla Țigăncii, Tip: țigancă, Nivel: 3, Județ: Braila, Formă: Apă-deal-câmpie, ID: 3616 <br /><b>Variante</b><br />Nume: Gârla Țigăncii, Hartă: Geomil 25000, Limbă: Limba română</description><Point><coordinates>27.598129,45.473014,0</coordinates></Point></Placemark>
<Placemark><name>Fața Țigăncii</name><description>Nume: Fața Țigăncii, Tip: țigancă, Nivel: 3, Județ: Brasov, Formă: Altele, ID: 2491 <br /><b>Variante</b><br />Nume: Fața Țigăncii, Hartă: Geomil 25000, Limbă: Limba română</description><Point><coordinates>25.194459,45.784390,0</coordinates></Point></Placemark>
<Placemark><name>Curmătura Țiganca</name><description>Nume: Curmătura Țiganca, Tip: țigancă, Nivel: 3, Județ: Buzau, Formă: Înălțime, ID: 2809 <br /><b>Variante</b><br />Nume: Curmătura Țiganca, Hartă: Geomil 25000, Limbă: Limba română</description><Point><coordinates>26.482945,45.555823,0</coordinates></Point></Placemark>
<Placemark><name>Dealu Țigănoaia</name><description>Nume: Dealu Țigănoaia, Tip: țigancă, Nivel: 3, Județ: Buzau, Formă: Deal, ID: 75 <br /><b>Variante</b><br />Nume: Dealu Țigănoaia, Hartă: Geomil 25000, Limbă: Limba română<br />Nume: Dealul Țigănoea, Hartă: PDT, Limbă: Limba română<br />Nume: г. Цигэноая (d. Țigănoaia), Hartă: Sovietică, Limbă: Limba română</description><Point><coordinates>26.668587,45.163349,0</coordinates></Point></Placemark>
<Placemark><name>Movila Țigăncii</name><description>Nume: Movila Țigăncii, Tip: țigancă, Nivel: 3, Județ: Buzau, Formă: Înălțime, ID: 755 <br /><b>Variante</b><br />Nume: Movila Țigăncii, Hartă: Geomil 25000, Limbă: Limba română</description><Point><coordinates>27.096705,45.406802,0</coordinates></Point></Placemark>
<Placemark><name>Pădurea Țiganca</name><description>Nume: Pădurea Țiganca, Tip: țigancă, Nivel: 3, Județ: Calarasi, Formă: Pădure, ID: 477 <br /><b>Variante</b><br />Nume: Pădurea Țiganca, Hartă: Geomil 25000, Limbă: Limba română</description><Point><coordinates>27.578783,44.241467,0</coordinates></Point></Placemark>
<Placemark><name>Țiganca</name><description>Nume: Țiganca, Tip: țigancă, Nivel: 3, Județ: Calarasi, Formă: Altele, ID: 3464 <br /><b>Variante</b><br />Nume: Țiganca, Hartă: PDT, Limbă: Limba română</description><Point><coordinates>27.558673,44.231305,0</coordinates></Point></Placemark>
<Placemark><name>Tziganka</name><description>Nume: Tziganka, Tip: țigancă, Nivel: 3, Județ: Calarasi, Formă: Localitate, ID: 3628 <br /><b>Variante</b><br />Nume: Tziganka, Hartă: Austriacă, Limbă: Limba română</description><Point><coordinates>26.548838,44.402230,0</coordinates></Point></Placemark>
<Placemark><name>Culmea Țigăncii</name><description>Nume: Culmea Țigăncii, Tip: țigancă, Nivel: 3, Județ: Caras Severin, Formă: Înălțime, ID: 8510 <br /><b>Variante</b><br />Nume: Culmea Țigăncii, Hartă: Geomil 25000, Limbă: Limba română<br />Nume: Culmea Țigăncii, Hartă: PDT, Limbă: Limba română</description><Point><coordinates>21.773159,44.868482,0</coordinates></Point></Placemark>
<Placemark><name>Dealul Țiganii</name><description>Nume: Dealul Țiganii, Tip: țigancă, Nivel: 3, Județ: Caras Severin, Formă: Deal, ID: 1234 <br /><b>Variante</b><br />Nume: Dealul Țiganii, Hartă: Geomil 25000, Limbă: Limba română</description><Point><coordinates>21.817072,45.241218,0</coordinates></Point></Placemark>
<Placemark><name>Ogașu Țiganca</name><description>Nume: Ogașu Țiganca, Tip: țigancă, Nivel: 3, Județ: Caras Severin, Formă: Înălțime, ID: 4323 <br /><b>Variante</b><br />Nume: Ogașu Țiganca, Hartă: Geomil 25000, Limbă: Limba română</description><Point><coordinates>21.779807,45.287408,0</coordinates></Point></Placemark>
<Placemark><name>Ogașu Țigăncii</name><description>Nume: Ogașu Țigăncii, Tip: țigancă, Nivel: 3, Județ: Caras Severin, Formă: Vale, ID: 1233 <br /><b>Variante</b><br />Nume: Ogașu Țigăncii, Hartă: Geomil 25000, Limbă: Limba română</description><Point><coordinates>21.974678,45.223792,0</coordinates></Point></Placemark>
<Placemark><name>Nemira Țiganca</name><description>Nume: Nemira Țiganca, Tip: țigancă, Nivel: 3, Județ: Covasna, Formă: Înălțime, ID: 5319 <br /><b>Variante</b><br />Nume: Nemira Țiganca, Hartă: Geomil 25000, Limbă: Limba română</description><Point><coordinates>26.324674,46.231343,0</coordinates></Point></Placemark>
<Placemark><name>Tiganka patak (Pârâul Țiganca)</name><description>Nume: Tiganka patak (Pârâul Țiganca), Tip: țigancă, Nivel: 3, Județ: Covasna, Formă: Vale, ID: 7923, ID Părinte: 5319 <br /><b>Variante</b><br />Nume: Tiganka patak (Pârâul Țiganca), Hartă: PDT, Limbă: Limba maghiară</description><Point><coordinates>26.290347,46.226750,0</coordinates></Point></Placemark>
<Placemark><LineString id="7923_5319"><tessellate>1</tessellate><coordinates>26.290347,46.226750,0.
26.324674,46.231343,0</coordinates></LineString><Style><LineStyle><width>3</width></LineStyle></Style></Placemark>
<Placemark><name>Măgura cu Țiganca</name><description>Nume: Măgura cu Țiganca, Tip: țigancă, Nivel: 3, Județ: Dambovita, Formă: Înălțime, ID: 12794 <br /><b>Variante</b><br />Nume: Măgura cu Țiganca, Hartă: PDT, Limbă: Limba română</description><Point><coordinates>25.314329,44.644421,0</coordinates></Point></Placemark>
<Placemark><name>Țigăneasca</name><description>Nume: Țigăneasca, Tip: țigancă, Nivel: 3, Județ: Dambovita, Formă: Altele, ID: 1515 <br /><b>Variante</b><br />Nume: Țigăneasca, Hartă: Geomil 25000, Limbă: Limba română</description><Point><coordinates>25.229571,44.703947,0</coordinates></Point></Placemark>
<Placemark><name>Balta Gârla Țigăncei</name><description>Nume: Balta Gârla Țigăncei, Tip: țigancă, Nivel: 3, Județ: Dolj, Formă: Apă-deal-câmpie, ID: 12166 <br /><b>Variante</b><br />Nume: Balta Gârla Țigăncei, Hartă: PDT, Limbă: Limba română</description><Point><coordinates>23.969826,43.749255,0</coordinates></Point></Placemark>
<Placemark><name>Galdăul Țigâncii</name><description>Nume: Galdăul Țigâncii, Tip: țigancă, Nivel: 3, Județ: Dolj, Formă: Apă-deal-câmpie, ID: 4680 <br /><b>Variante</b><br />Nume: Galdăul Țigâncii, Hartă: PDT, Limbă: Limba română</description><Point><coordinates>23.605394,43.818764,0</coordinates></Point></Placemark>
<Placemark><name>Grindul Țigancei</name><description>Nume: Grindul Țigancei, Tip: țigancă, Nivel: 3, Județ: Dolj, Formă: Apă-deal-câmpie, ID: 4679 <br /><b>Variante</b><br />Nume: Grindul Țigancei, Hartă: PDT, Limbă: Limba română<br />Nume: Grindul Țigăncii, Hartă: Geomil 25000, Limbă: Limba română<br />Nume: Gr. Tziganci, Hartă: Austriacă, Limbă: Limba română</description><Point><coordinates>23.709022,43.824184,0</coordinates></Point></Placemark>
<Placemark><name>Măgura Țigăncii</name><description>Nume: Măgura Țigăncii, Tip: țigancă, Nivel: 3, Județ: Dolj, Formă: Înălțime, ID: 10348 <br /><b>Variante</b><br />Nume: Măgura Țigăncii, Hartă: Geomil 25000, Limbă: Limba română</description><Point><coordinates>23.272649,43.894065,0</coordinates></Point></Placemark>
<Placemark><name>Pădurea Țigăncii</name><description>Nume: Pădurea Țigăncii, Tip: țigancă, Nivel: 3, Județ: Dolj, Formă: Pădure, ID: 11372 <br /><b>Variante</b><br />Nume: Pădurea Țigăncii, Hartă: Geomil 25000, Limbă: Limba română</description><Point><coordinates>23.354932,44.233642,0</coordinates></Point></Placemark>
<Placemark><name>Valea Țiganca</name><description>Nume: Valea Țiganca, Tip: țigancă, Nivel: 3, Județ: Dolj, Formă: Vale, ID: 3367 <br /><b>Variante</b><br />Nume: Valea Țiganca, Hartă: PDT, Limbă: Limba română</description><Point><coordinates>23.621659,44.288756,0</coordinates></Point></Placemark>
<Placemark><name>Valea Țigăncei</name><description>Nume: Valea Țigăncei, Tip: țigancă, Nivel: 3, Județ: Dolj, Formă: Vale, ID: 14539 <br /><b>Variante</b><br />Nume: Valea Țigăncei, Hartă: PDT, Limbă: Limba română</description><Point><coordinates>23.511007,44.422848,0</coordinates></Point></Placemark>
<Placemark><name>Valea Țigăncii</name><description>Nume: Valea Țigăncii, Tip: țigancă, Nivel: 3, Județ: Dolj, Formă: Vale, ID: 4707 <br /><b>Variante</b><br />Nume: Valea Țigăncii, Hartă: Geomil 25000, Limbă: Limba română</description><Point><coordinates>23.581428,44.392663,0</coordinates></Point></Placemark>
<Placemark><name>Valea Țigăncii</name><description>Nume: Valea Țigăncii, Tip: țigancă, Nivel: 3, Județ: Dolj, Formă: Vale, ID: 8094 <br /><b>Variante</b><br />Nume: Valea Țigăncii, Hartă: PDT, Limbă: Limba română</description><Point><coordinates>23.214581,44.254634,0</coordinates></Point></Placemark>
<Placemark><name>Dealul Țiganca</name><description>Nume: Dealul Țiganca, Tip: țigancă, Nivel: 3, Județ: Galati, Formă: Deal, ID: 1588 <br /><b>Variante</b><br />Nume: Dealul Țiganca, Hartă: Geomil 25000, Limbă: Limba română</description><Point><coordinates>27.709071,45.728541,0</coordinates></Point></Placemark>
<Placemark><name>Movila Țiganca</name><description>Nume: Movila Țiganca, Tip: țigancă, Nivel: 3, Județ: Galati, Formă: Înălțime, ID: 1590, ID Părinte: 1588 <br /><b>Variante</b><br />Nume: Movila Țiganca, Hartă: Geomil 25000, Limbă: Limba română<br />Nume: Movila Țigăncii, Hartă: PDT, Limbă: Limba română</description><Point><coordinates>27.703917,45.729932,0</coordinates></Point></Placemark>
<Placemark><LineString id="1590_1588"><tessellate>1</tessellate><coordinates>27.703917,45.729932,0.
27.709071,45.728541,0</coordinates></LineString><Style><LineStyle><width>3</width></LineStyle></Style></Placemark>
<Placemark><name>Țarina Țiganca</name><description>Nume: Țarina Țiganca, Tip: țigancă, Nivel: 3, Județ: Galati, Formă: Altele, ID: 1589, ID Părinte: 1588 <br /><b>Variante</b><br />Nume: Țarina Țiganca, Hartă: Geomil 25000, Limbă: Limba română</description><Point><coordinates>27.719523,45.727758,0</coordinates></Point></Placemark>
<Placemark><LineString id="1589_1588"><tessellate>1</tessellate><coordinates>27.719523,45.727758,0.
27.709071,45.728541,0</coordinates></LineString><Style><LineStyle><width>3</width></LineStyle></Style></Placemark>
<Placemark><name>La Țigăneasca</name><description>Nume: La Țigăneasca, Tip: țigancă, Nivel: 3, Județ: Giurgiu, Formă: Altele, ID: 463 <br /><b>Variante</b><br />Nume: La Țigăneasca, Hartă: Geomil 25000, Limbă: Limba română</description><Point><coordinates>25.944400,44.215032,0</coordinates></Point></Placemark>
<Placemark><name>Piscul Țigăncii</name><description>Nume: Piscul Țigăncii, Tip: țigancă, Nivel: 3, Județ: Gorj, Formă: Înălțime, ID: 14622 <br /><b>Variante</b><br />Nume: Piscul Țigăncii, Hartă: PDT, Limbă: Limba română</description><Point><coordinates>23.610055,44.806273,0</coordinates></Point></Placemark>
<Placemark><name>Valea Țigăncii</name><description>Nume: Valea Țigăncii, Tip: țigancă, Nivel: 3, Județ: Gorj, Formă: Vale, ID: 3106 <br /><b>Variante</b><br />Nume: Valea Țigăncii, Hartă: Geomil 25000, Limbă: Limba română</description><Point><coordinates>23.641837,45.056031,0</coordinates></Point></Placemark>
<Placemark><name>Poiana Țigăncii</name><description>Nume: Poiana Țigăncii, Tip: țigancă, Nivel: 3, Județ: Iasi, Formă: Poiană, ID: 6615 <br /><b>Variante</b><br />Nume: Poiana Țigăncii, Hartă: PDT, Limbă: Limba română</description><Point><coordinates>26.849029,47.353658,0</coordinates></Point></Placemark>
<Placemark><name>Valea la Gura Țigănci</name><description>Nume: Valea la Gura Țigănci, Tip: țigancă, Nivel: 3, Județ: Iasi, Formă: Vale, ID: 8878 <br /><b>Variante</b><br />Nume: Valea la Gura Țigănci, Hartă: PDT, Limbă: Limba română</description><Point><coordinates>26.814373,47.196542,0</coordinates></Point></Placemark>
<Placemark><name>Pârâul Țigăncilor</name><description>Nume: Pârâul Țigăncilor, Tip: țigănci, Nivel: 4, Județ: Iasi, Formă: Vale, ID: 12928 <br /><b>Variante</b><br />Nume: Pârâul Țigăncilor, Hartă: Geomil 25000, Limbă: Limba română</description><Point><coordinates>26.814943,47.171583,0</coordinates></Point></Placemark>
<Placemark><name>Pădurea Țiganca</name><description>Nume: Pădurea Țiganca, Tip: țigancă, Nivel: 3, Județ: Ilfov, Formă: Pădure, ID: 1318 <br /><b>Variante</b><br />Nume: Pădurea Țiganca, Hartă: Geomil 25000, Limbă: Limba română<br />Nume: Pădurea Țiganca Mare, Hartă: PDT, Limbă: Limba română</description><Point><coordinates>26.190700,44.600204,0</coordinates></Point></Placemark>
<Placemark><name>Pădurea Țiganca</name><description>Nume: Pădurea Țiganca, Tip: țigancă, Nivel: 3, Județ: Ilfov, Formă: Înălțime, ID: 1319 <br /><b>Variante</b><br />Nume: Pădurea Țiganca, Hartă: Geomil 25000, Limbă: Limba română<br />Nume: Pădurea Țiganca Mică, Hartă: Austriacă, Limbă: Limba română</description><Point><coordinates>26.203437,44.596906,0</coordinates></Point></Placemark>
<Placemark><name>Dosișul Prumul Țigăncei</name><description>Nume: Dosișul Prumul Țigăncei, Tip: țigancă, Nivel: 3, Județ: Mehedinti, Formă: Altele, ID: 11022 <br /><b>Variante</b><br />Nume: Dosișul Prumul Țigăncei, Hartă: PDT, Limbă: Limba română</description><Point><coordinates>23.040280,44.374207,0</coordinates></Point></Placemark>
<Placemark><name>Poiana Țigăncii</name><description>Nume: Poiana Țigăncii, Tip: țigancă, Nivel: 3, Județ: Mures, Formă: Poiană, ID: 5430, ID Părinte: 5431 <br /><b>Variante</b><br />Nume: Poiana Țigăncii, Hartă: Geomil 25000, Limbă: Limba română<br />Nume: Poiana Țiganca, Hartă: PDT, Limbă: Limba română</description><Point><coordinates>24.969076,47.114714,0</coordinates></Point></Placemark>
<Placemark><LineString id="5430_5431"><tessellate>1</tessellate><coordinates>24.969076,47.114714,0.
24.962463,47.120159,0</coordinates></LineString><Style><LineStyle><width>3</width></LineStyle></Style></Placemark>
<Placemark><name>Valea Țiganca</name><description>Nume: Valea Țiganca, Tip: țigancă, Nivel: 3, Județ: Mures, Formă: Vale, ID: 10018, ID Părinte: 5431 <br /><b>Variante</b><br />Nume: Valea Țiganca, Hartă: PDT, Limbă: Limba română</description><Point><coordinates>24.969778,47.106817,0</coordinates></Point></Placemark>
<Placemark><LineString id="10018_5431"><tessellate>1</tessellate><coordinates>24.969778,47.106817,0.
24.962463,47.120159,0</coordinates></LineString><Style><LineStyle><width>3</width></LineStyle></Style></Placemark>
<Placemark><name>Dealul Țigăncii</name><description>Nume: Dealul Țigăncii, Tip: țigancă, Nivel: 3, Județ: Neamt, Formă: Deal, ID: 1627, ID Părinte: 1626 <br /><b>Variante</b><br />Nume: Dealul Țigăncii, Hartă: Geomil 25000, Limbă: Limba română</description><Point><coordinates>27.015369,46.846074,0</coordinates></Point></Placemark>
<Placemark><LineString id="1627_1626"><tessellate>1</tessellate><coordinates>27.015369,46.846074,0.
27.003615,46.848830,0</coordinates></LineString><Style><LineStyle><width>3</width></LineStyle></Style></Placemark>
<Placemark><name>La Țiganca</name><description>Nume: La Țiganca, Tip: țigancă, Nivel: 3, Județ: Neamt, Formă: Altele, ID: 1626 <br /><b>Variante</b><br />Nume: La Țiganca, Hartă: Geomil 25000, Limbă: Limba română</description><Point><coordinates>27.003615,46.848830,0</coordinates></Point></Placemark>
<Placemark><name>Țiganca</name><description>Nume: Țiganca, Tip: țigancă, Nivel: 3, Județ: Neamt, Formă: Altele, ID: 671 <br /><b>Variante</b><br />Nume: Țiganca, Hartă: Geomil 25000, Limbă: Limba română</description><Point><coordinates>26.266838,47.023818,0</coordinates></Point></Placemark>
<Placemark><name>Țiganca</name><description>Nume: Țiganca, Tip: țigancă, Nivel: 3, Județ: Neamt, Formă: Vale, ID: 1628, ID Părinte: 1626 <br /><b>Variante</b><br />Nume: Țiganca, Hartă: Geomil 25000, Limbă: Limba română</description><Point><coordinates>26.994012,46.858792,0</coordinates></Point></Placemark>
<Placemark><LineString id="1628_1626"><tessellate>1</tessellate><coordinates>26.994012,46.858792,0.
27.003615,46.848830,0</coordinates></LineString><Style><LineStyle><width>3</width></LineStyle></Style></Placemark>
<Placemark><name>Țiganca</name><description>Nume: Țiganca, Tip: țigancă, Nivel: 3, Județ: Neamt, Formă: Vale, ID: 6458, ID Părinte: 6459 <br /><b>Variante</b><br />Nume: Țiganca, Hartă: Geomil 25000, Limbă: Limba română</description><Point><coordinates>25.930817,47.141566,0</coordinates></Point></Placemark>
<Placemark><LineString id="6458_6459"><tessellate>1</tessellate><coordinates>25.930817,47.141566,0.
25.943016,47.135360,0</coordinates></LineString><Style><LineStyle><width>3</width></LineStyle></Style></Placemark>
<Placemark><name>Țiganca</name><description>Nume: Țiganca, Tip: țigancă, Nivel: 3, Județ: Neamt, Formă: Vale, ID: 12625, ID Părinte: 671 <br /><b>Variante</b><br />Nume: Țiganca, Hartă: Geomil 25000, Limbă: Limba română</description><Point><coordinates>26.255997,47.019739,0</coordinates></Point></Placemark>
<Placemark><LineString id="12625_671"><tessellate>1</tessellate><coordinates>26.255997,47.019739,0.
26.266838,47.023818,0</coordinates></LineString><Style><LineStyle><width>3</width></LineStyle></Style></Placemark>
<Placemark><name>Vârful Țigăncii</name><description>Nume: Vârful Țigăncii, Tip: țigancă, Nivel: 3, Județ: Neamt, Formă: Înălțime, ID: 6459 <br /><b>Variante</b><br />Nume: Vârful Țigăncii, Hartă: Geomil 25000, Limbă: Limba română<br />Nume: Bâtca Pârâului Țigăncii, Hartă: PDT, Limbă: Limba română</description><Point><coordinates>25.943016,47.135360,0</coordinates></Point></Placemark>
<Placemark><name>La Țiganca</name><description>Nume: La Țiganca, Tip: țigancă, Nivel: 3, Județ: Olt, Formă: Altele, ID: 11185 <br /><b>Variante</b><br />Nume: La Țiganca, Hartă: ANCPI, Limbă: Limba română</description><Point><coordinates>24.240246,44.362399,0</coordinates></Point></Placemark>
<Placemark><name>Măgura Țigăncii</name><description>Nume: Măgura Țigăncii, Tip: țigancă, Nivel: 3, Județ: Olt, Formă: Înălțime, ID: 1264 <br /><b>Variante</b><br />Nume: Măgura Țigăncii, Hartă: Geomil 25000, Limbă: Limba română</description><Point><coordinates>24.566116,43.932556,0</coordinates></Point></Placemark>
<Placemark><name>Măgura Țigăncii</name><description>Nume: Măgura Țigăncii, Tip: țigancă, Nivel: 3, Județ: Olt, Formă: Înălțime, ID: 12375 <br /><b>Variante</b><br />Nume: Măgura Țigăncii, Hartă: Geomil 25000, Limbă: Limba română</description><Point><coordinates>24.297631,43.912564,0</coordinates></Point></Placemark>
<Placemark><name>Valea Țigăncii</name><description>Nume: Valea Țigăncii, Tip: țigancă, Nivel: 3, Județ: Olt, Formă: Vale, ID: 2995 <br /><b>Variante</b><br />Nume: Valea Țigăncii, Hartă: Geomil 25000, Limbă: Limba română</description><Point><coordinates>24.527004,44.295876,0</coordinates></Point></Placemark>
<Placemark><name>Valea Țigăncei</name><description>Nume: Valea Țigăncei, Tip: țigancă, Nivel: 3, Județ: Prahova, Formă: Vale, ID: 16 <br /><b>Variante</b><br />Nume: Valea Țigăncei, Hartă: PDT, Limbă: Limba română<br />Nume: Valea Zigan, Hartă: Austriacă, Limbă: Limba română</description><Point><coordinates>26.325945,45.039788,0</coordinates></Point></Placemark>
<Placemark><name>Gruiul Țigăncii</name><description>Nume: Gruiul Țigăncii, Tip: țigancă, Nivel: 3, Județ: Sibiu, Formă: Altele, ID: 8003 <br /><b>Variante</b><br />Nume: Gruiul Țigăncii, Hartă: PDT, Limbă: Limba română</description><Point><coordinates>24.431915,45.776743,0</coordinates></Point></Placemark>
<Placemark><name>Pădurea Țigăncii</name><description>Nume: Pădurea Țigăncii, Tip: țigancă, Nivel: 3, Județ: Suceava, Formă: Pădure, ID: 649 <br /><b>Variante</b><br />Nume: Pădurea Țigăncii, Hartă: Geomil 25000, Limbă: Limba română</description><Point><coordinates>25.867879,47.617381,0</coordinates></Point></Placemark>
<Placemark><name>Părâul Țigancii</name><description>Nume: Părâul Țigancii, Tip: țigancă, Nivel: 3, Județ: Suceava, Formă: Vale, ID: 10753, ID Părinte: 649 <br /><b>Variante</b><br />Nume: Părâul Țigancii, Hartă: Imperiul Habsburgic (1887), Limbă: Limba română<br />Nume: Pârâul Țigancăi, Hartă: Geomil 25000, Limbă: Limba română</description><Point><coordinates>25.852504,47.615569,0</coordinates></Point></Placemark>
<Placemark><LineString id="10753_649"><tessellate>1</tessellate><coordinates>25.852504,47.615569,0.
25.867879,47.617381,0</coordinates></LineString><Style><LineStyle><width>3</width></LineStyle></Style></Placemark>
<Placemark><name>Râpa Țigăncii</name><description>Nume: Râpa Țigăncii, Tip: țigancă, Nivel: 3, Județ: Suceava, Formă: Înălțime, ID: 1794 <br /><b>Variante</b><br />Nume: Râpa Țigăncii, Hartă: Geomil 25000, Limbă: Limba română<br />Nume: Râpa Țigănei, Hartă: PDT, Limbă: Limba română</description><Point><coordinates>26.391715,47.733184,0</coordinates></Point></Placemark>
<Placemark><name>Țiganca</name><description>Nume: Țiganca, Tip: țigancă, Nivel: 3, Județ: Suceava, Formă: Vale, ID: 13270 <br /><b>Variante</b><br />Nume: Țiganca, Hartă: Geomil 25000, Limbă: Limba română</description><Point><coordinates>26.218821,47.329709,0</coordinates></Point></Placemark>
<Placemark><name>Dealu Țigăncei</name><description>Nume: Dealu Țigăncei, Tip: țigancă, Nivel: 3, Județ: Teleorman, Formă: Deal, ID: 10971 <br /><b>Variante</b><br />Nume: Dealu Țigăncei, Hartă: Geomil 25000, Limbă: Limba română</description><Point><coordinates>25.244267,44.062977,0</coordinates></Point></Placemark>
<Placemark><name>Ocolul Țigăncii</name><description>Nume: Ocolul Țigăncii, Tip: țigancă, Nivel: 3, Județ: Teleorman, Formă: Apă-deal-câmpie, ID: 8013 <br /><b>Variante</b><br />Nume: Ocolul Țigăncii, Hartă: PDT, Limbă: Limba română</description><Point><coordinates>24.768177,43.786680,0</coordinates></Point></Placemark>
<Placemark><name>Valea Țigăneaua</name><description>Nume: Valea Țigăneaua, Tip: țigănea, Nivel: 4, Județ: Teleorman, Formă: Vale, ID: 1384 <br /><b>Variante</b><br />Nume: Valea Țigăneaua, Hartă: Geomil 25000, Limbă: Limba română</description><Point><coordinates>25.062823,43.813800,0</coordinates></Point></Placemark>
<Placemark><name>Valea Țigăneaua Mare</name><description>Nume: Valea Țigăneaua Mare, Tip: țigănea, Nivel: 4, Județ: Teleorman, Formă: Vale, ID: 10973 <br /><b>Variante</b><br />Nume: Valea Țigăneaua Mare, Hartă: Geomil 25000, Limbă: Limba română</description><Point><coordinates>25.097617,44.021426,0</coordinates></Point></Placemark>
<Placemark><name>Valea Țigăneaua Mică</name><description>Nume: Valea Țigăneaua Mică, Tip: țigănea, Nivel: 4, Județ: Teleorman, Formă: Vale, ID: 10972, ID Părinte: 10973 <br /><b>Variante</b><br />Nume: Valea Țigăneaua Mică, Hartă: Geomil 25000, Limbă: Limba română</description><Point><coordinates>25.094173,44.016011,0</coordinates></Point></Placemark>
<Placemark><LineString id="10972_10973"><tessellate>1</tessellate><coordinates>25.094173,44.016011,0.
25.097617,44.021426,0</coordinates></LineString><Style><LineStyle><width>3</width></LineStyle></Style></Placemark>
<Placemark><name>Pârâu Țiganca</name><description>Nume: Pârâu Țiganca, Tip: țigancă, Nivel: 3, Județ: Timis, Formă: Vale, ID: 5665 <br /><b>Variante</b><br />Nume: Pârâu Țiganca, Hartă: Geomil 25000, Limbă: Limba română</description><Point><coordinates>20.490323,46.063948,0</coordinates></Point></Placemark>
<Placemark><name>Țiganca</name><description>Nume: Țiganca, Tip: țigancă, Nivel: 3, Județ: Timis, Formă: Înălțime, ID: 1963 <br /><b>Variante</b><br />Nume: Țiganca, Hartă: Geomil 25000, Limbă: Limba română<br />Nume: Czicanka, Hartă: PDT, Limbă: Limba română</description><Point><coordinates>20.469177,46.084409,0</coordinates></Point></Placemark>
<Placemark><name>Țiganca</name><description>Nume: Țiganca, Tip: țigancă, Nivel: 3, Județ: Timis, Formă: Altele, ID: 5659 <br /><b>Variante</b><br />Nume: Țiganca, Hartă: PDT, Limbă: Limba română</description><Point><coordinates>20.774122,46.034622,0</coordinates></Point></Placemark>
<Placemark><name>Țiganca</name><description>Nume: Țiganca, Tip: țigancă, Nivel: 3, Județ: Timis, Formă: Altele, ID: 5669 <br /><b>Variante</b><br />Nume: Țiganca, Hartă: PDT, Limbă: Limba română</description><Point><coordinates>20.691408,46.079551,0</coordinates></Point></Placemark>
<Placemark><name>Dealu Țigăncei</name><description>Nume: Dealu Țigăncei, Tip: țigancă, Nivel: 3, Județ: Tulcea, Formă: Deal, ID: 6687 <br /><b>Variante</b><br />Nume: Dealu Țigăncei, Hartă: PDT, Limbă: Limba română</description><Point><coordinates>28.341770,45.171132,0</coordinates></Point></Placemark>
<Placemark><name>Țiganca Tăița</name><description>Nume: Țiganca Tăița, Tip: țigancă, Nivel: 3, Județ: Tulcea, Formă: Localitate, ID: 6690, ID Părinte: 6687 <br /><b>Variante</b><br />Nume: Țiganca Tăița, Hartă: PDT, Limbă: Limba română</description><Point><coordinates>28.370848,45.155483,0</coordinates></Point></Placemark>
<Placemark><LineString id="6690_6687"><tessellate>1</tessellate><coordinates>28.370848,45.155483,0.
28.341770,45.171132,0</coordinates></LineString><Style><LineStyle><width>3</width></LineStyle></Style></Placemark>
<Placemark><name>Valea Poteca Țigăncii</name><description>Nume: Valea Poteca Țigăncii, Tip: țigancă, Nivel: 3, Județ: Tulcea, Formă: Vale, ID: 11594, ID Părinte: 6687 <br /><b>Variante</b><br />Nume: Valea Poteca Țigăncii, Hartă: Geomil 25000, Limbă: Limba română</description><Point><coordinates>28.339463,45.111541,0</coordinates></Point></Placemark>
<Placemark><LineString id="11594_6687"><tessellate>1</tessellate><coordinates>28.339463,45.111541,0.
28.341770,45.171132,0</coordinates></LineString><Style><LineStyle><width>3</width></LineStyle></Style></Placemark>
<Placemark><name>Valea Țiganca</name><description>Nume: Valea Țiganca, Tip: țigancă, Nivel: 3, Județ: Tulcea, Formă: Vale, ID: 6686, ID Părinte: 6687 <br /><b>Variante</b><br />Nume: Valea Țiganca, Hartă: PDT, Limbă: Limba română</description><Point><coordinates>28.333713,45.205210,0</coordinates></Point></Placemark>
<Placemark><LineString id="6686_6687"><tessellate>1</tessellate><coordinates>28.333713,45.205210,0.
28.341770,45.171132,0</coordinates></LineString><Style><LineStyle><width>3</width></LineStyle></Style></Placemark>
<Placemark><name>Dealul Țigăncii</name><description>Nume: Dealul Țigăncii, Tip: țigancă, Nivel: 3, Județ: Vaslui, Formă: Deal, ID: 721 <br /><b>Variante</b><br />Nume: Dealul Țigăncii, Hartă: Geomil 25000, Limbă: Limba română</description><Point><coordinates>27.632821,46.157863,0</coordinates></Point></Placemark>
<Placemark><name>Râpa Țiganca Mare</name><description>Nume: Râpa Țiganca Mare, Tip: țigancă, Nivel: 3, Județ: Vaslui, Formă: Altele, ID: 722, ID Părinte: 721 <br /><b>Variante</b><br />Nume: Râpa Țiganca Mare, Hartă: Geomil 25000, Limbă: Limba română</description><Point><coordinates>27.629408,46.149936,0</coordinates></Point></Placemark>
<Placemark><LineString id="722_721"><tessellate>1</tessellate><coordinates>27.629408,46.149936,0.
27.632821,46.157863,0</coordinates></LineString><Style><LineStyle><width>3</width></LineStyle></Style></Placemark>
<Placemark><name>Râpa Țiganca Mică</name><description>Nume: Râpa Țiganca Mică, Tip: țigancă, Nivel: 3, Județ: Vaslui, Formă: Altele, ID: 724, ID Părinte: 721 <br /><b>Variante</b><br />Nume: Râpa Țiganca Mică, Hartă: Geomil 25000, Limbă: Limba română</description><Point><coordinates>27.633652,46.161498,0</coordinates></Point></Placemark>
<Placemark><LineString id="724_721"><tessellate>1</tessellate><coordinates>27.633652,46.161498,0.
27.632821,46.157863,0</coordinates></LineString><Style><LineStyle><width>3</width></LineStyle></Style></Placemark>
<Placemark><name>Cișmeaua Țigăncii</name><description>Nume: Cișmeaua Țigăncii, Tip: țigancă, Nivel: 3, Județ: Vrancea, Formă: Altele, ID: 1720 <br /><b>Variante</b><br />Nume: Cișmeaua Țigăncii, Hartă: Geomil 25000, Limbă: Limba română<br />Nume: Fântâna Țigăncei, Hartă: PDT, Limbă: Limba română</description><Point><coordinates>27.316591,46.176622,0</coordinates></Point></Placemark>
<Placemark><name>La Țiganca</name><description>Nume: La Țiganca, Tip: țigancă, Nivel: 3, Județ: Vrancea, Formă: Altele, ID: 7899 <br /><b>Variante</b><br />Nume: La Țiganca, Hartă: PDT, Limbă: Limba română</description><Point><coordinates>27.088740,45.958810,0</coordinates></Point></Placemark>
<Placemark><name>Piscul Țigăncii</name><description>Nume: Piscul Țigăncii, Tip: țigancă, Nivel: 3, Județ: Vrancea, Formă: Înălțime, ID: 9204 <br /><b>Variante</b><br />Nume: Piscul Țigăncii, Hartă: Geomil 25000, Limbă: Limba română<br />Nume: Piscul Țigăncei, Hartă: PDT, Limbă: Limba română</description><Point><coordinates>26.880300,46.065634,0</coordinates></Point></Placemark>
<Placemark><name>Poiana Țiganca</name><description>Nume: Poiana Țiganca, Tip: țigancă, Nivel: 3, Județ: Vrancea, Formă: Poiană, ID: 9203, ID Părinte: 9204 <br /><b>Variante</b><br />Nume: Poiana Țiganca, Hartă: PDT, Limbă: Limba română</description><Point><coordinates>26.865230,46.059793,0</coordinates></Point></Placemark>
<Placemark><LineString id="9203_9204"><tessellate>1</tessellate><coordinates>26.865230,46.059793,0.
26.880300,46.065634,0</coordinates></LineString><Style><LineStyle><width>3</width></LineStyle></Style></Placemark>
<Placemark><name>Poiana Țigăncei</name><description>Nume: Poiana Țigăncei, Tip: țigancă, Nivel: 3, Județ: Vrancea, Formă: Poiană, ID: 9966 <br /><b>Variante</b><br />Nume: Poiana Țigăncei, Hartă: Moldova (1892-1898), Limbă: Limba română</description><Point><coordinates>26.582195,45.631806,0</coordinates></Point></Placemark>
<Placemark><name>Râpa Țigăncei</name><description>Nume: Râpa Țigăncei, Tip: țigancă, Nivel: 3, Județ: Vrancea, Formă: Înălțime, ID: 2148 <br /><b>Variante</b><br />Nume: Râpa Țigăncei, Hartă: Geomil 25000, Limbă: Limba română</description><Point><coordinates>27.021162,45.591696,0</coordinates></Point></Placemark>
<Placemark><name>Valea Țigăncii</name><description>Nume: Valea Țigăncii, Tip: țigancă, Nivel: 3, Județ: Vrancea, Formă: Vale, ID: 9205, ID Părinte: 9204 <br /><b>Variante</b><br />Nume: Valea Țigăncii, Hartă: Geomil 25000, Limbă: Limba română</description><Point><coordinates>26.890142,46.064740,0</coordinates></Point></Placemark>
<Placemark><LineString id="9205_9204"><tessellate>1</tessellate><coordinates>26.890142,46.064740,0.
26.880300,46.065634,0</coordinates></LineString><Style><LineStyle><width>3</width></LineStyle></Style></Placemark></Document></kml>