<?xml version="1.0" encoding="UTF-8"?><kml xmlns="http://www.opengis.net/kml/2.2"><Document><Placemark><name>Valea Cășeriei</name><description>Nume: Valea Cășeriei, Tip: cășărie, Nivel: 2, Județ: Arges, Formă: Vale, ID: 11567 <br /><b>Variante</b><br />Nume: Valea Cășeriei, Hartă: Geomil 25000, Limbă: Limba română</description><Point><coordinates>24.908195,45.213187,0</coordinates></Point></Placemark>
<Placemark><name>Pârâul Cășăriilor</name><description>Nume: Pârâul Cășăriilor, Tip: cășărie, Nivel: 2, Județ: Bacau, Formă: Vale, ID: 10940 <br /><b>Variante</b><br />Nume: Pârâul Cășăriilor, Hartă: Geomil 25000, Limbă: Limba română</description><Point><coordinates>26.277296,46.664480,0</coordinates></Point></Placemark>
<Placemark><name>Cășieria</name><description>Nume: Cășieria, Tip: cășărie, Nivel: 2, Județ: Brasov, Formă: Altele, ID: 10568 <br /><b>Variante</b><br />Nume: Cășieria, Hartă: Imperiul Habsburgic (1887), Limbă: Limba română</description><Point><coordinates>25.842274,45.536198,0</coordinates></Point></Placemark>
<Placemark><name>La Kâserie</name><description>Nume: La Kâserie, Tip: cășărie, Nivel: 2, Județ: Calarasi, Formă: Altele, ID: 14635 <br /><b>Variante</b><br />Nume: La Kâserie, Hartă: Austriacă, Limbă: Limba română</description><Point><coordinates>27.375130,44.487361,0</coordinates></Point></Placemark>
<Placemark><name>Mov. de la Kasarie</name><description>Nume: Mov. de la Kasarie, Tip: cășărie, Nivel: 2, Județ: Calarasi, Formă: Altele, ID: 12877 <br /><b>Variante</b><br />Nume: Mov. de la Kasarie, Hartă: Austriacă, Limbă: Limba română</description><Point><coordinates>26.860569,44.338412,0</coordinates></Point></Placemark>
<Placemark><name>La Cășărie</name><description>Nume: La Cășărie, Tip: cășărie, Nivel: 2, Județ: Dambovita, Formă: Altele, ID: 1486 <br /><b>Variante</b><br />Nume: La Cășărie, Hartă: Geomil 25000, Limbă: Limba română</description><Point><coordinates>25.431751,45.349923,0</coordinates></Point></Placemark>
<Placemark><name>Valea Cășăriei</name><description>Nume: Valea Cășăriei, Tip: cășărie, Nivel: 2, Județ: Giurgiu, Formă: Vale, ID: 4219 <br /><b>Variante</b><br />Nume: Valea Cășăriei, Hartă: Geomil 25000, Limbă: Limba română<br />Nume: Valea Cășăriei, Hartă: PDT, Limbă: Limba română</description><Point><coordinates>25.723546,44.149758,0</coordinates></Point></Placemark>
<Placemark><name>Cășăria</name><description>Nume: Cășăria, Tip: cășărie, Nivel: 2, Județ: Neamt, Formă: Localitate, ID: 2053 <br /><b>Variante</b><br />Nume: Cășăria, Hartă: Geomil 25000, Limbă: Limba română</description><Point><coordinates>26.415126,46.986825,0</coordinates></Point></Placemark>
<Placemark><name>Valea Căsăriei</name><description>Nume: Valea Căsăriei, Tip: cășărie, Nivel: 2, Județ: Neamt, Formă: Vale, ID: 6527 <br /><b>Variante</b><br />Nume: Valea Căsăriei, Hartă: PDT, Limbă: Limba română</description><Point><coordinates>26.157290,46.707867,0</coordinates></Point></Placemark>
<Placemark><name>Kasaria</name><description>Nume: Kasaria, Tip: cășărie, Nivel: 2, Județ: Prahova, Formă: Altele, ID: 13447 <br /><b>Variante</b><br />Nume: Kasaria, Hartă: Valahia-Moldova (1773-1774), Limbă: Limba română</description><Point><coordinates>25.934313,45.405114,0</coordinates></Point></Placemark>
<Placemark><name>Kasaria</name><description>Nume: Kasaria, Tip: cășărie, Nivel: 2, Județ: Prahova, Formă: Altele, ID: 13448 <br /><b>Variante</b><br />Nume: Kasaria, Hartă: Valahia-Moldova (1773-1774), Limbă: Limba română</description><Point><coordinates>25.937460,45.430179,0</coordinates></Point></Placemark>
<Placemark><name>Plaiul Cășăriei</name><description>Nume: Plaiul Cășăriei, Tip: cășărie, Nivel: 2, Județ: Prahova, Formă: Înălțime, ID: 1541 <br /><b>Variante</b><br />Nume: Plaiul Cășăriei, Hartă: Geomil 25000, Limbă: Limba română</description><Point><coordinates>25.525883,45.351380,0</coordinates></Point></Placemark>
<Placemark><name>Valea Cășăriei</name><description>Nume: Valea Cășăriei, Tip: cășărie, Nivel: 2, Județ: Prahova, Formă: Vale, ID: 581 <br /><b>Variante</b><br />Nume: Valea Cășăriei, Hartă: Geomil 25000, Limbă: Limba română</description><Point><coordinates>25.575077,45.450043,0</coordinates></Point></Placemark>
<Placemark><name>Valea Cășăriei</name><description>Nume: Valea Cășăriei, Tip: cășărie, Nivel: 2, Județ: Prahova, Formă: Vale, ID: 9794 <br /><b>Variante</b><br />Nume: Valea Cășăriei, Hartă: PDT, Limbă: Limba română</description><Point><coordinates>25.556984,45.366865,0</coordinates></Point></Placemark>
<Placemark><name>Valea Cășeriei</name><description>Nume: Valea Cășeriei, Tip: cășărie, Nivel: 2, Județ: Prahova, Formă: Vale, ID: 800 <br /><b>Variante</b><br />Nume: Valea Cășeriei, Hartă: Geomil 25000, Limbă: Limba română</description><Point><coordinates>26.017243,45.446212,0</coordinates></Point></Placemark>
<Placemark><name>Valea Cășeriei</name><description>Nume: Valea Cășeriei, Tip: cășărie, Nivel: 2, Județ: Teleorman, Formă: Vale, ID: 1390 <br /><b>Variante</b><br />Nume: Valea Cășeriei, Hartă: Geomil 25000, Limbă: Limba română<br />Nume: Valea Cășeriei, Hartă: PDT, Limbă: Limba română</description><Point><coordinates>25.488270,43.946798,0</coordinates></Point></Placemark>
<Placemark><name>La Cășerie</name><description>Nume: La Cășerie, Tip: cășărie, Nivel: 2, Județ: Valcea, Formă: Altele, ID: 14107 <br /><b>Variante</b><br />Nume: La Cășerie, Hartă: Geomil 25000, Limbă: Limba română</description><Point><coordinates>23.635900,45.389400,0</coordinates></Point></Placemark>
<Placemark><name>Muntele Cășăriei</name><description>Nume: Muntele Cășăriei, Tip: cășărie, Nivel: 2, Județ: Valcea, Formă: Înălțime, ID: 2928 <br /><b>Variante</b><br />Nume: Muntele Cășăriei, Hartă: Geomil 25000, Limbă: Limba română</description><Point><coordinates>23.859002,45.288979,0</coordinates></Point></Placemark>
<Placemark><name>Valje Kasserie</name><description>Nume: Valje Kasserie, Tip: cășărie, Nivel: 2, Județ: Valcea, Formă: Vale, ID: 11930 <br /><b>Variante</b><br />Nume: Valje Kasserie, Hartă: Valahia-Moldova (1773-1774), Limbă: Limba română</description><Point><coordinates>24.435937,45.430381,0</coordinates></Point></Placemark>
<Placemark><name>Plaiul Cășăriei</name><description>Nume: Plaiul Cășăriei, Tip: cășărie, Nivel: 2, Județ: Vrancea, Formă: Înălțime, ID: 2118 <br /><b>Variante</b><br />Nume: Plaiul Cășăriei, Hartă: Geomil 25000, Limbă: Limba română</description><Point><coordinates>26.515965,45.874660,0</coordinates></Point></Placemark>
<Placemark><name>Vârful Cășăria</name><description>Nume: Vârful Cășăria, Tip: cășărie, Nivel: 2, Județ: Vrancea, Formă: Înălțime, ID: 788 <br /><b>Variante</b><br />Nume: Vârful Cășăria, Hartă: Geomil 25000, Limbă: Limba română</description><Point><coordinates>26.542971,45.740133,0</coordinates></Point></Placemark></Document></kml>