<?xml version="1.0" encoding="UTF-8"?><kml xmlns="http://www.opengis.net/kml/2.2"><Document><Placemark><name>Curmătura Pupezei</name><description>Nume: Curmătura Pupezei, Tip: pupăză, Nivel: 2, Județ: Bacau, Formă: Înălțime, ID: 7931 <br /><b>Variante</b><br />Nume: Curmătura Pupezei, Hartă: PDT, Limbă: Limba română</description><Point><coordinates>26.597577,46.355669,0</coordinates></Point></Placemark>
<Placemark><name>Pupăza</name><description>Nume: Pupăza, Tip: pupăză, Nivel: 2, Județ: Calarasi, Formă: Localitate, ID: 3622 <br /><b>Variante</b><br />Nume: Pupăza, Hartă: PDT, Limbă: Limba română<br />Nume: Pupâtza, Hartă: Austriacă, Limbă: Limba română</description><Point><coordinates>26.822490,44.309326,0</coordinates></Point></Placemark>
<Placemark><name>Pupâza</name><description>Nume: Pupâza, Tip: pupăză, Nivel: 2, Județ: Calarasi, Formă: Altele, ID: 8456 <br /><b>Variante</b><br />Nume: Pupâza, Hartă: Austriacă, Limbă: Limba română</description><Point><coordinates>26.757828,44.418607,0</coordinates></Point></Placemark>
<Placemark><name>Dealu Pupezei</name><description>Nume: Dealu Pupezei, Tip: pupăză, Nivel: 2, Județ: Dambovita, Formă: Deal, ID: 534 <br /><b>Variante</b><br />Nume: Dealu Pupezei, Hartă: Geomil 25000, Limbă: Limba română</description><Point><coordinates>25.165158,44.955878,0</coordinates></Point></Placemark>
<Placemark><name>Valea Pupăzi</name><description>Nume: Valea Pupăzi, Tip: pupăză, Nivel: 2, Județ: Mehedinti, Formă: Vale, ID: 8069 <br /><b>Variante</b><br />Nume: Valea Pupăzi, Hartă: PDT, Limbă: Limba română</description><Point><coordinates>22.837417,44.592423,0</coordinates></Point></Placemark>
<Placemark><name>Valea Pupezii</name><description>Nume: Valea Pupezii, Tip: pupăză, Nivel: 2, Județ: Mehedinti, Formă: Vale, ID: 14271 <br /><b>Variante</b><br />Nume: Valea Pupezii, Hartă: PDT, Limbă: Limba română</description><Point><coordinates>22.894340,44.424576,0</coordinates></Point></Placemark>
<Placemark><name>Dealu Pupezei</name><description>Nume: Dealu Pupezei, Tip: pupăză, Nivel: 2, Județ: Olt, Formă: Deal, ID: 1292 <br /><b>Variante</b><br />Nume: Dealu Pupezei, Hartă: Geomil 25000, Limbă: Limba română</description><Point><coordinates>24.230231,44.159407,0</coordinates></Point></Placemark>
<Placemark><name>Valea Pupezei</name><description>Nume: Valea Pupezei, Tip: pupăză, Nivel: 2, Județ: Sibiu, Formă: Vale, ID: 2475 <br /><b>Variante</b><br />Nume: Valea Pupezei, Hartă: Geomil 25000, Limbă: Limba română</description><Point><coordinates>24.878859,46.096954,0</coordinates></Point></Placemark>
<Placemark><name>Dealul Pupezei</name><description>Nume: Dealul Pupezei, Tip: pupăză, Nivel: 2, Județ: Valcea, Formă: Deal, ID: 9810 <br /><b>Variante</b><br />Nume: Dealul Pupezei, Hartă: Geomil 25000, Limbă: Limba română</description><Point><coordinates>24.028421,45.153028,0</coordinates></Point></Placemark></Document></kml>