<?xml version="1.0" encoding="UTF-8"?><kml xmlns="http://www.opengis.net/kml/2.2"><Document><Placemark><name>R. Csonkovar (La Ruină)</name><description>Nume: R. Csonkovar (La Ruină), Tip: var (cetate), Nivel: 2, Județ: Covasna, Formă: Înălțime, ID: 4383 <br /><b>Variante</b><br />Nume: R. Csonkovar (La Ruină), Hartă: PDT, Limbă: Limba maghiară</description><Point><coordinates>25.994181,45.991675</coordinates></Point></Placemark>
<Placemark><name>Cernivar</name><description>Nume: Cernivar, Tip: var (cetate), Nivel: 2, Județ: Caras Severin, Formă: Altele, ID: 6138 <br /><b>Variante</b><br />Nume: Cernivar, Hartă: Geomil 25000, Limbă: Limba română</description><Point><coordinates>22.370472,45.093123</coordinates></Point></Placemark>
<Placemark><name>Tatar Var (Cetatea Tătarului)</name><description>Nume: Tatar Var (Cetatea Tătarului), Tip: var (cetate), Nivel: 2, Județ: Harghita, Formă: Altele, ID: 7939 <br /><b>Variante</b><br />Nume: Tatar Var (Cetatea Tătarului), Hartă: PDT, Limbă: Limba maghiară</description><Point><coordinates>25.402485,46.136926</coordinates></Point></Placemark>
<Placemark><name>Ruinele Geczivar</name><description>Nume: Ruinele Geczivar, Tip: var (cetate), Nivel: 2, Județ: Cluj, Formă: Altele, ID: 8968 <br /><b>Variante</b><br />Nume: Ruinele Geczivar, Hartă: PDT, Limbă: Limba română</description><Point><coordinates>23.425978,46.607882</coordinates></Point></Placemark>
<Placemark><name>Várhegy (Dealul Cetății)</name><description>Nume: Várhegy (Dealul Cetății), Tip: var (cetate), Nivel: 2, Județ: Maramures, Formă: Deal, ID: 10266 <br /><b>Variante</b><br />Nume: Várhegy (Dealul Cetății), Hartă: Ungară 1869, Limbă: Limba română</description><Point><coordinates>23.871621,47.904522</coordinates></Point></Placemark>
<Placemark><name>Várhegy (Dealul Cetății)</name><description>Nume: Várhegy (Dealul Cetății), Tip: var (cetate), Nivel: 2, Județ: Cluj, Formă: Deal, ID: 10414 <br /><b>Variante</b><br />Nume: Várhegy (Dealul Cetății), Hartă: Transilvania (1869-1870), Limbă: Limba maghiară</description><Point><coordinates>23.725540,46.673888</coordinates></Point></Placemark>
<Placemark><name>Városlyuh</name><description>Nume: Városlyuh, Tip: var (cetate), Nivel: 2, Județ: Cluj, Formă: Înălțime, ID: 10415 <br /><b>Variante</b><br />Nume: Városlyuh, Hartă: PDT, Limbă: Limba maghiară</description><Point><coordinates>23.783103,46.785895</coordinates></Point></Placemark>
<Placemark><name>Kozárvár</name><description>Nume: Kozárvár, Tip: var (cetate), Nivel: 2, Județ: Cluj, Formă: Localitate, ID: 10490 <br /><b>Variante</b><br />Nume: Kozárvár, Hartă: Transilvania (1869-1870), Limbă: Limba maghiară</description><Point><coordinates>23.918901,47.168387</coordinates></Point></Placemark>
<Placemark><name>Földvár</name><description>Nume: Földvár, Tip: var (cetate), Nivel: 2, Județ: Brasov, Formă: Localitate, ID: 10499 <br /><b>Variante</b><br />Nume: Földvár, Hartă: Transilvania (1869-1870), Limbă: Limba maghiară</description><Point><coordinates>25.596298,45.819056</coordinates></Point></Placemark>
<Placemark><name>Vár</name><description>Nume: Vár, Tip: var (cetate), Nivel: 2, Județ: Cluj, Formă: Altele, ID: 10542 <br /><b>Variante</b><br />Nume: Vár, Hartă: Imperiul Habsburgic (1887), Limbă: Limba română<br />Nume: Dealu Cetății, Hartă: Geomil 25000, Limbă: Limba română</description><Point><coordinates>23.756398,46.576023</coordinates></Point></Placemark>
<Placemark><name>Varjú Vár (Cetatea Ciorii)</name><description>Nume: Varjú Vár (Cetatea Ciorii), Tip: var (cetate), Nivel: 2, Județ: Covasna, Formă: Înălțime, ID: 10567 <br /><b>Variante</b><br />Nume: Varjú Vár (Cetatea Ciorii), Hartă: Imperiul Habsburgic (1887), Limbă: Limba maghiară</description><Point><coordinates>25.577117,45.926141</coordinates></Point></Placemark>
<Placemark><name>Várhegy-Fülpe (Dealul Cetății)</name><description>Nume: Várhegy-Fülpe (Dealul Cetății), Tip: var (cetate), Nivel: 2, Județ: Harghita, Formă: Deal, ID: 10600 <br /><b>Variante</b><br />Nume: Várhegy-Fülpe (Dealul Cetății), Hartă: PDT, Limbă: Limba maghiară</description><Point><coordinates>25.430720,46.885601</coordinates></Point></Placemark>
<Placemark><name>Várhely (Locul Cetății)</name><description>Nume: Várhely (Locul Cetății), Tip: var (cetate), Nivel: 2, Județ: Bistrita Nasaud, Formă: Localitate, ID: 10641 <br /><b>Variante</b><br />Nume: Várhely (Locul Cetății), Hartă: Imperiul Habsburgic (1887), Limbă: Limba maghiară</description><Point><coordinates>24.593907,47.096065</coordinates></Point></Placemark>
<Placemark><name>Várhegy (Dealul Cetății)</name><description>Nume: Várhegy (Dealul Cetății), Tip: var (cetate), Nivel: 2, Județ: Mures, Formă: Localitate, ID: 10657 <br /><b>Variante</b><br />Nume: Várhegy (Dealul Cetății), Hartă: Imperiul Habsburgic (1887), Limbă: Limba maghiară</description><Point><coordinates>24.588317,46.604815</coordinates></Point></Placemark>
<Placemark><name>Ovári</name><description>Nume: Ovári, Tip: var (cetate), Nivel: 2, Județ: Satu Mare, Formă: Localitate, ID: 10710 <br /><b>Variante</b><br />Nume: Ovári, Hartă: Imperiul Habsburgic (1887), Limbă: Limba maghiară</description><Point><coordinates>22.714345,47.812526</coordinates></Point></Placemark>
<Placemark><name>Vártelek</name><description>Nume: Vártelek, Tip: var (cetate), Nivel: 2, Județ: Salaj, Formă: Localitate, ID: 10786 <br /><b>Variante</b><br />Nume: Vártelek, Hartă: Imperiul Habsburgic (1887), Limbă: Limba maghiară</description><Point><coordinates>23.096422,47.209076</coordinates></Point></Placemark>
<Placemark><name>Várhegy (Dealul Cetății)</name><description>Nume: Várhegy (Dealul Cetății), Tip: var (cetate), Nivel: 2, Județ: Harghita, Formă: Deal, ID: 10840 <br /><b>Variante</b><br />Nume: Várhegy (Dealul Cetății), Hartă: Imperiul Habsburgic (1887), Limbă: Limba maghiară</description><Point><coordinates>25.055358,46.260377</coordinates></Point></Placemark>
<Placemark><name> Vár hegy (Dealul Cetății)</name><description>Nume:  Vár hegy (Dealul Cetății), Tip: var (cetate), Nivel: 2, Județ: Mures, Formă: Înălțime, ID: 10843 <br /><b>Variante</b><br />Nume:  Vár hegy (Dealul Cetății), Hartă: Imperiul Habsburgic (1887), Limbă: Limba maghiară</description><Point><coordinates>25.031972,46.675103</coordinates></Point></Placemark>
<Placemark><name>Rákóczi-vár (Cetatea lui Rákóczi)</name><description>Nume: Rákóczi-vár (Cetatea lui Rákóczi), Tip: var (cetate), Nivel: 2, Județ: Covasna, Formă: Altele, ID: 10879 <br /><b>Variante</b><br />Nume: Rákóczi-vár (Cetatea lui Rákóczi), Hartă: Imperiul Habsburgic (1887), Limbă: Limba maghiară</description><Point><coordinates>26.401395,46.086999</coordinates></Point></Placemark>
<Placemark><name>Maros Újvár</name><description>Nume: Maros Újvár, Tip: var (cetate), Nivel: 2, Județ: Alba, Formă: Înălțime, ID: 11833 <br /><b>Variante</b><br />Nume: Maros Újvár, Hartă: Imperiul Habsburgic (1887), Limbă: Limba maghiară</description><Point><coordinates>23.751342,46.355279</coordinates></Point></Placemark>
<Placemark><name>Csóka Vár (Cetatea Ciorii)</name><description>Nume: Csóka Vár (Cetatea Ciorii), Tip: var (cetate), Nivel: 2, Județ: Alba, Formă: Înălțime, ID: 11834 <br /><b>Variante</b><br />Nume: Csóka Vár (Cetatea Ciorii), Hartă: Imperiul Habsburgic (1887), Limbă: Limba română</description><Point><coordinates>23.811336,46.355955</coordinates></Point></Placemark>
<Placemark><name>Vár Sziget (Insula Cetății)</name><description>Nume: Vár Sziget (Insula Cetății), Tip: var (cetate), Nivel: 2, Județ: Bihor, Formă: Altele, ID: 11869 <br /><b>Variante</b><br />Nume: Vár Sziget (Insula Cetății), Hartă: Imperiul Habsburgic (1887), Limbă: Limba română</description><Point><coordinates>22.015787,47.328583</coordinates></Point></Placemark>
<Placemark><name>Tortogó vár</name><description>Nume: Tortogó vár, Tip: var (cetate), Nivel: 2, Județ: Covasna, Formă: Înălțime, ID: 11890 <br /><b>Variante</b><br />Nume: Tortogó vár, Hartă: Imperiul Habsburgic (1887), Limbă: Limba maghiară</description><Point><coordinates>25.620558,46.018162</coordinates></Point></Placemark>
<Placemark><name>Miklósvár</name><description>Nume: Miklósvár, Tip: var (cetate), Nivel: 2, Județ: Covasna, Formă: Localitate, ID: 11891 <br /><b>Variante</b><br />Nume: Miklósvár, Hartă: Imperiul Habsburgic (1887), Limbă: Limba maghiară</description><Point><coordinates>25.580820,46.009680</coordinates></Point></Placemark>
<Placemark><name>Várhegy (Dealul Cetății)</name><description>Nume: Várhegy (Dealul Cetății), Tip: var (cetate), Nivel: 2, Județ: Cluj, Formă: Deal, ID: 11893 <br /><b>Variante</b><br />Nume: Várhegy (Dealul Cetății), Hartă: Transilvania (1869-1870), Limbă: Limba maghiară</description><Point><coordinates>23.398940,46.873072</coordinates></Point></Placemark>
<Placemark><name>Pogányvár (Cetatea Păgânilor)</name><description>Nume: Pogányvár (Cetatea Păgânilor), Tip: var (cetate), Nivel: 2, Județ: Salaj, Formă: Înălțime, ID: 11976 <br /><b>Variante</b><br />Nume: Pogányvár (Cetatea Păgânilor), Hartă: Imperiul Habsburgic (1887), Limbă: Limba maghiară</description><Point><coordinates>23.105635,47.334744</coordinates></Point></Placemark>
<Placemark><name> Vár (Cetate)</name><description>Nume:  Vár (Cetate), Tip: var (cetate), Nivel: 2, Județ: Bistrita Nasaud, Formă: Altele, ID: 12071 <br /><b>Variante</b><br />Nume:  Vár (Cetate), Hartă: Imperiul Habsburgic (1887), Limbă: Limba maghiară</description><Point><coordinates>24.142276,47.177709</coordinates></Point></Placemark>
<Placemark><name>Varhegij B (Dealul Cetății)</name><description>Nume: Varhegij B (Dealul Cetății), Tip: var (cetate), Nivel: 2, Județ: Mures, Formă: Deal, ID: 12076 <br /><b>Variante</b><br />Nume: Varhegij B (Dealul Cetății), Hartă: Transilvania (1769-1773), Limbă: Limba română</description><Point><coordinates>24.621633,46.862428</coordinates></Point></Placemark>
<Placemark><name>Őrvár (Cetatea Străjii)</name><description>Nume: Őrvár (Cetatea Străjii), Tip: var (cetate), Nivel: 2, Județ: Mures, Formă: Înălțime, ID: 12086 <br /><b>Variante</b><br />Nume: Őrvár (Cetatea Străjii), Hartă: Imperiul Habsburgic (1887), Limbă: Limba maghiară<br />Nume: Orvar B., Hartă: Transilvania (1769-1773), Limbă: Limba maghiară</description><Point><coordinates>24.703522,46.577658</coordinates></Point></Placemark>
<Placemark><name>Várviz (Cetatea de Apă)</name><description>Nume: Várviz (Cetatea de Apă), Tip: var (cetate), Nivel: 2, Județ: Bihor, Formă: Localitate, ID: 12141 <br /><b>Variante</b><br />Nume: Várviz (Cetatea de Apă), Hartă: Ungară 1869, Limbă: Limba maghiară</description><Point><coordinates>22.436520,47.224574</coordinates></Point></Placemark>
<Placemark><name>Tündérvár (Cetatea Zânelor)</name><description>Nume: Tündérvár (Cetatea Zânelor), Tip: var (cetate), Nivel: 2, Județ: Bihor, Formă: Altele, ID: 12349 <br /><b>Variante</b><br />Nume: Tündérvár (Cetatea Zânelor), Hartă: Imperiul Habsburgic (1887), Limbă: Limba maghiară</description><Point><coordinates>22.516253,46.971056</coordinates></Point></Placemark>
<Placemark><name>Seheswar</name><description>Nume: Seheswar, Tip: var (cetate), Nivel: 2, Județ: Timis, Formă: Localitate, ID: 12373 <br /><b>Variante</b><br />Nume: Seheswar, Hartă: Banat (1769-1772), Limbă: Limba maghiară</description><Point><coordinates>21.375442,45.776106</coordinates></Point></Placemark>
<Placemark><name>Vár hegy (Dealul Cetății)</name><description>Nume: Vár hegy (Dealul Cetății), Tip: var (cetate), Nivel: 2, Județ: Salaj, Formă: Deal, ID: 12515 <br /><b>Variante</b><br />Nume: Vár hegy (Dealul Cetății), Hartă: Imperiul Habsburgic (1887), Limbă: Limba română</description><Point><coordinates>22.800230,47.236501</coordinates></Point></Placemark>
<Placemark><name>Várhegy (Dealul Cetății)</name><description>Nume: Várhegy (Dealul Cetății), Tip: var (cetate), Nivel: 2, Județ: Hunedoara, Formă: Deal, ID: 12734 <br /><b>Variante</b><br />Nume: Várhegy (Dealul Cetății), Hartă: Transilvania (1769-1773), Limbă: Limba maghiară</description><Point><coordinates>23.181149,45.831477</coordinates></Point></Placemark>
<Placemark><name>Várhegy (Dealul Cetății)</name><description>Nume: Várhegy (Dealul Cetății), Tip: var (cetate), Nivel: 2, Județ: Cluj, Formă: Deal, ID: 12737 <br /><b>Variante</b><br />Nume: Várhegy (Dealul Cetății), Hartă: Imperiul Habsburgic (1887), Limbă: Limba maghiară</description><Point><coordinates>23.654322,46.503495</coordinates></Point></Placemark>
<Placemark><name>Dialu Varhegy</name><description>Nume: Dialu Varhegy, Tip: var (cetate), Nivel: 2, Județ: Cluj, Formă: Deal, ID: 13248 <br /><b>Variante</b><br />Nume: Dialu Varhegy, Hartă: Transilvania (1769-1773), Limbă: Limba română</description><Point><coordinates>24.138701,46.897992</coordinates></Point></Placemark>
<Placemark><name>Sóvár (Cetatea Sării)</name><description>Nume: Sóvár (Cetatea Sării), Tip: var (cetate), Nivel: 2, Județ: Cluj, Formă: Înălțime, ID: 13317 <br /><b>Variante</b><br />Nume: Sóvár (Cetatea Sării), Hartă: Imperiul Habsburgic (1887), Limbă: Limba maghiară</description><Point><coordinates>23.968857,46.600355</coordinates></Point></Placemark>
<Placemark><name>Vár Domb (Dâmbul Cetății)</name><description>Nume: Vár Domb (Dâmbul Cetății), Tip: var (cetate), Nivel: 2, Județ: Satu Mare, Formă: Înălțime, ID: 13724 <br /><b>Variante</b><br />Nume: Vár Domb (Dâmbul Cetății), Hartă: Ungară 1869, Limbă: Limba română</description><Point><coordinates>22.683778,47.382939</coordinates></Point></Placemark>
<Placemark><name>Hangyavár (Cetatea Furnicilor)</name><description>Nume: Hangyavár (Cetatea Furnicilor), Tip: var (cetate), Nivel: 2, Județ: Cluj, Formă: Înălțime, ID: 13731 <br /><b>Variante</b><br />Nume: Hangyavár (Cetatea Furnicilor), Hartă: Imperiul Habsburgic (1887), Limbă: Limba maghiară<br />Nume: Várhang, Hartă: Transilvania (1869-1870), Limbă: Limba maghiară</description><Point><coordinates>23.965717,47.006196</coordinates></Point></Placemark>
<Placemark><name>Vár hegy (Dealul Cetății)</name><description>Nume: Vár hegy (Dealul Cetății), Tip: var (cetate), Nivel: 2, Județ: Maramures, Formă: Deal, ID: 13744 <br /><b>Variante</b><br />Nume: Vár hegy (Dealul Cetății), Hartă: Imperiul Habsburgic (1887), Limbă: Limba maghiară<br />Nume:  Vár hegy, Hartă: Ungară 1869, Limbă: Limba maghiară</description><Point><coordinates>23.520592,47.691510</coordinates></Point></Placemark>
<Placemark><name>Rudera von Kővar</name><description>Nume: Rudera von Kővar, Tip: var (cetate), Nivel: 2, Județ: Maramures, Formă: Altele, ID: 13912 <br /><b>Variante</b><br />Nume: Rudera von Kővar, Hartă: Transilvania (1769-1773), Limbă: Limba maghiară<br />Nume: Ruine Chivoara, Hartă: PDT, Limbă: Limba română</description><Point><coordinates>23.580711,47.475956</coordinates></Point></Placemark>
<Placemark><name>Vărădia</name><description>Nume: Vărădia, Tip: vărădia, Nivel: 3, Județ: Caras Severin, Formă: Localitate, ID: 5707 <br /><b>Variante</b><br />Nume: Vărădia, Hartă: Geomil 25000, Limbă: Limba română</description><Point><coordinates>21.540828,45.081299</coordinates></Point></Placemark>
<Placemark><name>Varodia</name><description>Nume: Varodia, Tip: vărădia, Nivel: 3, Județ: Mehedinti, Formă: Localitate, ID: 5842 <br /><b>Variante</b><br />Nume: Varodia, Hartă: Geomil 25000, Limbă: Limba română<br />Nume: Baltzatzi Varadi, Hartă: Austriacă, Limbă: Limba română</description><Point><coordinates>23.106589,44.528672</coordinates></Point></Placemark>
<Placemark><name>Vărădia de Mureș</name><description>Nume: Vărădia de Mureș, Tip: vărădia, Nivel: 3, Județ: Arad, Formă: Localitate, ID: 6199 <br /><b>Variante</b><br />Nume: Vărădia de Mureș, Hartă: Geomil 25000, Limbă: Limba română</description><Point><coordinates>22.157979,46.008725</coordinates></Point></Placemark>
<Placemark><name>Alsóv-Maros-Váradja (Oarba de Jos)</name><description>Nume: Alsóv-Maros-Váradja (Oarba de Jos), Tip: vărădia, Nivel: 3, Județ: Alba, Formă: Localitate, ID: 11827 <br /><b>Variante</b><br />Nume: Alsóv-Maros-Váradja (Oarba de Jos), Hartă: Imperiul Habsburgic (1887), Limbă: Limba maghiară</description><Point><coordinates>23.563541,46.034911</coordinates></Point></Placemark>
<Placemark><name>Dealul Varadi</name><description>Nume: Dealul Varadi, Tip: varadi, Nivel: 4, Județ: Salaj, Formă: Deal, ID: 6947 <br /><b>Variante</b><br />Nume: Dealul Varadi, Hartă: Geomil 25000, Limbă: Limba română</description><Point><coordinates>23.163172,47.364006</coordinates></Point></Placemark>
<Placemark><name>Várallya</name><description>Nume: Várallya, Tip: varalia, Nivel: 3, Județ: Maramures, Formă: Localitate, ID: 13384 <br /><b>Variante</b><br />Nume: Várallya, Hartă: Ungară 1869, Limbă: Limba maghiară</description><Point><coordinates>23.447357,47.386562</coordinates></Point></Placemark>
<Placemark><name>Dealu Șovaru</name><description>Nume: Dealu Șovaru, Tip: șovar, Nivel: 3, Județ: Bihor, Formă: Deal, ID: 13420 <br /><b>Variante</b><br />Nume: Dealu Șovaru, Hartă: Imperiul Habsburgic (1887), Limbă: Limba română<br />Nume: Dealu Șovaru, Hartă: Geomil 25000, Limbă: Limba română<br />Nume: Dealu Șovaru, Hartă: Ungară 1869, Limbă: Limba română</description><Point><coordinates>22.478634,46.726515</coordinates></Point></Placemark>
<Placemark><name>Șovarna</name><description>Nume: Șovarna, Tip: șovar, Nivel: 3, Județ: Mehedinti, Formă: Localitate, ID: 13441 <br /><b>Variante</b><br />Nume: Șovarna, Hartă: Geomil 25000, Limbă: Limba română</description><Point><coordinates>22.791362,44.853930</coordinates></Point></Placemark>
<Placemark><name>Șovarna</name><description>Nume: Șovarna, Tip: șovar, Nivel: 3, Județ: Timis, Formă: Altele, ID: 13491 <br /><b>Variante</b><br />Nume: Șovarna, Hartă: PDT, Limbă: Limba română</description><Point><coordinates>21.984464,45.866524</coordinates></Point></Placemark>
<Placemark><name>Culmea Șovarului</name><description>Nume: Culmea Șovarului, Tip: șovar, Nivel: 3, Județ: Alba, Formă: Deal, ID: 13713 <br /><b>Variante</b><br />Nume: Culmea Șovarului, Hartă: Geomil 25000, Limbă: Limba română<br />Nume: Dealu Sovaru, Hartă: Transilvania (1869-1870), Limbă: Limba română</description><Point><coordinates>23.358464,46.528793</coordinates></Point></Placemark>
<Placemark><name>Sovaru</name><description>Nume: Sovaru, Tip: șovar, Nivel: 3, Județ: Alba, Formă: Înălțime, ID: 13741 <br /><b>Variante</b><br />Nume: Sovaru, Hartă: Transilvania (1869-1870), Limbă: Limba română</description><Point><coordinates>23.875368,46.110317</coordinates></Point></Placemark>
<Placemark><name>Valea Șovarului</name><description>Nume: Valea Șovarului, Tip: șovar, Nivel: 3, Județ: Bihor, Formă: Vale, ID: 14213 <br /><b>Variante</b><br />Nume: Valea Șovarului, Hartă: PDT, Limbă: Limba română</description><Point><coordinates>22.086394,46.820175</coordinates></Point></Placemark>
<Placemark><name>Valea Șovarului</name><description>Nume: Valea Șovarului, Tip: șovar, Nivel: 3, Județ: Bihor, Formă: Vale, ID: 14214 <br /><b>Variante</b><br />Nume: Valea Șovarului, Hartă: PDT, Limbă: Limba română</description><Point><coordinates>22.219082,46.832367</coordinates></Point></Placemark>
<Placemark><name>Szóvárhegy</name><description>Nume: Szóvárhegy, Tip: szóvár, Nivel: 4, Județ: Bihor, Formă: Localitate, ID: 13664 <br /><b>Variante</b><br />Nume: Szóvárhegy, Hartă: Ungară 1869, Limbă: Limba maghiară</description><Point><coordinates>22.508804,47.317485</coordinates></Point></Placemark>
<Placemark><name>Bogdanszóvárhegy</name><description>Nume: Bogdanszóvárhegy, Tip: szóvár, Nivel: 4, Județ: Bihor, Formă: Localitate, ID: 13665 <br /><b>Variante</b><br />Nume: Bogdanszóvárhegy, Hartă: Ungară 1869, Limbă: Limba maghiară</description><Point><coordinates>22.263861,47.141916</coordinates></Point></Placemark>
<Placemark><name>Vârfu Șuvarului</name><description>Nume: Vârfu Șuvarului, Tip: șuvar, Nivel: 4, Județ: Cluj, Formă: Înălțime, ID: 13726 <br /><b>Variante</b><br />Nume: Vârfu Șuvarului, Hartă: Geomil 25000, Limbă: Limba română</description><Point><coordinates>22.867839,46.988451</coordinates></Point></Placemark></Document></kml>