<?xml version="1.0" encoding="UTF-8"?><kml xmlns="http://www.opengis.net/kml/2.2"><Document><Placemark><name>Valea Cârligului</name><description>Nume: Valea Cârligului, Tip: cârlig, Nivel: 3, Județ: Botosani, Formă: Vale, ID: 14942 <br /><b>Variante</b><br />Nume: Valea Cârligului, Hartă: ANCPI, Limbă: Limba română</description><Point><coordinates>27.072942,47.797174,0</coordinates></Point></Placemark>
<Placemark><name>Cârligul Mare</name><description>Nume: Cârligul Mare, Tip: cârlig, Nivel: 3, Județ: Buzau, Formă: Localitate, ID: 14873 <br /><b>Variante</b><br />Nume: Cârligul Mare, Hartă: Geomil 25000, Limbă: Limba română</description><Point><coordinates>26.750836,44.846794,0</coordinates></Point></Placemark>
<Placemark><name>Cârligul Mic</name><description>Nume: Cârligul Mic, Tip: cârlig, Nivel: 3, Județ: Buzau, Formă: Localitate, ID: 14874, ID Părinte: 14873 <br /><b>Variante</b><br />Nume: Cârligul Mic, Hartă: PDT, Limbă: Limba română</description><Point><coordinates>26.765562,44.839238,0</coordinates></Point></Placemark>
<Placemark><LineString id="14874_14873"><tessellate>1</tessellate><coordinates>26.765562,44.839238,0.
26.750836,44.846794,0</coordinates></LineString><Style><LineStyle><width>3</width></LineStyle></Style></Placemark>
<Placemark><name>Cârligei</name><description>Nume: Cârligei, Tip: cârligei, Nivel: 3, Județ: Dolj, Formă: Localitate, ID: 14871 <br /><b>Variante</b><br />Nume: Cârligei, Hartă: PDT, Limbă: Limba română</description><Point><coordinates>23.744742,44.283169,0</coordinates></Point></Placemark>
<Placemark><name>Cârligei</name><description>Nume: Cârligei, Tip: cârligei, Nivel: 3, Județ: Gorj, Formă: Localitate, ID: 14872 <br /><b>Variante</b><br />Nume: Cârligei, Hartă: ANCPI, Limbă: Limba română</description><Point><coordinates>23.684354,45.119225,0</coordinates></Point></Placemark>
<Placemark><name>Cârligu</name><description>Nume: Cârligu, Tip: cârlig, Nivel: 3, Județ: Iasi, Formă: Localitate, ID: 14846 <br /><b>Variante</b><br />Nume: Cârligu, Hartă: PDT, Limbă: Limba română</description><Point><coordinates>27.562614,47.211655,0</coordinates></Point></Placemark>
<Placemark><name>Cârligu</name><description>Nume: Cârligu, Tip: cârlig, Nivel: 3, Județ: Neamt, Formă: Localitate, ID: 14845 <br /><b>Variante</b><br />Nume: Cârligu, Hartă: PDT, Limbă: Limba română<br />Nume: Kerlidscy, Hartă: Moldova (1788-1790), Limbă: Limba română</description><Point><coordinates>26.750691,46.990753,0</coordinates></Point></Placemark>
<Placemark><name>Cârligi</name><description>Nume: Cârligi, Tip: cârligi, Nivel: 3, Județ: Neamt, Formă: Localitate, ID: 14937 <br /><b>Variante</b><br />Nume: Cârligi, Hartă: PDT, Limbă: Limba română<br />Nume: Kerlitschy, Hartă: Moldova (1788-1790), Limbă: Limba română</description><Point><coordinates>26.521012,47.003427,0</coordinates></Point></Placemark>
<Placemark><name>Cârlig</name><description>Nume: Cârlig, Tip: cârlig, Nivel: 3, Județ: Olt, Formă: Înălțime, ID: 14884 <br /><b>Variante</b><br />Nume: Cârlig, Hartă: PDT, Limbă: Limba română</description><Point><coordinates>24.331842,44.754060,0</coordinates></Point></Placemark>
<Placemark><name>Cârlogani</name><description>Nume: Cârlogani, Tip: cârlogani, Nivel: 3, Județ: Olt, Formă: Localitate, ID: 14843 <br /><b>Variante</b><br />Nume: Cârlogani, Hartă: PDT, Limbă: Limba română<br />Nume: Kîrlogani, Hartă: Austriacă, Limbă: Limba română</description><Point><coordinates>24.144944,44.525515,0</coordinates></Point></Placemark>
<Placemark><name>Valea Cârligăturii</name><description>Nume: Valea Cârligăturii, Tip: cârligătura, Nivel: 3, Județ: Suceava, Formă: Vale, ID: 14940 <br /><b>Variante</b><br />Nume: Valea Cârligăturii, Hartă: PDT, Limbă: Limba română</description><Point><coordinates>25.336944,47.533561,0</coordinates></Point></Placemark>
<Placemark><name>Cârligați</name><description>Nume: Cârligați, Tip: cârligați, Nivel: 3, Județ: Teleorman, Formă: Localitate, ID: 14960 <br /><b>Variante</b><br />Nume: Cârligați, Hartă: PDT, Limbă: Limba română</description><Point><coordinates>24.868084,43.968759,0</coordinates></Point></Placemark>
<Placemark><name>Muntele Cârligul Mare</name><description>Nume: Muntele Cârligul Mare, Tip: cârlig, Nivel: 3, Județ: Valcea, Formă: Înălțime, ID: 14844 <br /><b>Variante</b><br />Nume: Muntele Cârligul Mare, Hartă: ANCPI, Limbă: Limba română</description><Point><coordinates>24.280763,45.312407,0</coordinates></Point></Placemark>
<Placemark><name>Dealul Cârlige</name><description>Nume: Dealul Cârlige, Tip: cârlige, Nivel: 3, Județ: Valcea, Formă: Deal, ID: 14852 <br /><b>Variante</b><br />Nume: Dealul Cârlige, Hartă: ANCPI, Limbă: Limba română</description><Point><coordinates>24.107400,45.097323,0</coordinates></Point></Placemark>
<Placemark><name>Cârlige</name><description>Nume: Cârlige, Tip: cârlige, Nivel: 3, Județ: Vrancea, Formă: Localitate, ID: 14847 <br /><b>Variante</b><br />Nume: Cârlige, Hartă: PDT, Limbă: Limba română</description><Point><coordinates>27.083402,45.673372,0</coordinates></Point></Placemark></Document></kml>