<?xml version="1.0" encoding="UTF-8"?><kml xmlns="http://www.opengis.net/kml/2.2"><Document><Placemark><name>Cârligi</name><description>Nume: Cârligi, Tip: cârligi, Nivel: 3, Județ: Bacau, Formă: Localitate, ID: 15313 <br /><b>Variante</b><br />Nume: Cârligi, Hartă: ANCPI, Limbă: Limba română<br />Nume: Cîrligi, Hartă: PDT, Limbă: Limba română</description><Point><coordinates>26.849138,46.764824,0</coordinates></Point></Placemark>
<Placemark><name>Valea Cârligului</name><description>Nume: Valea Cârligului, Tip: cârlig, Nivel: 3, Județ: Botosani, Formă: Vale, ID: 14942 <br /><b>Variante</b><br />Nume: Valea Cârligului, Hartă: ANCPI, Limbă: Limba română</description><Point><coordinates>27.072942,47.797174,0</coordinates></Point></Placemark>
<Placemark><name>Cârligul Mare</name><description>Nume: Cârligul Mare, Tip: cârlig, Nivel: 3, Județ: Buzau, Formă: Localitate, ID: 14873 <br /><b>Variante</b><br />Nume: Cârligul Mare, Hartă: Geomil 25000, Limbă: Limba română</description><Point><coordinates>26.750836,44.846794,0</coordinates></Point></Placemark>
<Placemark><name>Cârligul Mic</name><description>Nume: Cârligul Mic, Tip: cârlig, Nivel: 3, Județ: Buzau, Formă: Localitate, ID: 14874, ID Părinte: 14873 <br /><b>Variante</b><br />Nume: Cârligul Mic, Hartă: PDT, Limbă: Limba română</description><Point><coordinates>26.765562,44.839238,0</coordinates></Point></Placemark>
<Placemark><LineString id="14874_14873"><tessellate>1</tessellate><coordinates>26.765562,44.839238,0.
26.750836,44.846794,0</coordinates></LineString><Style><LineStyle><width>3</width></LineStyle></Style></Placemark>
<Placemark><name>Cârligul</name><description>Nume: Cârligul, Tip: cârlig, Nivel: 3, Județ: Dambovita, Formă: Înălțime, ID: 15043 <br /><b>Variante</b><br />Nume: Cârligul, Hartă: Munții noștri, Limbă: Limba română</description><Point><coordinates>25.460266,45.253010,0</coordinates></Point></Placemark>
<Placemark><name>Piscul Cârligele</name><description>Nume: Piscul Cârligele, Tip: cârlige, Nivel: 3, Județ: Dambovita, Formă: Înălțime, ID: 15366 <br /><b>Variante</b><br />Nume: Piscul Cârligele, Hartă: ANCPI, Limbă: Limba română</description><Point><coordinates>25.290733,45.242357,0</coordinates></Point></Placemark>
<Placemark><name>Cârligei</name><description>Nume: Cârligei, Tip: cârligei, Nivel: 3, Județ: Dolj, Formă: Localitate, ID: 14871 <br /><b>Variante</b><br />Nume: Cârligei, Hartă: PDT, Limbă: Limba română</description><Point><coordinates>23.744742,44.283169,0</coordinates></Point></Placemark>
<Placemark><name>Cârligei</name><description>Nume: Cârligei, Tip: cârligei, Nivel: 3, Județ: Gorj, Formă: Localitate, ID: 14872 <br /><b>Variante</b><br />Nume: Cârligei, Hartă: ANCPI, Limbă: Limba română</description><Point><coordinates>23.684354,45.119225,0</coordinates></Point></Placemark>
<Placemark><name>Cârligatul</name><description>Nume: Cârligatul, Tip: cârligat, Nivel: 3, Județ: Harghita, Formă: Vale, ID: 15159 <br /><b>Variante</b><br />Nume: Cârligatul, Hartă: Munții noștri, Limbă: Limba română</description><Point><coordinates>25.444222,47.147422,0</coordinates></Point></Placemark>
<Placemark><name>Privalul Cârligata</name><description>Nume: Privalul Cârligata, Tip: cârligata, Nivel: 3, Județ: Ialomita, Formă: Apă-deal-câmpie, ID: 15013 <br /><b>Variante</b><br />Nume: Privalul Cârligata, Hartă: PDT, Limbă: Limba română</description><Point><coordinates>27.939230,44.544693,0</coordinates></Point></Placemark>
<Placemark><name>Cârligu</name><description>Nume: Cârligu, Tip: cârlig, Nivel: 3, Județ: Iasi, Formă: Localitate, ID: 14846 <br /><b>Variante</b><br />Nume: Cârligu, Hartă: PDT, Limbă: Limba română</description><Point><coordinates>27.562614,47.211655,0</coordinates></Point></Placemark>
<Placemark><name>Cârligătura</name><description>Nume: Cârligătura, Tip: cârligătura, Nivel: 3, Județ: Maramures, Formă: Vale, ID: 15144 <br /><b>Variante</b><br />Nume: Cârligătura, Hartă: Munții noștri, Limbă: Limba română</description><Point><coordinates>24.459951,47.943258,0</coordinates></Point></Placemark>
<Placemark><name>Pășunea Cârligăturii</name><description>Nume: Pășunea Cârligăturii, Tip: cârligătura, Nivel: 3, Județ: Maramures, Formă: Altele, ID: 15145, ID Părinte: 15144 <br /><b>Variante</b><br />Nume: Pășunea Cârligăturii, Hartă: Munții noștri, Limbă: Limba română<br />Nume: Pășunea Cârligăturii, Hartă: ANCPI, Limbă: Limba română</description><Point><coordinates>24.469460,47.956091,0</coordinates></Point></Placemark>
<Placemark><LineString id="15145_15144"><tessellate>1</tessellate><coordinates>24.469460,47.956091,0.
24.459951,47.943258,0</coordinates></LineString><Style><LineStyle><width>3</width></LineStyle></Style></Placemark>
<Placemark><name>Valea Cârligeii</name><description>Nume: Valea Cârligeii, Tip: cârligei, Nivel: 3, Județ: Mehedinti, Formă: Vale, ID: 15420 <br /><b>Variante</b><br />Nume: Valea Cârligeii, Hartă: ANCPI, Limbă: Limba română</description><Point><coordinates>22.956777,44.720755,0</coordinates></Point></Placemark>
<Placemark><name>Cârligu</name><description>Nume: Cârligu, Tip: cârlig, Nivel: 3, Județ: Neamt, Formă: Localitate, ID: 14845 <br /><b>Variante</b><br />Nume: Cârligu, Hartă: PDT, Limbă: Limba română<br />Nume: Kerlidscy, Hartă: Moldova (1788-1790), Limbă: Limba română</description><Point><coordinates>26.750691,46.990753,0</coordinates></Point></Placemark>
<Placemark><name>Cârligi</name><description>Nume: Cârligi, Tip: cârligi, Nivel: 3, Județ: Neamt, Formă: Localitate, ID: 14937 <br /><b>Variante</b><br />Nume: Cârligi, Hartă: PDT, Limbă: Limba română<br />Nume: Kerlitschy, Hartă: Moldova (1788-1790), Limbă: Limba română</description><Point><coordinates>26.521012,47.003427,0</coordinates></Point></Placemark>
<Placemark><name>Cârlig</name><description>Nume: Cârlig, Tip: cârlig, Nivel: 3, Județ: Olt, Formă: Înălțime, ID: 14884 <br /><b>Variante</b><br />Nume: Cârlig, Hartă: PDT, Limbă: Limba română</description><Point><coordinates>24.331842,44.754060,0</coordinates></Point></Placemark>
<Placemark><name>Cârlogani</name><description>Nume: Cârlogani, Tip: cârlogani, Nivel: 3, Județ: Olt, Formă: Localitate, ID: 14843 <br /><b>Variante</b><br />Nume: Cârlogani, Hartă: PDT, Limbă: Limba română<br />Nume: Kîrlogani, Hartă: Austriacă, Limbă: Limba română</description><Point><coordinates>24.144944,44.525515,0</coordinates></Point></Placemark>
<Placemark><name>La Cârlig</name><description>Nume: La Cârlig, Tip: cârlig, Nivel: 3, Județ: Sibiu, Formă: Altele, ID: 15303 <br /><b>Variante</b><br />Nume: La Cârlig, Hartă: Munții noștri, Limbă: Limba română</description><Point><coordinates>23.866017,45.697558,0</coordinates></Point></Placemark>
<Placemark><name>Valea Cârligăturii</name><description>Nume: Valea Cârligăturii, Tip: cârligătura, Nivel: 3, Județ: Suceava, Formă: Vale, ID: 14940 <br /><b>Variante</b><br />Nume: Valea Cârligăturii, Hartă: PDT, Limbă: Limba română</description><Point><coordinates>25.336944,47.533561,0</coordinates></Point></Placemark>
<Placemark><name>Cârligați</name><description>Nume: Cârligați, Tip: cârligați, Nivel: 3, Județ: Teleorman, Formă: Localitate, ID: 14960 <br /><b>Variante</b><br />Nume: Cârligați, Hartă: PDT, Limbă: Limba română</description><Point><coordinates>24.868084,43.968759,0</coordinates></Point></Placemark>
<Placemark><name>La Cîrlig</name><description>Nume: La Cîrlig, Tip: cârlig, Nivel: 3, Județ: Valcea, Formă: Apă-deal-câmpie, ID: 15538 <br /><b>Variante</b><br />Nume: La Cîrlig, Hartă: PDT, Limbă: Limba română</description><Point><coordinates>24.302190,44.632756,0</coordinates></Point></Placemark>
<Placemark><name>Muntele Cârligul Mare</name><description>Nume: Muntele Cârligul Mare, Tip: cârlig, Nivel: 3, Județ: Valcea, Formă: Înălțime, ID: 14844 <br /><b>Variante</b><br />Nume: Muntele Cârligul Mare, Hartă: ANCPI, Limbă: Limba română</description><Point><coordinates>24.280763,45.312407,0</coordinates></Point></Placemark>
<Placemark><name>Dealul Cârlige</name><description>Nume: Dealul Cârlige, Tip: cârlige, Nivel: 3, Județ: Valcea, Formă: Deal, ID: 14852 <br /><b>Variante</b><br />Nume: Dealul Cârlige, Hartă: ANCPI, Limbă: Limba română</description><Point><coordinates>24.107400,45.097323,0</coordinates></Point></Placemark>
<Placemark><name>Dealul Cârlige</name><description>Nume: Dealul Cârlige, Tip: cârlige, Nivel: 3, Județ: Valcea, Formă: Deal, ID: 15263 <br /><b>Variante</b><br />Nume: Dealul Cârlige, Hartă: ANCPI, Limbă: Limba română</description><Point><coordinates>24.442822,45.224508,0</coordinates></Point></Placemark>
<Placemark><name>Cârlogani</name><description>Nume: Cârlogani, Tip: cârlogani, Nivel: 3, Județ: Valcea, Formă: Localitate, ID: 15368 <br /><b>Variante</b><br />Nume: Cârlogani, Hartă: ANCPI, Limbă: Limba română</description><Point><coordinates>23.920736,44.683427,0</coordinates></Point></Placemark>
<Placemark><name>Dealul Cârligelor</name><description>Nume: Dealul Cârligelor, Tip: cârlige, Nivel: 3, Județ: Vaslui, Formă: Deal, ID: 15358 <br /><b>Variante</b><br />Nume: Dealul Cârligelor, Hartă: ANCPI, Limbă: Limba română</description><Point><coordinates>27.776934,46.174093,0</coordinates></Point></Placemark>
<Placemark><name>Dealul Cârligului</name><description>Nume: Dealul Cârligului, Tip: cârlig, Nivel: 3, Județ: Vrancea, Formă: Deal, ID: 15390 <br /><b>Variante</b><br />Nume: Dealul Cârligului, Hartă: PDT, Limbă: Limba română</description><Point><coordinates>26.898496,45.961408,0</coordinates></Point></Placemark>
<Placemark><name>Pârâul Cârligului</name><description>Nume: Pârâul Cârligului, Tip: cârlig, Nivel: 3, Județ: Vrancea, Formă: Vale, ID: 15391, ID Părinte: 15390 <br /><b>Variante</b><br />Nume: Pârâul Cârligului, Hartă: PDT, Limbă: Limba română</description><Point><coordinates>26.893071,45.962582,0</coordinates></Point></Placemark>
<Placemark><LineString id="15391_15390"><tessellate>1</tessellate><coordinates>26.893071,45.962582,0.
26.898496,45.961408,0</coordinates></LineString><Style><LineStyle><width>3</width></LineStyle></Style></Placemark>
<Placemark><name>Cârlige</name><description>Nume: Cârlige, Tip: cârlige, Nivel: 3, Județ: Vrancea, Formă: Localitate, ID: 14847 <br /><b>Variante</b><br />Nume: Cârlige, Hartă: PDT, Limbă: Limba română</description><Point><coordinates>27.083402,45.673372,0</coordinates></Point></Placemark></Document></kml>