<?xml version="1.0" encoding="UTF-8"?><kml xmlns="http://www.opengis.net/kml/2.2"><Document><Placemark><name>Sváb-Olaszi</name><description>Nume: Sváb-Olaszi, Tip: șvab, Nivel: 3, Județ: Bihor, Formă: Localitate, ID: 12142 <br /><b>Variante</b><br />Nume: Sváb-Olaszi, Hartă: Ungaria (1782–1785), Limbă: Limba maghiară</description><Point><coordinates>22.172547,47.352510,0</coordinates></Point></Placemark>
<Placemark><name>Dâmbul Șvabilor</name><description>Nume: Dâmbul Șvabilor, Tip: șvabi, Nivel: 4, Județ: Bihor, Formă: Înălțime, ID: 7585 <br /><b>Variante</b><br />Nume: Dâmbul Șvabilor, Hartă: PDT, Limbă: Limba română</description><Point><coordinates>22.081411,47.298462,0</coordinates></Point></Placemark>
<Placemark><name>Dealul Șvabului</name><description>Nume: Dealul Șvabului, Tip: șvab, Nivel: 3, Județ: Botosani, Formă: Deal, ID: 15941 <br /><b>Variante</b><br />Nume: Dealul Șvabului, Hartă: ANCPI, Limbă: Limba română</description><Point><coordinates>26.552204,48.027003,0</coordinates></Point></Placemark>
<Placemark><name>Râtu Șvabilor</name><description>Nume: Râtu Șvabilor, Tip: șvabi, Nivel: 4, Județ: Satu Mare, Formă: Altele, ID: 11849 <br /><b>Variante</b><br />Nume: Râtu Șvabilor, Hartă: Geomil 25000, Limbă: Limba română</description><Point><coordinates>23.141145,47.927204,0</coordinates></Point></Placemark>
<Placemark><name>Poiana Șvabului</name><description>Nume: Poiana Șvabului, Tip: șvab, Nivel: 3, Județ: Suceava, Formă: Poiană, ID: 4919 <br /><b>Variante</b><br />Nume: Poiana Șvabului, Hartă: PDT, Limbă: Limba română</description><Point><coordinates>26.261155,47.754449,0</coordinates></Point></Placemark>
<Placemark><name>Valea Șvabului</name><description>Nume: Valea Șvabului, Tip: șvab, Nivel: 3, Județ: Suceava, Formă: Vale, ID: 4920, ID Părinte: 4919 <br /><b>Variante</b><br />Nume: Valea Șvabului, Hartă: PDT, Limbă: Limba română<br />Nume: Valea Soabului, Hartă: Geomil 25000, Limbă: Limba română</description><Point><coordinates>26.274396,47.747308,0</coordinates></Point></Placemark>
<Placemark><LineString id="4920_4919"><tessellate>1</tessellate><coordinates>26.274396,47.747308,0.
26.261155,47.754449,0</coordinates></LineString><Style><LineStyle><width>3</width></LineStyle></Style></Placemark></Document></kml>