<?xml version="1.0" encoding="UTF-8"?><kml xmlns="http://www.opengis.net/kml/2.2"><Document><Placemark><name>Peștera Liliecilor</name><description>Nume: Peștera Liliecilor, Tip: lilieci, Nivel: 2, Județ: Arad, Formă: Altele, ID: 1942 <br /><b>Variante</b><br />Nume: Peștera Liliecilor, Hartă: Geomil 25000, Limbă: Limba română</description><Point><coordinates>22.252397,46.456855,0</coordinates></Point></Placemark>
<Placemark><name>Dealul Liliecilor</name><description>Nume: Dealul Liliecilor, Tip: lilieci, Nivel: 2, Județ: Bacau, Formă: Deal, ID: 3930 <br /><b>Variante</b><br />Nume: Dealul Liliecilor, Hartă: PDT, Limbă: Limba română</description><Point><coordinates>27.076271,46.141856,0</coordinates></Point></Placemark>
<Placemark><name>Peștera Liliecilor</name><description>Nume: Peștera Liliecilor, Tip: lilieci, Nivel: 2, Județ: Brasov, Formă: Altele, ID: 598 <br /><b>Variante</b><br />Nume: Peștera Liliecilor, Hartă: Geomil 25000, Limbă: Limba română</description><Point><coordinates>25.294111,45.506534,0</coordinates></Point></Placemark>
<Placemark><name>Pădurea Lilieci</name><description>Nume: Pădurea Lilieci, Tip: lilieci, Nivel: 2, Județ: Calarasi, Formă: Pădure, ID: 1314 <br /><b>Variante</b><br />Nume: Pădurea Lilieci, Hartă: Geomil 25000, Limbă: Limba română</description><Point><coordinates>26.434911,44.408242,0</coordinates></Point></Placemark>
<Placemark><name>Ogașu Liliecilor</name><description>Nume: Ogașu Liliecilor, Tip: lilieci, Nivel: 2, Județ: Caras Severin, Formă: Altele, ID: 3319 <br /><b>Variante</b><br />Nume: Ogașu Liliecilor, Hartă: Geomil 25000, Limbă: Limba română</description><Point><coordinates>21.935314,44.719897,0</coordinates></Point></Placemark>
<Placemark><name>Movila cu Lilieci</name><description>Nume: Movila cu Lilieci, Tip: lilieci, Nivel: 2, Județ: Constanta, Formă: Înălțime, ID: 2846 <br /><b>Variante</b><br />Nume: Movila cu Lilieci, Hartă: Geomil 25000, Limbă: Limba română</description><Point><coordinates>28.063068,44.142912,0</coordinates></Point></Placemark>
<Placemark><name>Movila Lilieci</name><description>Nume: Movila Lilieci, Tip: lilieci, Nivel: 2, Județ: Ialomita, Formă: Înălțime, ID: 53 <br /><b>Variante</b><br />Nume: Movila Lilieci, Hartă: PDT, Limbă: Limba română</description><Point><coordinates>26.500000,44.786619,0</coordinates></Point></Placemark>
<Placemark><name>Dealul Lilieci</name><description>Nume: Dealul Lilieci, Tip: lilieci, Nivel: 2, Județ: Mehedinti, Formă: Deal, ID: 3662 <br /><b>Variante</b><br />Nume: Dealul Lilieci, Hartă: PDT, Limbă: Limba română</description><Point><coordinates>22.882719,44.448483,0</coordinates></Point></Placemark>
<Placemark><name>Dealul Lilieci</name><description>Nume: Dealul Lilieci, Tip: lilieci, Nivel: 2, Județ: Prahova, Formă: Deal, ID: 3953 <br /><b>Variante</b><br />Nume: Dealul Lilieci, Hartă: PDT, Limbă: Limba română</description><Point><coordinates>26.337866,45.031793,0</coordinates></Point></Placemark>
<Placemark><name>La Baraj la Lilieci</name><description>Nume: La Baraj la Lilieci, Tip: lilieci, Nivel: 2, Județ: Teleorman, Formă: Apă-deal-câmpie, ID: 514 <br /><b>Variante</b><br />Nume: La Baraj la Lilieci, Hartă: Geomil 25000, Limbă: Limba română</description><Point><coordinates>25.351922,44.338351,0</coordinates></Point></Placemark>
<Placemark><name>Valea Liliecilor</name><description>Nume: Valea Liliecilor, Tip: lilieci, Nivel: 2, Județ: Teleorman, Formă: Vale, ID: 3748 <br /><b>Variante</b><br />Nume: Valea Liliecilor, Hartă: Geomil 25000, Limbă: Limba română</description><Point><coordinates>25.338930,44.354106,0</coordinates></Point></Placemark></Document></kml>