<?xml version="1.0" encoding="UTF-8"?><kml xmlns="http://www.opengis.net/kml/2.2"><Document><Placemark><name>Fundul Zăpozii de la Piatra</name><description>Nume: Fundul Zăpozii de la Piatra, Tip: zăpodă, Nivel: 3, Județ: Salaj, Formă: Altele, ID: 10392 <br /><b>Variante</b><br />Nume: Fundul Zăpozii de la Piatra, Hartă: PDT, Limbă: Limba română</description><Point><coordinates>23.407437,47.054203</coordinates></Point></Placemark>
<Placemark><name>Dealul Zăpodei</name><description>Nume: Dealul Zăpodei, Tip: zăpodă, Nivel: 3, Județ: Cluj, Formă: Deal, ID: 10394 <br /><b>Variante</b><br />Nume: Dealul Zăpodei, Hartă: PDT, Limbă: Limba română</description><Point><coordinates>23.482131,47.025264</coordinates></Point></Placemark>
<Placemark><name>Fundul Zăpodei</name><description>Nume: Fundul Zăpodei, Tip: zăpodă, Nivel: 3, Județ: Cluj, Formă: Altele, ID: 10818 <br /><b>Variante</b><br />Nume: Fundul Zăpodei, Hartă: Imperiul Habsburgic (1887), Limbă: Limba română</description><Point><coordinates>23.525921,47.056980</coordinates></Point></Placemark>
<Placemark><name>Părâul Zăpodei</name><description>Nume: Părâul Zăpodei, Tip: zăpodă, Nivel: 3, Județ: Suceava, Formă: Vale, ID: 11726 <br /><b>Variante</b><br />Nume: Părâul Zăpodei, Hartă: Imperiul Habsburgic (1887), Limbă: Limba română</description><Point><coordinates>25.253312,47.172247</coordinates></Point></Placemark>
<Placemark><name>Vr. Zepodei</name><description>Nume: Vr. Zepodei, Tip: zăpodă, Nivel: 3, Județ: Maramures, Formă: Înălțime, ID: 13750 <br /><b>Variante</b><br />Nume: Vr. Zepodei, Hartă: Ungară 1869, Limbă: Limba română</description><Point><coordinates>23.867786,47.735437</coordinates></Point></Placemark></Document></kml>