<?xml version="1.0" encoding="UTF-8"?><kml xmlns="http://www.opengis.net/kml/2.2"><Document><Placemark><name>Dâmbu Neamțului</name><description>Nume: Dâmbu Neamțului, Tip: neamț, Nivel: 4, Județ: Alba, Formă: Înălțime, ID: 5579 <br /><b>Variante</b><br />Nume: Dâmbu Neamțului, Hartă: Geomil 25000, Limbă: Limba română</description><Point><coordinates>23.288005,46.223164,0</coordinates></Point></Placemark>
<Placemark><name>Piatra Neamțului</name><description>Nume: Piatra Neamțului, Tip: neamț, Nivel: 4, Județ: Alba, Formă: Înălțime, ID: 11528 <br /><b>Variante</b><br />Nume: Piatra Neamțului, Hartă: Geomil 25000, Limbă: Limba română</description><Point><coordinates>23.152130,46.466120,0</coordinates></Point></Placemark>
<Placemark><name>Podu Neamțului</name><description>Nume: Podu Neamțului, Tip: neamț, Nivel: 4, Județ: Alba, Formă: Altele, ID: 7354 <br /><b>Variante</b><br />Nume: Podu Neamțului, Hartă: Geomil 25000, Limbă: Limba română</description><Point><coordinates>23.976510,46.249027,0</coordinates></Point></Placemark>
<Placemark><name>Valea Neamțului</name><description>Nume: Valea Neamțului, Tip: neamț, Nivel: 4, Județ: Alba, Formă: Vale, ID: 2580, ID Părinte: 5579 <br /><b>Variante</b><br />Nume: Valea Neamțului, Hartă: Geomil 25000, Limbă: Limba română</description><Point><coordinates>23.300161,46.215314,0</coordinates></Point></Placemark>
<Placemark><LineString id="2580_5579"><tessellate>1</tessellate><coordinates>23.300161,46.215314,0.
23.288005,46.223164,0</coordinates></LineString><Style><LineStyle><width>3</width></LineStyle></Style></Placemark>
<Placemark><name>Cioaca Neamțului</name><description>Nume: Cioaca Neamțului, Tip: neamț, Nivel: 4, Județ: Arad, Formă: Înălțime, ID: 10292 <br /><b>Variante</b><br />Nume: Cioaca Neamțului, Hartă: Geomil 25000, Limbă: Limba română<br />Nume: Cioka Niamtzului, Hartă: Ungară 1869, Limbă: Limba română</description><Point><coordinates>21.732776,46.181206,0</coordinates></Point></Placemark>
<Placemark><name>Dâmbul Neamțului</name><description>Nume: Dâmbul Neamțului, Tip: neamț, Nivel: 4, Județ: Arad, Formă: Înălțime, ID: 4092 <br /><b>Variante</b><br />Nume: Dâmbul Neamțului, Hartă: PDT, Limbă: Limba română</description><Point><coordinates>22.156449,46.596788,0</coordinates></Point></Placemark>
<Placemark><name>Dealul Neamțului</name><description>Nume: Dealul Neamțului, Tip: neamț, Nivel: 4, Județ: Arad, Formă: Deal, ID: 874 <br /><b>Variante</b><br />Nume: Dealul Neamțului, Hartă: Geomil 25000, Limbă: Limba română</description><Point><coordinates>22.409796,45.937152,0</coordinates></Point></Placemark>
<Placemark><name>Fântâna neamțiului</name><description>Nume: Fântâna neamțiului, Tip: neamț, Nivel: 4, Județ: Arad, Formă: Altele, ID: 6286 <br /><b>Variante</b><br />Nume: Fântâna neamțiului, Hartă: PDT, Limbă: Limba română</description><Point><coordinates>21.961223,46.391878,0</coordinates></Point></Placemark>
<Placemark><name>Pârâul Neamțului</name><description>Nume: Pârâul Neamțului, Tip: neamț, Nivel: 4, Județ: Arad, Formă: Vale, ID: 5630 <br /><b>Variante</b><br />Nume: Pârâul Neamțului, Hartă: PDT, Limbă: Limba română<br />Nume: Pârâul Neamțului, Hartă: Geomil 25000, Limbă: Limba română</description><Point><coordinates>21.805827,46.117059,0</coordinates></Point></Placemark>
<Placemark><name>Valea Neamțului</name><description>Nume: Valea Neamțului, Tip: neamț, Nivel: 4, Județ: Arad, Formă: Vale, ID: 1948 <br /><b>Variante</b><br />Nume: Valea Neamțului, Hartă: Geomil 25000, Limbă: Limba română</description><Point><coordinates>21.750099,46.107775,0</coordinates></Point></Placemark>
<Placemark><name>Valea Neamțului</name><description>Nume: Valea Neamțului, Tip: neamț, Nivel: 4, Județ: Arad, Formă: Vale, ID: 6258 <br /><b>Variante</b><br />Nume: Valea Neamțului, Hartă: Geomil 25000, Limbă: Limba română</description><Point><coordinates>22.566537,46.240196,0</coordinates></Point></Placemark>
<Placemark><name>Valea Neamțului</name><description>Nume: Valea Neamțului, Tip: neamț, Nivel: 4, Județ: Arad, Formă: Vale, ID: 9415 <br /><b>Variante</b><br />Nume: Valea Neamțului, Hartă: Geomil 25000, Limbă: Limba română</description><Point><coordinates>21.736051,46.211168,0</coordinates></Point></Placemark>
<Placemark><name>Ciuha Neamțului</name><description>Nume: Ciuha Neamțului, Tip: neamț, Nivel: 4, Județ: Arges, Formă: Înălțime, ID: 6909 <br /><b>Variante</b><br />Nume: Ciuha Neamțului, Hartă: PDT, Limbă: Limba română</description><Point><coordinates>24.536021,45.218929,0</coordinates></Point></Placemark>
<Placemark><name>Culmea Neamțului</name><description>Nume: Culmea Neamțului, Tip: neamț, Nivel: 4, Județ: Arges, Formă: Înălțime, ID: 5000 <br /><b>Variante</b><br />Nume: Culmea Neamțului, Hartă: Geomil 25000, Limbă: Limba română</description><Point><coordinates>24.945764,45.373701,0</coordinates></Point></Placemark>
<Placemark><name>Valea Neamțului</name><description>Nume: Valea Neamțului, Tip: neamț, Nivel: 4, Județ: Arges, Formă: Vale, ID: 5065 <br /><b>Variante</b><br />Nume: Valea Neamțului, Hartă: PDT, Limbă: Limba română</description><Point><coordinates>24.923519,45.219973,0</coordinates></Point></Placemark>
<Placemark><name>Groapa Neamțului</name><description>Nume: Groapa Neamțului, Tip: neamț, Nivel: 4, Județ: Bacau, Formă: Altele, ID: 4568 <br /><b>Variante</b><br />Nume: Groapa Neamțului, Hartă: PDT, Limbă: Limba română</description><Point><coordinates>26.487188,46.309797,0</coordinates></Point></Placemark>
<Placemark><name>Poiana Neamțului</name><description>Nume: Poiana Neamțului, Tip: neamț, Nivel: 4, Județ: Bacau, Formă: Poiană, ID: 7887 <br /><b>Variante</b><br />Nume: Poiana Neamțului, Hartă: PDT, Limbă: Limba română</description><Point><coordinates>27.157103,46.379212,0</coordinates></Point></Placemark>
<Placemark><name>Valea Jgheabul Neamțului</name><description>Nume: Valea Jgheabul Neamțului, Tip: neamț, Nivel: 4, Județ: Bacau, Formă: Vale, ID: 7879 <br /><b>Variante</b><br />Nume: Valea Jgheabul Neamțului, Hartă: Geomil 25000, Limbă: Limba română</description><Point><coordinates>26.347604,46.485040,0</coordinates></Point></Placemark>
<Placemark><name>Coliba Neamțului</name><description>Nume: Coliba Neamțului, Tip: neamț, Nivel: 4, Județ: Bihor, Formă: Altele, ID: 4180 <br /><b>Variante</b><br />Nume: Coliba Neamțului, Hartă: PDT, Limbă: Limba română</description><Point><coordinates>22.360295,47.173596,0</coordinates></Point></Placemark>
<Placemark><name>Izvorul Neamțului</name><description>Nume: Izvorul Neamțului, Tip: neamț, Nivel: 4, Județ: Bihor, Formă: Vale, ID: 5626, ID Părinte: 5627 <br /><b>Variante</b><br />Nume: Izvorul Neamțului, Hartă: PDT, Limbă: Limba română</description><Point><coordinates>22.503706,46.406019,0</coordinates></Point></Placemark>
<Placemark><LineString id="5626_5627"><tessellate>1</tessellate><coordinates>22.503706,46.406019,0.
22.513321,46.411536,0</coordinates></LineString><Style><LineStyle><width>3</width></LineStyle></Style></Placemark>
<Placemark><name>Pârâul Neamțului</name><description>Nume: Pârâul Neamțului, Tip: neamț, Nivel: 4, Județ: Bihor, Formă: Vale, ID: 4112 <br /><b>Variante</b><br />Nume: Pârâul Neamțului, Hartă: PDT, Limbă: Limba română</description><Point><coordinates>22.035064,46.660198,0</coordinates></Point></Placemark>
<Placemark><name>Pârâul Neamțului</name><description>Nume: Pârâul Neamțului, Tip: neamț, Nivel: 4, Județ: Bihor, Formă: Vale, ID: 5627 <br /><b>Variante</b><br />Nume: Pârâul Neamțului, Hartă: Geomil 25000, Limbă: Limba română</description><Point><coordinates>22.513321,46.411536,0</coordinates></Point></Placemark>
<Placemark><name>Dealul Neamțului</name><description>Nume: Dealul Neamțului, Tip: neamț, Nivel: 4, Județ: Bistrita Nasaud, Formă: Deal, ID: 5471 <br /><b>Variante</b><br />Nume: Dealul Neamțului, Hartă: PDT, Limbă: Limba română<br />Nume: Dealul Neamțului, Hartă: Geomil 25000, Limbă: Limba română</description><Point><coordinates>24.398777,46.869380,0</coordinates></Point></Placemark>
<Placemark><name>Dealul Neamțului</name><description>Nume: Dealul Neamțului, Tip: neamț, Nivel: 4, Județ: Bistrita Nasaud, Formă: Deal, ID: 9916 <br /><b>Variante</b><br />Nume: Dealul Neamțului, Hartă: Geomil 25000, Limbă: Limba română</description><Point><coordinates>24.800723,47.393856,0</coordinates></Point></Placemark>
<Placemark><name>Poiana Neamțului</name><description>Nume: Poiana Neamțului, Tip: neamț, Nivel: 4, Județ: Bistrita Nasaud, Formă: Poiană, ID: 1022 <br /><b>Variante</b><br />Nume: Poiana Neamțului, Hartă: Geomil 25000, Limbă: Limba română</description><Point><coordinates>24.431854,47.406480,0</coordinates></Point></Placemark>
<Placemark><name>Dealul Neamțului</name><description>Nume: Dealul Neamțului, Tip: neamț, Nivel: 4, Județ: Botosani, Formă: Deal, ID: 3571 <br /><b>Variante</b><br />Nume: Dealul Neamțului, Hartă: PDT, Limbă: Limba română<br />Nume: Dealul Neamțului, Hartă: Geomil 25000, Limbă: Limba română</description><Point><coordinates>26.771019,47.805596,0</coordinates></Point></Placemark>
<Placemark><name>Lacul Neamțu</name><description>Nume: Lacul Neamțu, Tip: neamț, Nivel: 4, Județ: Botosani, Formă: Lac, ID: 3576 <br /><b>Variante</b><br />Nume: Lacul Neamțu, Hartă: PDT, Limbă: Limba română</description><Point><coordinates>26.723125,47.964385,0</coordinates></Point></Placemark>
<Placemark><name>Lutăria la Neamțu</name><description>Nume: Lutăria la Neamțu, Tip: neamț, Nivel: 4, Județ: Botosani, Formă: Altele, ID: 2375 <br /><b>Variante</b><br />Nume: Lutăria la Neamțu, Hartă: Geomil 25000, Limbă: Limba română</description><Point><coordinates>27.019400,47.781190,0</coordinates></Point></Placemark>
<Placemark><name>Grindul Neamțului</name><description>Nume: Grindul Neamțului, Tip: neamț, Nivel: 4, Județ: Braila, Formă: Înălțime, ID: 9262 <br /><b>Variante</b><br />Nume: Grindul Neamțului, Hartă: PDT, Limbă: Limba română</description><Point><coordinates>28.009407,45.148980,0</coordinates></Point></Placemark>
<Placemark><name>Neamțul</name><description>Nume: Neamțul, Tip: neamț, Nivel: 4, Județ: Brasov, Formă: Vale, ID: 2713 <br /><b>Variante</b><br />Nume: Neamțul, Hartă: Geomil 25000, Limbă: Limba română</description><Point><coordinates>25.035812,45.608955,0</coordinates></Point></Placemark>
<Placemark><name>Ciuha Neamțului</name><description>Nume: Ciuha Neamțului, Tip: neamț, Nivel: 4, Județ: Buzau, Formă: Înălțime, ID: 9817 <br /><b>Variante</b><br />Nume: Ciuha Neamțului, Hartă: PDT, Limbă: Limba română</description><Point><coordinates>26.333413,45.268229,0</coordinates></Point></Placemark>
<Placemark><name>Valea Neamțului</name><description>Nume: Valea Neamțului, Tip: neamț, Nivel: 4, Județ: Buzau, Formă: Vale, ID: 9818, ID Părinte: 9817 <br /><b>Variante</b><br />Nume: Valea Neamțului, Hartă: PDT, Limbă: Limba română</description><Point><coordinates>26.349492,45.269842,0</coordinates></Point></Placemark>
<Placemark><LineString id="9818_9817"><tessellate>1</tessellate><coordinates>26.349492,45.269842,0.
26.333413,45.268229,0</coordinates></LineString><Style><LineStyle><width>3</width></LineStyle></Style></Placemark>
<Placemark><name>Cracu Neamțului</name><description>Nume: Cracu Neamțului, Tip: neamț, Nivel: 4, Județ: Caras Severin, Formă: Înălțime, ID: 856 <br /><b>Variante</b><br />Nume: Cracu Neamțului, Hartă: Geomil 25000, Limbă: Limba română</description><Point><coordinates>22.354156,45.468287,0</coordinates></Point></Placemark>
<Placemark><name>Cracul Neamțului</name><description>Nume: Cracul Neamțului, Tip: neamț, Nivel: 4, Județ: Caras Severin, Formă: Înălțime, ID: 8672 <br /><b>Variante</b><br />Nume: Cracul Neamțului, Hartă: PDT, Limbă: Limba română</description><Point><coordinates>22.455295,45.148625,0</coordinates></Point></Placemark>
<Placemark><name>Curmătura Neamțului</name><description>Nume: Curmătura Neamțului, Tip: neamț, Nivel: 4, Județ: Caras Severin, Formă: Înălțime, ID: 9430, ID Părinte: 1226 <br /><b>Variante</b><br />Nume: Curmătura Neamțului, Hartă: PDT, Limbă: Limba română</description><Point><coordinates>22.071595,45.114116,0</coordinates></Point></Placemark>
<Placemark><LineString id="9430_1226"><tessellate>1</tessellate><coordinates>22.071595,45.114116,0.
22.074589,45.104576,0</coordinates></LineString><Style><LineStyle><width>3</width></LineStyle></Style></Placemark>
<Placemark><name>Dealu Masa Neamțului</name><description>Nume: Dealu Masa Neamțului, Tip: neamț, Nivel: 4, Județ: Caras Severin, Formă: Deal, ID: 10301 <br /><b>Variante</b><br />Nume: Dealu Masa Neamțului, Hartă: Geomil 25000, Limbă: Limba română</description><Point><coordinates>22.325655,45.424255,0</coordinates></Point></Placemark>
<Placemark><name>Dealu Neamțului</name><description>Nume: Dealu Neamțului, Tip: neamț, Nivel: 4, Județ: Caras Severin, Formă: Deal, ID: 4316 <br /><b>Variante</b><br />Nume: Dealu Neamțului, Hartă: Geomil 25000, Limbă: Limba română</description><Point><coordinates>21.753199,45.390717,0</coordinates></Point></Placemark>
<Placemark><name>Ogașu Crucea Neamțului</name><description>Nume: Ogașu Crucea Neamțului, Tip: neamț, Nivel: 4, Județ: Caras Severin, Formă: Vale, ID: 6125 <br /><b>Variante</b><br />Nume: Ogașu Crucea Neamțului, Hartă: Geomil 25000, Limbă: Limba română</description><Point><coordinates>22.060247,45.265246,0</coordinates></Point></Placemark>
<Placemark><name>Pârâu Neamțului</name><description>Nume: Pârâu Neamțului, Tip: neamț, Nivel: 4, Județ: Caras Severin, Formă: Vale, ID: 857, ID Părinte: 856 <br /><b>Variante</b><br />Nume: Pârâu Neamțului, Hartă: Geomil 25000, Limbă: Limba română</description><Point><coordinates>22.353087,45.470932,0</coordinates></Point></Placemark>
<Placemark><LineString id="857_856"><tessellate>1</tessellate><coordinates>22.353087,45.470932,0.
22.354156,45.468287,0</coordinates></LineString><Style><LineStyle><width>3</width></LineStyle></Style></Placemark>
<Placemark><name>Poiana Neamțului</name><description>Nume: Poiana Neamțului, Tip: neamț, Nivel: 4, Județ: Caras Severin, Formă: Poiană, ID: 1226 <br /><b>Variante</b><br />Nume: Poiana Neamțului, Hartă: Geomil 25000, Limbă: Limba română<br />Nume: Poiana Neamțului, Hartă: PDT, Limbă: Limba română</description><Point><coordinates>22.074589,45.104576,0</coordinates></Point></Placemark>
<Placemark><name>Poiana Neamțului</name><description>Nume: Poiana Neamțului, Tip: neamț, Nivel: 4, Județ: Caras Severin, Formă: Poiană, ID: 4319, ID Părinte: 4316 <br /><b>Variante</b><br />Nume: Poiana Neamțului, Hartă: PDT, Limbă: Limba română</description><Point><coordinates>21.748015,45.387519,0</coordinates></Point></Placemark>
<Placemark><LineString id="4319_4316"><tessellate>1</tessellate><coordinates>21.748015,45.387519,0.
21.753199,45.390717,0</coordinates></LineString><Style><LineStyle><width>3</width></LineStyle></Style></Placemark>
<Placemark><name>Dealu Neamțului</name><description>Nume: Dealu Neamțului, Tip: neamț, Nivel: 4, Județ: Cluj, Formă: Deal, ID: 5895 <br /><b>Variante</b><br />Nume: Dealu Neamțului, Hartă: Geomil 25000, Limbă: Limba română</description><Point><coordinates>23.087162,46.659917,0</coordinates></Point></Placemark>
<Placemark><name>Dealu Țapa Neamțului</name><description>Nume: Dealu Țapa Neamțului, Tip: neamț, Nivel: 4, Județ: Cluj, Formă: Deal, ID: 4387 <br /><b>Variante</b><br />Nume: Dealu Țapa Neamțului, Hartă: Geomil 25000, Limbă: Limba română</description><Point><coordinates>23.494273,46.879465,0</coordinates></Point></Placemark>
<Placemark><name>Moara Neamțului</name><description>Nume: Moara Neamțului, Tip: neamț, Nivel: 4, Județ: Covasna, Formă: Altele, ID: 6056 <br /><b>Variante</b><br />Nume: Moara Neamțului, Hartă: Geomil 25000, Limbă: Limba română</description><Point><coordinates>25.727190,46.008340,0</coordinates></Point></Placemark>
<Placemark><name>Dealul Neamțului</name><description>Nume: Dealul Neamțului, Tip: neamț, Nivel: 4, Județ: Dambovita, Formă: Deal, ID: 14177 <br /><b>Variante</b><br />Nume: Dealul Neamțului, Hartă: PDT, Limbă: Limba română</description><Point><coordinates>25.221305,44.786020,0</coordinates></Point></Placemark>
<Placemark><name>Poiana de la Coada Neamțului</name><description>Nume: Poiana de la Coada Neamțului, Tip: neamț, Nivel: 4, Județ: Dambovita, Formă: Poiană, ID: 11072, ID Părinte: 11073 <br /><b>Variante</b><br />Nume: Poiana de la Coada Neamțului, Hartă: PDT, Limbă: Limba română</description><Point><coordinates>25.340392,44.842692,0</coordinates></Point></Placemark>
<Placemark><LineString id="11072_11073"><tessellate>1</tessellate><coordinates>25.340392,44.842692,0.
25.343516,44.841428,0</coordinates></LineString><Style><LineStyle><width>3</width></LineStyle></Style></Placemark>
<Placemark><name>Valea Neamțului</name><description>Nume: Valea Neamțului, Tip: neamț, Nivel: 4, Județ: Dambovita, Formă: Vale, ID: 8378 <br /><b>Variante</b><br />Nume: Valea Neamțului, Hartă: PDT, Limbă: Limba română</description><Point><coordinates>25.387800,45.050682,0</coordinates></Point></Placemark>
<Placemark><name>Valea Neamțului</name><description>Nume: Valea Neamțului, Tip: neamț, Nivel: 4, Județ: Dambovita, Formă: Vale, ID: 11073 <br /><b>Variante</b><br />Nume: Valea Neamțului, Hartă: PDT, Limbă: Limba română</description><Point><coordinates>25.343516,44.841428,0</coordinates></Point></Placemark>
<Placemark><name>Fântâna de la Podul Neamțului</name><description>Nume: Fântâna de la Podul Neamțului, Tip: neamț, Nivel: 4, Județ: Dolj, Formă: Altele, ID: 8099 <br /><b>Variante</b><br />Nume: Fântâna de la Podul Neamțului, Hartă: PDT, Limbă: Limba română</description><Point><coordinates>23.515889,44.144023,0</coordinates></Point></Placemark>
<Placemark><name>Grindul Neamțului</name><description>Nume: Grindul Neamțului, Tip: neamț, Nivel: 4, Județ: Dolj, Formă: Apă-deal-câmpie, ID: 3027 <br /><b>Variante</b><br />Nume: Grindul Neamțului, Hartă: Geomil 25000, Limbă: Limba română</description><Point><coordinates>23.917412,43.777967,0</coordinates></Point></Placemark>
<Placemark><name>Măgura Neamțului</name><description>Nume: Măgura Neamțului, Tip: neamț, Nivel: 4, Județ: Dolj, Formă: Înălțime, ID: 7734 <br /><b>Variante</b><br />Nume: Măgura Neamțului, Hartă: PDT, Limbă: Limba română</description><Point><coordinates>24.190242,44.185185,0</coordinates></Point></Placemark>
<Placemark><name>Piscul Neamțului</name><description>Nume: Piscul Neamțului, Tip: neamț, Nivel: 4, Județ: Dolj, Formă: Înălțime, ID: 3364 <br /><b>Variante</b><br />Nume: Piscul Neamțului, Hartă: PDT, Limbă: Limba română</description><Point><coordinates>23.636730,44.313313,0</coordinates></Point></Placemark>
<Placemark><name>Podul Neamțului</name><description>Nume: Podul Neamțului, Tip: neamț, Nivel: 4, Județ: Dolj, Formă: Altele, ID: 4656 <br /><b>Variante</b><br />Nume: Podul Neamțului, Hartă: PDT, Limbă: Limba română</description><Point><coordinates>23.328157,44.173495,0</coordinates></Point></Placemark>
<Placemark><name>Valea Neamțu</name><description>Nume: Valea Neamțu, Tip: neamț, Nivel: 4, Județ: Dolj, Formă: Vale, ID: 4694 <br /><b>Variante</b><br />Nume: Valea Neamțu, Hartă: PDT, Limbă: Limba română</description><Point><coordinates>23.642719,44.512241,0</coordinates></Point></Placemark>
<Placemark><name>Valea Neamțului</name><description>Nume: Valea Neamțului, Tip: neamț, Nivel: 4, Județ: Dolj, Formă: Vale, ID: 9338 <br /><b>Variante</b><br />Nume: Valea Neamțului, Hartă: PDT, Limbă: Limba română</description><Point><coordinates>23.995824,44.365463,0</coordinates></Point></Placemark>
<Placemark><name>Via Neamțului</name><description>Nume: Via Neamțului, Tip: neamț, Nivel: 4, Județ: Gorj, Formă: Altele, ID: 11007 <br /><b>Variante</b><br />Nume: Via Neamțului, Hartă: PDT, Limbă: Limba română</description><Point><coordinates>23.286737,44.866294,0</coordinates></Point></Placemark>
<Placemark><name>Muchia Neamțului</name><description>Nume: Muchia Neamțului, Tip: neamț, Nivel: 4, Județ: Hunedoara, Formă: Înălțime, ID: 9841 <br /><b>Variante</b><br />Nume: Muchia Neamțului, Hartă: Geomil 25000, Limbă: Limba română</description><Point><coordinates>23.303198,45.758929,0</coordinates></Point></Placemark>
<Placemark><name>Poiana Neamțu</name><description>Nume: Poiana Neamțu, Tip: neamț, Nivel: 4, Județ: Hunedoara, Formă: Poiană, ID: 11581 <br /><b>Variante</b><br />Nume: Poiana Neamțu, Hartă: Geomil 25000, Limbă: Limba română</description><Point><coordinates>22.544932,45.699244,0</coordinates></Point></Placemark>
<Placemark><name>Dealul Neamțul</name><description>Nume: Dealul Neamțul, Tip: neamț, Nivel: 4, Județ: Iasi, Formă: Deal, ID: 4855 <br /><b>Variante</b><br />Nume: Dealul Neamțul, Hartă: PDT, Limbă: Limba română</description><Point><coordinates>27.345724,47.316312,0</coordinates></Point></Placemark>
<Placemark><name>La moara Neamțului</name><description>Nume: La moara Neamțului, Tip: neamț, Nivel: 4, Județ: Ilfov, Formă: Altele, ID: 3750 <br /><b>Variante</b><br />Nume: La moara Neamțului, Hartă: PDT, Limbă: Limba română</description><Point><coordinates>25.863670,44.393451,0</coordinates></Point></Placemark>
<Placemark><name>Piciorul Neamțului</name><description>Nume: Piciorul Neamțului, Tip: neamț, Nivel: 4, Județ: Maramures, Formă: Înălțime, ID: 8226 <br /><b>Variante</b><br />Nume: Piciorul Neamțului, Hartă: PDT, Limbă: Limba română</description><Point><coordinates>23.431423,47.687685,0</coordinates></Point></Placemark>
<Placemark><name>Cracu Neamțului</name><description>Nume: Cracu Neamțului, Tip: neamț, Nivel: 4, Județ: Mehedinti, Formă: Înălțime, ID: 5731, ID Părinte: 830 <br /><b>Variante</b><br />Nume: Cracu Neamțului, Hartă: Geomil 25000, Limbă: Limba română</description><Point><coordinates>22.329343,44.753490,0</coordinates></Point></Placemark>
<Placemark><LineString id="5731_830"><tessellate>1</tessellate><coordinates>22.329343,44.753490,0.
22.319044,44.753785,0</coordinates></LineString><Style><LineStyle><width>3</width></LineStyle></Style></Placemark>
<Placemark><name>Neamțul</name><description>Nume: Neamțul, Tip: neamț, Nivel: 4, Județ: Mehedinti, Formă: Înălțime, ID: 8494 <br /><b>Variante</b><br />Nume: Neamțul, Hartă: PDT, Limbă: Limba română<br />Nume: Vârfu Neamțului, Hartă: Geomil 25000, Limbă: Limba română</description><Point><coordinates>22.261534,44.694535,0</coordinates></Point></Placemark>
<Placemark><name>Ogașu Neamțului</name><description>Nume: Ogașu Neamțului, Tip: neamț, Nivel: 4, Județ: Mehedinti, Formă: Vale, ID: 830 <br /><b>Variante</b><br />Nume: Ogașu Neamțului, Hartă: Geomil 25000, Limbă: Limba română</description><Point><coordinates>22.319044,44.753785,0</coordinates></Point></Placemark>
<Placemark><name>Pârâu Neamțului</name><description>Nume: Pârâu Neamțului, Tip: neamț, Nivel: 4, Județ: Mehedinti, Formă: Vale, ID: 8495, ID Părinte: 8494 <br /><b>Variante</b><br />Nume: Pârâu Neamțului, Hartă: PDT, Limbă: Limba română</description><Point><coordinates>22.251002,44.694432,0</coordinates></Point></Placemark>
<Placemark><LineString id="8495_8494"><tessellate>1</tessellate><coordinates>22.251002,44.694432,0.
22.261534,44.694535,0</coordinates></LineString><Style><LineStyle><width>3</width></LineStyle></Style></Placemark>
<Placemark><name>Dealul Groapa Neamțului</name><description>Nume: Dealul Groapa Neamțului, Tip: neamț, Nivel: 4, Județ: Mures, Formă: Deal, ID: 4345 <br /><b>Variante</b><br />Nume: Dealul Groapa Neamțului, Hartă: Geomil 25000, Limbă: Limba română</description><Point><coordinates>24.651157,46.536051,0</coordinates></Point></Placemark>
<Placemark><name>Dealul Neamțului</name><description>Nume: Dealul Neamțului, Tip: neamț, Nivel: 4, Județ: Mures, Formă: Deal, ID: 5403 <br /><b>Variante</b><br />Nume: Dealul Neamțului, Hartă: Geomil 25000, Limbă: Limba română</description><Point><coordinates>24.957125,46.961620,0</coordinates></Point></Placemark>
<Placemark><name>Dealul Neamțului</name><description>Nume: Dealul Neamțului, Tip: neamț, Nivel: 4, Județ: Mures, Formă: Deal, ID: 10007 <br /><b>Variante</b><br />Nume: Dealul Neamțului, Hartă: PDT, Limbă: Limba română</description><Point><coordinates>25.051014,46.912712,0</coordinates></Point></Placemark>
<Placemark><name>La Padura Neamzului</name><description>Nume: La Padura Neamzului, Tip: neamț, Nivel: 4, Județ: Mures, Formă: Pădure, ID: 14493 <br /><b>Variante</b><br />Nume: La Padura Neamzului, Hartă: Transilvania (1769-1773), Limbă: Limba română</description><Point><coordinates>24.074341,46.534653,0</coordinates></Point></Placemark>
<Placemark><name>Piatra Neamțului</name><description>Nume: Piatra Neamțului, Tip: neamț, Nivel: 4, Județ: Mures, Formă: Înălțime, ID: 11747 <br /><b>Variante</b><br />Nume: Piatra Neamțului, Hartă: PDT, Limbă: Limba română</description><Point><coordinates>25.032045,47.017619,0</coordinates></Point></Placemark>
<Placemark><name>Dealul Neamțului</name><description>Nume: Dealul Neamțului, Tip: neamț, Nivel: 4, Județ: Neamt, Formă: Deal, ID: 7394, ID Părinte: 7393 <br /><b>Variante</b><br />Nume: Dealul Neamțului, Hartă: Geomil 25000, Limbă: Limba română</description><Point><coordinates>26.332969,47.225631,0</coordinates></Point></Placemark>
<Placemark><LineString id="7394_7393"><tessellate>1</tessellate><coordinates>26.332969,47.225631,0.
26.363879,47.206350,0</coordinates></LineString><Style><LineStyle><width>3</width></LineStyle></Style></Placemark>
<Placemark><name>Neamțul</name><description>Nume: Neamțul, Tip: neamț, Nivel: 4, Județ: Neamt, Formă: Vale, ID: 7395, ID Părinte: 7393 <br /><b>Variante</b><br />Nume: Neamțul, Hartă: Geomil 25000, Limbă: Limba română</description><Point><coordinates>26.322399,47.220485,0</coordinates></Point></Placemark>
<Placemark><LineString id="7395_7393"><tessellate>1</tessellate><coordinates>26.322399,47.220485,0.
26.363879,47.206350,0</coordinates></LineString><Style><LineStyle><width>3</width></LineStyle></Style></Placemark>
<Placemark><name>Târgu-Neamț</name><description>Nume: Târgu-Neamț, Tip: neamț, Nivel: 4, Județ: Neamt, Formă: Localitate, ID: 7393 <br /><b>Variante</b><br />Nume: Târgu-Neamț, Hartă: Geomil 25000, Limbă: Limba română</description><Point><coordinates>26.363879,47.206350,0</coordinates></Point></Placemark>
<Placemark><name>Conacul Neamțului</name><description>Nume: Conacul Neamțului, Tip: neamț, Nivel: 4, Județ: Olt, Formă: Altele, ID: 7738 <br /><b>Variante</b><br />Nume: Conacul Neamțului, Hartă: PDT, Limbă: Limba română</description><Point><coordinates>24.215556,44.111374,0</coordinates></Point></Placemark>
<Placemark><name>Dealul Neamțului</name><description>Nume: Dealul Neamțului, Tip: neamț, Nivel: 4, Județ: Olt, Formă: Deal, ID: 3033 <br /><b>Variante</b><br />Nume: Dealul Neamțului, Hartă: Geomil 25000, Limbă: Limba română</description><Point><coordinates>24.408637,43.894596,0</coordinates></Point></Placemark>
<Placemark><name>Muntele Neamțului</name><description>Nume: Muntele Neamțului, Tip: neamț, Nivel: 4, Județ: Prahova, Formă: Înălțime, ID: 1554 <br /><b>Variante</b><br />Nume: Muntele Neamțului, Hartă: Geomil 25000, Limbă: Limba română</description><Point><coordinates>25.663723,45.476560,0</coordinates></Point></Placemark>
<Placemark><name>Valea Neamțului</name><description>Nume: Valea Neamțului, Tip: neamț, Nivel: 4, Județ: Prahova, Formă: Vale, ID: 1555, ID Părinte: 1554 <br /><b>Variante</b><br />Nume: Valea Neamțului, Hartă: Geomil 25000, Limbă: Limba română</description><Point><coordinates>25.683324,45.482554,0</coordinates></Point></Placemark>
<Placemark><LineString id="1555_1554"><tessellate>1</tessellate><coordinates>25.683324,45.482554,0.
25.663723,45.476560,0</coordinates></LineString><Style><LineStyle><width>3</width></LineStyle></Style></Placemark>
<Placemark><name>Vârful Neamțului</name><description>Nume: Vârful Neamțului, Tip: neamț, Nivel: 4, Județ: Prahova, Formă: Înălțime, ID: 1559, ID Părinte: 1554 <br /><b>Variante</b><br />Nume: Vârful Neamțului, Hartă: Geomil 25000, Limbă: Limba română</description><Point><coordinates>25.693730,45.468836,0</coordinates></Point></Placemark>
<Placemark><LineString id="1559_1554"><tessellate>1</tessellate><coordinates>25.693730,45.468836,0.
25.663723,45.476560,0</coordinates></LineString><Style><LineStyle><width>3</width></LineStyle></Style></Placemark>
<Placemark><name>Vârful Neamțului</name><description>Nume: Vârful Neamțului, Tip: neamț, Nivel: 4, Județ: Prahova, Formă: Înălțime, ID: 2828 <br /><b>Variante</b><br />Nume: Vârful Neamțului, Hartă: Geomil 25000, Limbă: Limba română</description><Point><coordinates>25.926837,45.153570,0</coordinates></Point></Placemark>
<Placemark><name>Dosu Neamțului</name><description>Nume: Dosu Neamțului, Tip: neamț, Nivel: 4, Județ: Satu Mare, Formă: Înălțime, ID: 4422 <br /><b>Variante</b><br />Nume: Dosu Neamțului, Hartă: Geomil 25000, Limbă: Limba română</description><Point><coordinates>23.178157,47.606678,0</coordinates></Point></Placemark>
<Placemark><name>Lazul Neamțului</name><description>Nume: Lazul Neamțului, Tip: neamț, Nivel: 4, Județ: Sibiu, Formă: Altele, ID: 1898 <br /><b>Variante</b><br />Nume: Lazul Neamțului, Hartă: Geomil 25000, Limbă: Limba română<br />Nume: Lazul Neamțului, Hartă: PDT, Limbă: Limba română</description><Point><coordinates>24.500963,46.140882,0</coordinates></Point></Placemark>
<Placemark><name>Neamțul</name><description>Nume: Neamțul, Tip: neamț, Nivel: 4, Județ: Sibiu, Formă: Altele, ID: 11244 <br /><b>Variante</b><br />Nume: Neamțul, Hartă: Geomil 25000, Limbă: Limba română</description><Point><coordinates>24.556377,46.120690,0</coordinates></Point></Placemark>
<Placemark><name>Poaina Neamțului</name><description>Nume: Poaina Neamțului, Tip: neamț, Nivel: 4, Județ: Sibiu, Formă: Poiană, ID: 1468 <br /><b>Variante</b><br />Nume: Poaina Neamțului, Hartă: Geomil 25000, Limbă: Limba română</description><Point><coordinates>24.472913,45.638169,0</coordinates></Point></Placemark>
<Placemark><name>Dealul Neamțului</name><description>Nume: Dealul Neamțului, Tip: neamț, Nivel: 4, Județ: Suceava, Formă: Deal, ID: 1796 <br /><b>Variante</b><br />Nume: Dealul Neamțului, Hartă: Geomil 25000, Limbă: Limba română</description><Point><coordinates>26.421490,47.711648,0</coordinates></Point></Placemark>
<Placemark><name>Gorapa Neamțului</name><description>Nume: Gorapa Neamțului, Tip: neamț, Nivel: 4, Județ: Suceava, Formă: Altele, ID: 6316 <br /><b>Variante</b><br />Nume: Gorapa Neamțului, Hartă: Geomil 25000, Limbă: Limba română</description><Point><coordinates>25.768044,47.798938,0</coordinates></Point></Placemark>
<Placemark><name>La Neamț</name><description>Nume: La Neamț, Tip: neamț, Nivel: 4, Județ: Suceava, Formă: Altele, ID: 1797, ID Părinte: 1796 <br /><b>Variante</b><br />Nume: La Neamț, Hartă: Geomil 25000, Limbă: Limba română</description><Point><coordinates>26.416965,47.708567,0</coordinates></Point></Placemark>
<Placemark><LineString id="1797_1796"><tessellate>1</tessellate><coordinates>26.416965,47.708567,0.
26.421490,47.711648,0</coordinates></LineString><Style><LineStyle><width>3</width></LineStyle></Style></Placemark>
<Placemark><name>Neamțul</name><description>Nume: Neamțul, Tip: neamț, Nivel: 4, Județ: Suceava, Formă: Vale, ID: 6317, ID Părinte: 6316 <br /><b>Variante</b><br />Nume: Neamțul, Hartă: Geomil 25000, Limbă: Limba română</description><Point><coordinates>25.758041,47.801296,0</coordinates></Point></Placemark>
<Placemark><LineString id="6317_6316"><tessellate>1</tessellate><coordinates>25.758041,47.801296,0.
25.768044,47.798938,0</coordinates></LineString><Style><LineStyle><width>3</width></LineStyle></Style></Placemark>
<Placemark><name>Neamțul</name><description>Nume: Neamțul, Tip: neamț, Nivel: 4, Județ: Suceava, Formă: Vale, ID: 12917 <br /><b>Variante</b><br />Nume: Neamțul, Hartă: Geomil 25000, Limbă: Limba română</description><Point><coordinates>25.785642,47.696872,0</coordinates></Point></Placemark>
<Placemark><name>Picioarul Neamțului</name><description>Nume: Picioarul Neamțului, Tip: neamț, Nivel: 4, Județ: Suceava, Formă: Înălțime, ID: 10735 <br /><b>Variante</b><br />Nume: Picioarul Neamțului, Hartă: Imperiul Habsburgic (1887), Limbă: Limba română</description><Point><coordinates>25.762580,47.328714,0</coordinates></Point></Placemark>
<Placemark><name>Niamț</name><description>Nume: Niamț, Tip: neamț, Nivel: 4, Județ: Teleorman, Formă: Localitate, ID: 5777 <br /><b>Variante</b><br />Nume: Niamț, Hartă: Austriacă, Limbă: Limba română</description><Point><coordinates>25.480392,44.289108,0</coordinates></Point></Placemark>
<Placemark><name>Dealu Neamț</name><description>Nume: Dealu Neamț, Tip: neamț, Nivel: 4, Județ: Timis, Formă: Deal, ID: 12834 <br /><b>Variante</b><br />Nume: Dealu Neamț, Hartă: Geomil 25000, Limbă: Limba română</description><Point><coordinates>21.662062,45.790145,0</coordinates></Point></Placemark>
<Placemark><name>Dialu Niamtzului</name><description>Nume: Dialu Niamtzului, Tip: neamț, Nivel: 4, Județ: Timis, Formă: Deal, ID: 12329 <br /><b>Variante</b><br />Nume: Dialu Niamtzului, Hartă: Ungară 1869, Limbă: Limba română</description><Point><coordinates>21.798667,45.911917,0</coordinates></Point></Placemark>
<Placemark><name>Groapa Neamțului</name><description>Nume: Groapa Neamțului, Tip: neamț, Nivel: 4, Județ: Timis, Formă: Altele, ID: 11353 <br /><b>Variante</b><br />Nume: Groapa Neamțului, Hartă: Geomil 25000, Limbă: Limba română</description><Point><coordinates>20.953345,45.788302,0</coordinates></Point></Placemark>
<Placemark><name>Ogașul Neamțului</name><description>Nume: Ogașul Neamțului, Tip: neamț, Nivel: 4, Județ: Timis, Formă: Vale, ID: 6314 <br /><b>Variante</b><br />Nume: Ogașul Neamțului, Hartă: PDT, Limbă: Limba română</description><Point><coordinates>21.401480,45.965766,0</coordinates></Point></Placemark>
<Placemark><name>V. Niamtzului</name><description>Nume: V. Niamtzului, Tip: neamț, Nivel: 4, Județ: Timis, Formă: Vale, ID: 12330, ID Părinte: 12329 <br /><b>Variante</b><br />Nume: V. Niamtzului, Hartă: Ungară 1869, Limbă: Limba română</description><Point><coordinates>21.794729,45.925811,0</coordinates></Point></Placemark>
<Placemark><LineString id="12330_12329"><tessellate>1</tessellate><coordinates>21.794729,45.925811,0.
21.798667,45.911917,0</coordinates></LineString><Style><LineStyle><width>3</width></LineStyle></Style></Placemark>
<Placemark><name>Valea Neamțului</name><description>Nume: Valea Neamțului, Tip: neamț, Nivel: 4, Județ: Timis, Formă: Vale, ID: 10003 <br /><b>Variante</b><br />Nume: Valea Neamțului, Hartă: PDT, Limbă: Limba română</description><Point><coordinates>21.021435,45.906866,0</coordinates></Point></Placemark>
<Placemark><name>Valea Neamțului</name><description>Nume: Valea Neamțului, Tip: neamț, Nivel: 4, Județ: Tulcea, Formă: Vale, ID: 11589 <br /><b>Variante</b><br />Nume: Valea Neamțului, Hartă: Geomil 25000, Limbă: Limba română</description><Point><coordinates>28.307785,44.939532,0</coordinates></Point></Placemark>
<Placemark><name>Piscul Neamțului</name><description>Nume: Piscul Neamțului, Tip: neamț, Nivel: 4, Județ: Valcea, Formă: Înălțime, ID: 1446 <br /><b>Variante</b><br />Nume: Piscul Neamțului, Hartă: Geomil 25000, Limbă: Limba română</description><Point><coordinates>24.426082,45.144226,0</coordinates></Point></Placemark>
<Placemark><name>Coasta Neamțului</name><description>Nume: Coasta Neamțului, Tip: neamț, Nivel: 4, Județ: Vaslui, Formă: Înălțime, ID: 11435 <br /><b>Variante</b><br />Nume: Coasta Neamțului, Hartă: Geomil 25000, Limbă: Limba română</description><Point><coordinates>27.830794,46.239252,0</coordinates></Point></Placemark>
<Placemark><name>Valea Podul Neamțului</name><description>Nume: Valea Podul Neamțului, Tip: neamț, Nivel: 4, Județ: Vaslui, Formă: Vale, ID: 1673 <br /><b>Variante</b><br />Nume: Valea Podul Neamțului, Hartă: Geomil 25000, Limbă: Limba română<br />Nume: Valea Podul Neamțului, Hartă: PDT, Limbă: Limba română</description><Point><coordinates>27.639060,46.577078,0</coordinates></Point></Placemark>
<Placemark><name>La Momâia Neamțului</name><description>Nume: La Momâia Neamțului, Tip: neamț, Nivel: 4, Județ: Vrancea, Formă: Înălțime, ID: 9236 <br /><b>Variante</b><br />Nume: La Momâia Neamțului, Hartă: PDT, Limbă: Limba română</description><Point><coordinates>27.014877,45.758302,0</coordinates></Point></Placemark>
<Placemark><name>Momâia Neamțului</name><description>Nume: Momâia Neamțului, Tip: neamț, Nivel: 4, Județ: Vrancea, Formă: Înălțime, ID: 12996 <br /><b>Variante</b><br />Nume: Momâia Neamțului, Hartă: Geomil 25000, Limbă: Limba română</description><Point><coordinates>26.921132,45.572852,0</coordinates></Point></Placemark></Document></kml>