<?xml version="1.0" encoding="UTF-8"?><kml xmlns="http://www.opengis.net/kml/2.2"><Document><Placemark><name>Colțul Cioranului</name><description>Nume: Colțul Cioranului, Tip: cioran, Nivel: 3, Județ: Alba, Formă: Înălțime, ID: 15737 <br /><b>Variante</b><br />Nume: Colțul Cioranului, Hartă: ANCPI, Limbă: Limba română</description><Point><coordinates>23.307871,46.325809,0</coordinates></Point></Placemark>
<Placemark><name>Valea Cioranului</name><description>Nume: Valea Cioranului, Tip: cioran, Nivel: 3, Județ: Alba, Formă: Vale, ID: 15738, ID Părinte: 15737 <br /><b>Variante</b><br />Nume: Valea Cioranului, Hartă: ANCPI, Limbă: Limba română</description><Point><coordinates>23.290197,46.319204,0</coordinates></Point></Placemark>
<Placemark><LineString id="15738_15737"><tessellate>1</tessellate><coordinates>23.290197,46.319204,0.
23.307871,46.325809,0</coordinates></LineString><Style><LineStyle><width>3</width></LineStyle></Style></Placemark>
<Placemark><name>Cioranul</name><description>Nume: Cioranul, Tip: cioran, Nivel: 3, Județ: Dambovita, Formă: Localitate, ID: 15751 <br /><b>Variante</b><br />Nume: Cioranul, Hartă: PDT, Limbă: Limba română</description><Point><coordinates>25.555907,44.677876,0</coordinates></Point></Placemark>
<Placemark><name>Dealul Cioranului</name><description>Nume: Dealul Cioranului, Tip: cioran, Nivel: 3, Județ: Dolj, Formă: Deal, ID: 15788 <br /><b>Variante</b><br />Nume: Dealul Cioranului, Hartă: ANCPI, Limbă: Limba română</description><Point><coordinates>23.550646,44.567270,0</coordinates></Point></Placemark>
<Placemark><name>Cioranu</name><description>Nume: Cioranu, Tip: cioran, Nivel: 3, Județ: Giurgiu, Formă: Altele, ID: 15434 <br /><b>Variante</b><br />Nume: Cioranu, Hartă: Austriacă, Limbă: Limba română</description><Point><coordinates>26.160930,43.986012,0</coordinates></Point></Placemark>
<Placemark><name>Cioranului B.</name><description>Nume: Cioranului B., Tip: cioran, Nivel: 3, Județ: Giurgiu, Formă: Apă-deal-câmpie, ID: 14759 <br /><b>Variante</b><br />Nume: Cioranului B., Hartă: Austriacă, Limbă: Limba română</description><Point><coordinates>26.170697,44.021976,0</coordinates></Point></Placemark>
<Placemark><name>Coasta Cioranului</name><description>Nume: Coasta Cioranului, Tip: cioran, Nivel: 3, Județ: Mures, Formă: Înălțime, ID: 15297, ID Părinte: 15298 <br /><b>Variante</b><br />Nume: Coasta Cioranului, Hartă: ANCPI, Limbă: Limba română</description><Point><coordinates>24.715826,46.122612,0</coordinates></Point></Placemark>
<Placemark><LineString id="15297_15298"><tessellate>1</tessellate><coordinates>24.715826,46.122612,0.
24.734852,46.120454,0</coordinates></LineString><Style><LineStyle><width>3</width></LineStyle></Style></Placemark>
<Placemark><name>Dealul Cioranului</name><description>Nume: Dealul Cioranului, Tip: cioran, Nivel: 3, Județ: Mures, Formă: Deal, ID: 15298 <br /><b>Variante</b><br />Nume: Dealul Cioranului, Hartă: ANCPI, Limbă: Limba română</description><Point><coordinates>24.734852,46.120454,0</coordinates></Point></Placemark>
<Placemark><name>Dealul Cioran</name><description>Nume: Dealul Cioran, Tip: cioran, Nivel: 3, Județ: Vaslui, Formă: Deal, ID: 14741 <br /><b>Variante</b><br />Nume: Dealul Cioran, Hartă: ANCPI, Limbă: Limba română</description><Point><coordinates>27.800147,46.494560,0</coordinates></Point></Placemark></Document></kml>