<?xml version="1.0" encoding="UTF-8"?><kml xmlns="http://www.opengis.net/kml/2.2"><Document><Placemark><name>Colțul Cioranului</name><description>Nume: Colțul Cioranului, Tip: cioran, Nivel: 3, Județ: Alba, Formă: Înălțime, ID: 15737 <br /><b>Variante</b><br />Nume: Colțul Cioranului, Hartă: ANCPI, Limbă: Limba română</description><Point><coordinates>23.307871,46.325809,0</coordinates></Point></Placemark>
<Placemark><name>Cioranu</name><description>Nume: Cioranu, Tip: cioran, Nivel: 3, Județ: Giurgiu, Formă: Altele, ID: 15434 <br /><b>Variante</b><br />Nume: Cioranu, Hartă: Austriacă, Limbă: Limba română</description><Point><coordinates>26.160930,43.986012,0</coordinates></Point></Placemark>
<Placemark><name>Cioranului B.</name><description>Nume: Cioranului B., Tip: cioran, Nivel: 3, Județ: Giurgiu, Formă: Apă-deal-câmpie, ID: 14759 <br /><b>Variante</b><br />Nume: Cioranului B., Hartă: Austriacă, Limbă: Limba română</description><Point><coordinates>26.170697,44.021976,0</coordinates></Point></Placemark>
<Placemark><name>Dealul Cioranului</name><description>Nume: Dealul Cioranului, Tip: cioran, Nivel: 3, Județ: Mures, Formă: Deal, ID: 15298 <br /><b>Variante</b><br />Nume: Dealul Cioranului, Hartă: ANCPI, Limbă: Limba română</description><Point><coordinates>24.734852,46.120454,0</coordinates></Point></Placemark>
<Placemark><name>Dealul Cioran</name><description>Nume: Dealul Cioran, Tip: cioran, Nivel: 3, Județ: Vaslui, Formă: Deal, ID: 14741 <br /><b>Variante</b><br />Nume: Dealul Cioran, Hartă: ANCPI, Limbă: Limba română</description><Point><coordinates>27.800147,46.494560,0</coordinates></Point></Placemark></Document></kml>