<?xml version="1.0" encoding="UTF-8"?><kml xmlns="http://www.opengis.net/kml/2.2"><Document><Placemark><name>Valea Iepăriei</name><description>Nume: Valea Iepăriei, Tip: iepărie, Nivel: 4, Județ: Suceava, Formă: Vale, ID: 2247 <br /><b>Variante</b><br />Nume: Valea Iepăriei, Hartă: Geomil 25000, Limbă: Limba română</description><Point><coordinates>26.501880,47.341834</coordinates></Point></Placemark>
<Placemark><name>Podișul Iepăriei</name><description>Nume: Podișul Iepăriei, Tip: iepărie, Nivel: 4, Județ: Botosani, Formă: Altele, ID: 2373 <br /><b>Variante</b><br />Nume: Podișul Iepăriei, Hartă: Geomil 25000, Limbă: Limba română</description><Point><coordinates>27.197332,47.682199</coordinates></Point></Placemark>
<Placemark><name>Iazul Iepăriei</name><description>Nume: Iazul Iepăriei, Tip: iepărie, Nivel: 4, Județ: Botosani, Formă: Apă-deal-câmpie, ID: 2378 <br /><b>Variante</b><br />Nume: Iazul Iepăriei, Hartă: Geomil 25000, Limbă: Limba română</description><Point><coordinates>27.034237,47.775987</coordinates></Point></Placemark>
<Placemark><name>La Iepărie</name><description>Nume: La Iepărie, Tip: iepărie, Nivel: 4, Județ: Iasi, Formă: Altele, ID: 4864 <br /><b>Variante</b><br />Nume: La Iepărie, Hartă: PDT, Limbă: Limba română</description><Point><coordinates>27.295871,47.415444</coordinates></Point></Placemark>
<Placemark><name>Poiana Iepăriei</name><description>Nume: Poiana Iepăriei, Tip: iepărie, Nivel: 4, Județ: Botosani, Formă: Poiană, ID: 4901 <br /><b>Variante</b><br />Nume: Poiana Iepăriei, Hartă: PDT, Limbă: Limba română</description><Point><coordinates>26.244495,48.019241</coordinates></Point></Placemark>
<Placemark><name>Dealul Iepăriei</name><description>Nume: Dealul Iepăriei, Tip: iepărie, Nivel: 4, Județ: Botosani, Formă: Deal, ID: 4915 <br /><b>Variante</b><br />Nume: Dealul Iepăriei, Hartă: PDT, Limbă: Limba română<br />Nume: Iepăria, Hartă: Geomil 25000, Limbă: Limba română</description><Point><coordinates>26.571962,47.841550</coordinates></Point></Placemark></Document></kml>