<?xml version="1.0" encoding="UTF-8"?><kml xmlns="http://www.opengis.net/kml/2.2"><Document><Placemark><name>La Buda Jidanului</name><description>Nume: La Buda Jidanului, Tip: jidan, Nivel: 3, Județ: Bacau, Formă: Altele, ID: 11304 <br /><b>Variante</b><br />Nume: La Buda Jidanului, Hartă: Geomil 25000, Limbă: Limba română</description><Point><coordinates>26.768629,46.180734,0</coordinates></Point></Placemark>
<Placemark><name>Dealul Jidanului</name><description>Nume: Dealul Jidanului, Tip: jidan, Nivel: 3, Județ: Botosani, Formă: Deal, ID: 2338 <br /><b>Variante</b><br />Nume: Dealul Jidanului, Hartă: Geomil 25000, Limbă: Limba română</description><Point><coordinates>26.624950,47.891311,0</coordinates></Point></Placemark>
<Placemark><name>Movila Jidanului</name><description>Nume: Movila Jidanului, Tip: jidan, Nivel: 3, Județ: Botosani, Formă: Înălțime, ID: 9581 <br /><b>Variante</b><br />Nume: Movila Jidanului, Hartă: Moldova (1892-1898), Limbă: Limba română</description><Point><coordinates>26.499679,47.892073,0</coordinates></Point></Placemark>
<Placemark><name>Valea Jidanului</name><description>Nume: Valea Jidanului, Tip: jidan, Nivel: 3, Județ: Botosani, Formă: Vale, ID: 2339, ID Părinte: 2338 <br /><b>Variante</b><br />Nume: Valea Jidanului, Hartă: Geomil 25000, Limbă: Limba română</description><Point><coordinates>26.628257,47.887984,0</coordinates></Point></Placemark>
<Placemark><LineString id="2339_2338"><tessellate>1</tessellate><coordinates>26.628257,47.887984,0.
26.624950,47.891311,0</coordinates></LineString><Style><LineStyle><width>3</width></LineStyle></Style></Placemark>
<Placemark><name>Valea Jidanului</name><description>Nume: Valea Jidanului, Tip: jidan, Nivel: 3, Județ: Botosani, Formă: Vale, ID: 2349 <br /><b>Variante</b><br />Nume: Valea Jidanului, Hartă: Geomil 25000, Limbă: Limba română</description><Point><coordinates>26.532571,47.869984,0</coordinates></Point></Placemark>
<Placemark><name>Movila Jidanului</name><description>Nume: Movila Jidanului, Tip: jidan, Nivel: 3, Județ: Buzau, Formă: Înălțime, ID: 8722 <br /><b>Variante</b><br />Nume: Movila Jidanului, Hartă: PDT, Limbă: Limba română</description><Point><coordinates>27.170906,45.315891,0</coordinates></Point></Placemark>
<Placemark><name>Cârșia Jidanului</name><description>Nume: Cârșia Jidanului, Tip: jidan, Nivel: 3, Județ: Caras Severin, Formă: Altele, ID: 8536 <br /><b>Variante</b><br />Nume: Cârșia Jidanului, Hartă: PDT, Limbă: Limba română</description><Point><coordinates>21.805687,44.946488,0</coordinates></Point></Placemark>
<Placemark><name>Pârâu lui Jidanu</name><description>Nume: Pârâu lui Jidanu, Tip: jidan, Nivel: 3, Județ: Caras Severin, Formă: Vale, ID: 6094 <br /><b>Variante</b><br />Nume: Pârâu lui Jidanu, Hartă: Geomil 25000, Limbă: Limba română</description><Point><coordinates>22.418550,45.384284,0</coordinates></Point></Placemark>
<Placemark><name>Pârâu Jidanului</name><description>Nume: Pârâu Jidanului, Tip: jidan, Nivel: 3, Județ: Gorj, Formă: Vale, ID: 5128 <br /><b>Variante</b><br />Nume: Pârâu Jidanului, Hartă: Geomil 25000, Limbă: Limba română</description><Point><coordinates>22.901965,45.264978,0</coordinates></Point></Placemark>
<Placemark><name>Valea Jidanului</name><description>Nume: Valea Jidanului, Tip: jidan, Nivel: 3, Județ: Harghita, Formă: Vale, ID: 7139 <br /><b>Variante</b><br />Nume: Valea Jidanului, Hartă: PDT, Limbă: Limba română</description><Point><coordinates>25.836712,46.946640,0</coordinates></Point></Placemark>
<Placemark><name>Dealul Jidanului</name><description>Nume: Dealul Jidanului, Tip: jidan, Nivel: 3, Județ: Iasi, Formă: Deal, ID: 2441 <br /><b>Variante</b><br />Nume: Dealul Jidanului, Hartă: Geomil 25000, Limbă: Limba română</description><Point><coordinates>27.071324,47.408603,0</coordinates></Point></Placemark>
<Placemark><name>Dealul Jidanului</name><description>Nume: Dealul Jidanului, Tip: jidan, Nivel: 3, Județ: Iasi, Formă: Deal, ID: 6641, ID Părinte: 6640 <br /><b>Variante</b><br />Nume: Dealul Jidanului, Hartă: PDT, Limbă: Limba română</description><Point><coordinates>27.167075,47.351224,0</coordinates></Point></Placemark>
<Placemark><LineString id="6641_6640"><tessellate>1</tessellate><coordinates>27.167075,47.351224,0.
27.175338,47.351397,0</coordinates></LineString><Style><LineStyle><width>3</width></LineStyle></Style></Placemark>
<Placemark><name>Hârtopul Jidanului</name><description>Nume: Hârtopul Jidanului, Tip: jidan, Nivel: 3, Județ: Iasi, Formă: Înălțime, ID: 6640 <br /><b>Variante</b><br />Nume: Hârtopul Jidanului, Hartă: PDT, Limbă: Limba română</description><Point><coordinates>27.175338,47.351397,0</coordinates></Point></Placemark>
<Placemark><name>Iazul Jidanului</name><description>Nume: Iazul Jidanului, Tip: jidan, Nivel: 3, Județ: Iasi, Formă: Apă-deal-câmpie, ID: 13621, ID Părinte: 2441 <br /><b>Variante</b><br />Nume: Iazul Jidanului, Hartă: PDT, Limbă: Limba română</description><Point><coordinates>27.058792,47.402604,0</coordinates></Point></Placemark>
<Placemark><LineString id="13621_2441"><tessellate>1</tessellate><coordinates>27.058792,47.402604,0.
27.071324,47.408603,0</coordinates></LineString><Style><LineStyle><width>3</width></LineStyle></Style></Placemark>
<Placemark><name>Lanu Jidanului</name><description>Nume: Lanu Jidanului, Tip: jidan, Nivel: 3, Județ: Iasi, Formă: Altele, ID: 4865 <br /><b>Variante</b><br />Nume: Lanu Jidanului, Hartă: PDT, Limbă: Limba română</description><Point><coordinates>27.304986,47.425062,0</coordinates></Point></Placemark>
<Placemark><name>Valea Bordeiu Jidanului</name><description>Nume: Valea Bordeiu Jidanului, Tip: jidan, Nivel: 3, Județ: Iasi, Formă: Vale, ID: 9561 <br /><b>Variante</b><br />Nume: Valea Bordeiu Jidanului, Hartă: Moldova (1892-1898), Limbă: Limba română</description><Point><coordinates>26.776880,47.460010,0</coordinates></Point></Placemark>
<Placemark><name>Cumea Jidanului</name><description>Nume: Cumea Jidanului, Tip: jidan, Nivel: 3, Județ: Neamt, Formă: Înălțime, ID: 1889 <br /><b>Variante</b><br />Nume: Cumea Jidanului, Hartă: Geomil 25000, Limbă: Limba română<br />Nume: Muntele Jidanului, Hartă: PDT, Limbă: Limba română</description><Point><coordinates>25.801854,46.871469,0</coordinates></Point></Placemark>
<Placemark><name>Pârâul Jidanului</name><description>Nume: Pârâul Jidanului, Tip: jidan, Nivel: 3, Județ: Neamt, Formă: Vale, ID: 9108 <br /><b>Variante</b><br />Nume: Pârâul Jidanului, Hartă: PDT, Limbă: Limba română</description><Point><coordinates>25.899711,47.035831,0</coordinates></Point></Placemark>
<Placemark><name>Pârâul Jidanului</name><description>Nume: Pârâul Jidanului, Tip: jidan, Nivel: 3, Județ: Suceava, Formă: Vale, ID: 9941 <br /><b>Variante</b><br />Nume: Pârâul Jidanului, Hartă: Moldova (1892-1898), Limbă: Limba română</description><Point><coordinates>25.254492,47.204074,0</coordinates></Point></Placemark>
<Placemark><name>Piciorul Jidanului</name><description>Nume: Piciorul Jidanului, Tip: jidan, Nivel: 3, Județ: Suceava, Formă: Înălțime, ID: 6449 <br /><b>Variante</b><br />Nume: Piciorul Jidanului, Hartă: PDT, Limbă: Limba română</description><Point><coordinates>25.614445,47.166537,0</coordinates></Point></Placemark>
<Placemark><name>Poiana la Stâna Jidanului</name><description>Nume: Poiana la Stâna Jidanului, Tip: jidan, Nivel: 3, Județ: Suceava, Formă: Poiană, ID: 6391 <br /><b>Variante</b><br />Nume: Poiana la Stâna Jidanului, Hartă: PDT, Limbă: Limba română</description><Point><coordinates>25.544381,47.345404,0</coordinates></Point></Placemark>
<Placemark><name>Poiana Jidoafcei</name><description>Nume: Poiana Jidoafcei, Tip: jidoafcă, Nivel: 4, Județ: Suceava, Formă: Poiană, ID: 6401 <br /><b>Variante</b><br />Nume: Poiana Jidoafcei, Hartă: PDT, Limbă: Limba română</description><Point><coordinates>25.689418,47.234339,0</coordinates></Point></Placemark>
<Placemark><name>Gârla Jidanului</name><description>Nume: Gârla Jidanului, Tip: jidan, Nivel: 3, Județ: Tulcea, Formă: Apă-deal-câmpie, ID: 12640 <br /><b>Variante</b><br />Nume: Gârla Jidanului, Hartă: British Maps (1944), Limbă: Limba română</description><Point><coordinates>29.316039,45.328958,0</coordinates></Point></Placemark>
<Placemark><name>Movila Jidanului</name><description>Nume: Movila Jidanului, Tip: jidan, Nivel: 3, Județ: Tulcea, Formă: Înălțime, ID: 6706 <br /><b>Variante</b><br />Nume: Movila Jidanului, Hartă: PDT, Limbă: Limba română</description><Point><coordinates>28.202978,44.931353,0</coordinates></Point></Placemark></Document></kml>