<?xml version="1.0" encoding="UTF-8"?><kml xmlns="http://www.opengis.net/kml/2.2"><Document><Placemark><name>Galați</name><description>Nume: Galați, Tip: galați, Nivel: 2, Județ: Alba, Formă: Localitate, ID: 11778 <br /><b>Variante</b><br />Nume: Galați, Hartă: Geomil 25000, Limbă: Limba română<br />Nume: Galatz, Hartă: Transilvania (1869-1870), Limbă: Limba română</description><Point><coordinates>23.292914,46.090557,0</coordinates></Point></Placemark>
<Placemark><name>Valea Galați</name><description>Nume: Valea Galați, Tip: galați, Nivel: 2, Județ: Alba, Formă: Vale, ID: 12823, ID Părinte: 11778 <br /><b>Variante</b><br />Nume: Valea Galați, Hartă: Imperiul Habsburgic (1887), Limbă: Limba română</description><Point><coordinates>23.305405,46.063523,0</coordinates></Point></Placemark>
<Placemark><LineString id="12823_11778"><tessellate>1</tessellate><coordinates>23.305405,46.063523,0.
23.292914,46.090557,0</coordinates></LineString><Style><LineStyle><width>3</width></LineStyle></Style></Placemark>
<Placemark><name>Gălățeanu</name><description>Nume: Gălățeanu, Tip: gălățeanu, Nivel: 3, Județ: Arges, Formă: Localitate, ID: 14687 <br /><b>Variante</b><br />Nume: Gălățeanu, Hartă: PDT, Limbă: Limba română</description><Point><coordinates>24.684102,44.806221,0</coordinates></Point></Placemark>
<Placemark><name>Galacza</name><description>Nume: Galacza, Tip: galaț, Nivel: 3, Județ: Bihor, Formă: Localitate, ID: 12140 <br /><b>Variante</b><br />Nume: Galacza, Hartă: Ungaria (1782–1785), Limbă: Limba maghiară</description><Point><coordinates>22.429819,46.987741,0</coordinates></Point></Placemark>
<Placemark><name>Izvorul Gălațului</name><description>Nume: Izvorul Gălațului, Tip: galaț, Nivel: 3, Județ: Bistrita Nasaud, Formă: Vale, ID: 6353, ID Părinte: 6352 <br /><b>Variante</b><br />Nume: Izvorul Gălațului, Hartă: PDT, Limbă: Limba română</description><Point><coordinates>24.770058,47.546443,0</coordinates></Point></Placemark>
<Placemark><LineString id="6353_6352"><tessellate>1</tessellate><coordinates>24.770058,47.546443,0.
24.812393,47.563402,0</coordinates></LineString><Style><LineStyle><width>3</width></LineStyle></Style></Placemark>
<Placemark><name>Vârful Galațului</name><description>Nume: Vârful Galațului, Tip: galaț, Nivel: 3, Județ: Bistrita Nasaud, Formă: Înălțime, ID: 6352 <br /><b>Variante</b><br />Nume: Vârful Galațului, Hartă: PDT, Limbă: Limba română</description><Point><coordinates>24.812393,47.563402,0</coordinates></Point></Placemark>
<Placemark><name>Dealul Galațiului</name><description>Nume: Dealul Galațiului, Tip: galați, Nivel: 2, Județ: Bistrita Nasaud, Formă: Deal, ID: 5490, ID Părinte: 5482 <br /><b>Variante</b><br />Nume: Dealul Galațiului, Hartă: PDT, Limbă: Limba română</description><Point><coordinates>24.410988,47.002654,0</coordinates></Point></Placemark>
<Placemark><LineString id="5490_5482"><tessellate>1</tessellate><coordinates>24.410988,47.002654,0.
24.420328,46.992930,0</coordinates></LineString><Style><LineStyle><width>3</width></LineStyle></Style></Placemark>
<Placemark><name>Galații Bistriței</name><description>Nume: Galații Bistriței, Tip: galați, Nivel: 2, Județ: Bistrita Nasaud, Formă: Localitate, ID: 5482 <br /><b>Variante</b><br />Nume: Galații Bistriței, Hartă: Geomil 25000, Limbă: Limba română</description><Point><coordinates>24.420328,46.992930,0</coordinates></Point></Placemark>
<Placemark><name>Pădurea Galați</name><description>Nume: Pădurea Galați, Tip: galați, Nivel: 2, Județ: Bistrita Nasaud, Formă: Pădure, ID: 5483, ID Părinte: 5482 <br /><b>Variante</b><br />Nume: Pădurea Galați, Hartă: Geomil 25000, Limbă: Limba română</description><Point><coordinates>24.433252,46.996555,0</coordinates></Point></Placemark>
<Placemark><LineString id="5483_5482"><tessellate>1</tessellate><coordinates>24.433252,46.996555,0.
24.420328,46.992930,0</coordinates></LineString><Style><LineStyle><width>3</width></LineStyle></Style></Placemark>
<Placemark><name>Șesul Galați</name><description>Nume: Șesul Galați, Tip: galați, Nivel: 2, Județ: Bistrita Nasaud, Formă: Câmp, ID: 5485, ID Părinte: 5482 <br /><b>Variante</b><br />Nume: Șesul Galați, Hartă: Geomil 25000, Limbă: Limba română</description><Point><coordinates>24.383416,47.004417,0</coordinates></Point></Placemark>
<Placemark><LineString id="5485_5482"><tessellate>1</tessellate><coordinates>24.383416,47.004417,0.
24.420328,46.992930,0</coordinates></LineString><Style><LineStyle><width>3</width></LineStyle></Style></Placemark>
<Placemark><name>Valea Galaților</name><description>Nume: Valea Galaților, Tip: galați, Nivel: 2, Județ: Bistrita Nasaud, Formă: Vale, ID: 9874 <br /><b>Variante</b><br />Nume: Valea Galaților, Hartă: PDT, Limbă: Limba română</description><Point><coordinates>24.662179,47.297896,0</coordinates></Point></Placemark>
<Placemark><name>Vârful Galați</name><description>Nume: Vârful Galați, Tip: galați, Nivel: 2, Județ: Bistrita Nasaud, Formă: Înălțime, ID: 5484, ID Părinte: 5482 <br /><b>Variante</b><br />Nume: Vârful Galați, Hartă: Geomil 25000, Limbă: Limba română</description><Point><coordinates>24.432636,47.003493,0</coordinates></Point></Placemark>
<Placemark><LineString id="5484_5482"><tessellate>1</tessellate><coordinates>24.432636,47.003493,0.
24.420328,46.992930,0</coordinates></LineString><Style><LineStyle><width>3</width></LineStyle></Style></Placemark>
<Placemark><name>Galați</name><description>Nume: Galați, Tip: galați, Nivel: 2, Județ: Botosani, Formă: Localitate, ID: 9579 <br /><b>Variante</b><br />Nume: Galați, Hartă: Moldova (1892-1898), Limbă: Limba română</description><Point><coordinates>26.308839,48.010937,0</coordinates></Point></Placemark>
<Placemark><name>Dealul Galați</name><description>Nume: Dealul Galați, Tip: galați, Nivel: 2, Județ: Brasov, Formă: Deal, ID: 2683, ID Părinte: 2681 <br /><b>Variante</b><br />Nume: Dealul Galați, Hartă: Geomil 25000, Limbă: Limba română</description><Point><coordinates>24.970568,45.864687,0</coordinates></Point></Placemark>
<Placemark><LineString id="2683_2681"><tessellate>1</tessellate><coordinates>24.970568,45.864687,0.
24.979580,45.855817,0</coordinates></LineString><Style><LineStyle><width>3</width></LineStyle></Style></Placemark>
<Placemark><name>Galați</name><description>Nume: Galați, Tip: galați, Nivel: 2, Județ: Brasov, Formă: Localitate, ID: 2681 <br /><b>Variante</b><br />Nume: Galați, Hartă: Geomil 25000, Limbă: Limba română</description><Point><coordinates>24.979580,45.855817,0</coordinates></Point></Placemark>
<Placemark><name>Valea Galați</name><description>Nume: Valea Galați, Tip: galați, Nivel: 2, Județ: Brasov, Formă: Vale, ID: 2682, ID Părinte: 2681 <br /><b>Variante</b><br />Nume: Valea Galați, Hartă: Geomil 25000, Limbă: Limba română</description><Point><coordinates>24.986326,45.862830,0</coordinates></Point></Placemark>
<Placemark><LineString id="2682_2681"><tessellate>1</tessellate><coordinates>24.986326,45.862830,0.
24.979580,45.855817,0</coordinates></LineString><Style><LineStyle><width>3</width></LineStyle></Style></Placemark>
<Placemark><name>Gălățui</name><description>Nume: Gălățui, Tip: galați, Nivel: 2, Județ: Calarasi, Formă: Localitate, ID: 3240, ID Părinte: 3239 <br /><b>Variante</b><br />Nume: Gălățui, Hartă: Geomil 25000, Limbă: Limba română</description><Point><coordinates>27.111614,44.261696,0</coordinates></Point></Placemark>
<Placemark><LineString id="3240_3239"><tessellate>1</tessellate><coordinates>27.111614,44.261696,0.
27.121550,44.228504,0</coordinates></LineString><Style><LineStyle><width>3</width></LineStyle></Style></Placemark>
<Placemark><name>Lacul Gălățui</name><description>Nume: Lacul Gălățui, Tip: galați, Nivel: 2, Județ: Calarasi, Formă: Lac, ID: 3239 <br /><b>Variante</b><br />Nume: Lacul Gălățui, Hartă: Geomil 25000, Limbă: Limba română</description><Point><coordinates>27.121550,44.228504,0</coordinates></Point></Placemark>
<Placemark><name>Galați</name><description>Nume: Galați, Tip: galați, Nivel: 2, Județ: Galati, Formă: Localitate, ID: 10903 <br /><b>Variante</b><br />Nume: Galați, Hartă: Geomil 25000, Limbă: Limba română<br />Nume: Galații, Hartă: Moldova (1892-1898), Limbă: Limba română</description><Point><coordinates>28.055192,45.435500,0</coordinates></Point></Placemark>
<Placemark><name>Galați</name><description>Nume: Galați, Tip: galați, Nivel: 2, Județ: Hunedoara, Formă: Localitate, ID: 12732 <br /><b>Variante</b><br />Nume: Galați, Hartă: Geomil 25000, Limbă: Limba română</description><Point><coordinates>23.063502,45.527180,0</coordinates></Point></Placemark></Document></kml>