<?xml version="1.0" encoding="UTF-8"?><kml xmlns="http://www.opengis.net/kml/2.2"><Document><Placemark><name>Galați</name><description>Nume: Galați, Tip: galați, Nivel: 2, Județ: Alba, Formă: Localitate, ID: 11778 <br /><b>Variante</b><br />Nume: Galați, Hartă: Geomil 25000, Limbă: Limba română<br />Nume: Galatz, Hartă: Transilvania (1869-1870), Limbă: Limba română</description><Point><coordinates>23.292914,46.090557,0</coordinates></Point></Placemark>
<Placemark><name>Galacza</name><description>Nume: Galacza, Tip: galaț, Nivel: 3, Județ: Bihor, Formă: Localitate, ID: 12140 <br /><b>Variante</b><br />Nume: Galacza, Hartă: Ungaria (1782–1785), Limbă: Limba maghiară</description><Point><coordinates>22.429819,46.987741,0</coordinates></Point></Placemark>
<Placemark><name>Vârful Galațului</name><description>Nume: Vârful Galațului, Tip: galaț, Nivel: 3, Județ: Bistrita Nasaud, Formă: Înălțime, ID: 6352 <br /><b>Variante</b><br />Nume: Vârful Galațului, Hartă: PDT, Limbă: Limba română</description><Point><coordinates>24.812393,47.563402,0</coordinates></Point></Placemark>
<Placemark><name>Galații Bistriței</name><description>Nume: Galații Bistriței, Tip: galați, Nivel: 2, Județ: Bistrita Nasaud, Formă: Localitate, ID: 5482 <br /><b>Variante</b><br />Nume: Galații Bistriței, Hartă: Geomil 25000, Limbă: Limba română</description><Point><coordinates>24.420328,46.992930,0</coordinates></Point></Placemark>
<Placemark><name>Valea Galaților</name><description>Nume: Valea Galaților, Tip: galați, Nivel: 2, Județ: Bistrita Nasaud, Formă: Vale, ID: 9874 <br /><b>Variante</b><br />Nume: Valea Galaților, Hartă: PDT, Limbă: Limba română</description><Point><coordinates>24.662179,47.297896,0</coordinates></Point></Placemark>
<Placemark><name>Galați</name><description>Nume: Galați, Tip: galați, Nivel: 2, Județ: Botosani, Formă: Localitate, ID: 9579 <br /><b>Variante</b><br />Nume: Galați, Hartă: Moldova (1892-1898), Limbă: Limba română</description><Point><coordinates>26.308839,48.010937,0</coordinates></Point></Placemark>
<Placemark><name>Galați</name><description>Nume: Galați, Tip: galați, Nivel: 2, Județ: Brasov, Formă: Localitate, ID: 2681 <br /><b>Variante</b><br />Nume: Galați, Hartă: Geomil 25000, Limbă: Limba română</description><Point><coordinates>24.979580,45.855817,0</coordinates></Point></Placemark>
<Placemark><name>Lacul Gălățui</name><description>Nume: Lacul Gălățui, Tip: galați, Nivel: 2, Județ: Calarasi, Formă: Lac, ID: 3239 <br /><b>Variante</b><br />Nume: Lacul Gălățui, Hartă: Geomil 25000, Limbă: Limba română</description><Point><coordinates>27.121550,44.228504,0</coordinates></Point></Placemark>
<Placemark><name>Galați</name><description>Nume: Galați, Tip: galați, Nivel: 2, Județ: Galati, Formă: Localitate, ID: 10903 <br /><b>Variante</b><br />Nume: Galați, Hartă: Geomil 25000, Limbă: Limba română<br />Nume: Galații, Hartă: Moldova (1892-1898), Limbă: Limba română</description><Point><coordinates>28.055192,45.435500,0</coordinates></Point></Placemark>
<Placemark><name>Galați</name><description>Nume: Galați, Tip: galați, Nivel: 2, Județ: Hunedoara, Formă: Localitate, ID: 12732 <br /><b>Variante</b><br />Nume: Galați, Hartă: Geomil 25000, Limbă: Limba română</description><Point><coordinates>23.063502,45.527180,0</coordinates></Point></Placemark></Document></kml>