<?xml version="1.0" encoding="UTF-8"?><kml xmlns="http://www.opengis.net/kml/2.2"><Document><Placemark><name>Dealul Sasului</name><description>Nume: Dealul Sasului, Tip: sas, Nivel: 4, Județ: Alba, Formă: Deal, ID: 10550 <br /><b>Variante</b><br />Nume: Dealul Sasului, Hartă: Imperiul Habsburgic (1887), Limbă: Limba română</description><Point><coordinates>23.434940,45.768720,0</coordinates></Point></Placemark>
<Placemark><name>Pădurea Sasului</name><description>Nume: Pădurea Sasului, Tip: sas, Nivel: 4, Județ: Alba, Formă: Pădure, ID: 11239 <br /><b>Variante</b><br />Nume: Pădurea Sasului, Hartă: Geomil 25000, Limbă: Limba română</description><Point><coordinates>23.740035,46.039542,0</coordinates></Point></Placemark>
<Placemark><name>Pârâul Sasului</name><description>Nume: Pârâul Sasului, Tip: sas, Nivel: 4, Județ: Alba, Formă: Vale, ID: 8153 <br /><b>Variante</b><br />Nume: Pârâul Sasului, Hartă: PDT, Limbă: Limba română</description><Point><coordinates>23.903302,46.197083,0</coordinates></Point></Placemark>
<Placemark><name>Pârâul Valea Sasului</name><description>Nume: Pârâul Valea Sasului, Tip: sas, Nivel: 4, Județ: Alba, Formă: Vale, ID: 7353 <br /><b>Variante</b><br />Nume: Pârâul Valea Sasului, Hartă: Geomil 25000, Limbă: Limba română</description><Point><coordinates>24.034363,46.281258,0</coordinates></Point></Placemark>
<Placemark><name>Valea Sasului</name><description>Nume: Valea Sasului, Tip: sas, Nivel: 4, Județ: Alba, Formă: Vale, ID: 1136 <br /><b>Variante</b><br />Nume: Valea Sasului, Hartă: Geomil 25000, Limbă: Limba română</description><Point><coordinates>23.409882,45.795854,0</coordinates></Point></Placemark>
<Placemark><name>Valea Sasului</name><description>Nume: Valea Sasului, Tip: sas, Nivel: 4, Județ: Alba, Formă: Vale, ID: 11829 <br /><b>Variante</b><br />Nume: Valea Sasului, Hartă: Geomil 25000, Limbă: Limba română<br />Nume: Valea Sasului, Hartă: PDT, Limbă: Limba română</description><Point><coordinates>23.667573,46.226462,0</coordinates></Point></Placemark>
<Placemark><name>Valea Sasului</name><description>Nume: Valea Sasului, Tip: sas, Nivel: 4, Județ: Alba, Formă: Vale, ID: 14010 <br /><b>Variante</b><br />Nume: Valea Sasului, Hartă: PDT, Limbă: Limba română</description><Point><coordinates>23.686584,46.425763,0</coordinates></Point></Placemark>
<Placemark><name>Vârfu Gruiu Sasului</name><description>Nume: Vârfu Gruiu Sasului, Tip: sas, Nivel: 4, Județ: Alba, Formă: Înălțime, ID: 6747 <br /><b>Variante</b><br />Nume: Vârfu Gruiu Sasului, Hartă: Geomil 25000, Limbă: Limba română<br />Nume: Gruiul Sasului, Hartă: PDT, Limbă: Limba română</description><Point><coordinates>23.663770,46.098726,0</coordinates></Point></Placemark>
<Placemark><name>Szaszcsor (Săsciori)</name><description>Nume: Szaszcsor (Săsciori), Tip: săsciori, Nivel: 4, Județ: Alba, Formă: Localitate, ID: 13242 <br /><b>Variante</b><br />Nume: Szaszcsor (Săsciori), Hartă: Transilvania (1769-1773), Limbă: Limba română<br />Nume: Săsciori, Hartă: Geomil 25000, Limbă: Limba română</description><Point><coordinates>23.579032,45.879151,0</coordinates></Point></Placemark>
<Placemark><name>Gruețiu Săsăscu</name><description>Nume: Gruețiu Săsăscu, Tip: săsesc, Nivel: 4, Județ: Alba, Formă: Altele, ID: 11836 <br /><b>Variante</b><br />Nume: Gruețiu Săsăscu, Hartă: Geomil 25000, Limbă: Limba română</description><Point><coordinates>23.942909,46.251388,0</coordinates></Point></Placemark>
<Placemark><name>Râtul Săsesc</name><description>Nume: Râtul Săsesc, Tip: săsesc, Nivel: 4, Județ: Alba, Formă: Altele, ID: 8157 <br /><b>Variante</b><br />Nume: Râtul Săsesc, Hartă: PDT, Limbă: Limba română</description><Point><coordinates>23.971336,46.149141,0</coordinates></Point></Placemark>
<Placemark><name>Szaz Pian</name><description>Nume: Szaz Pian, Tip: săsesc, Nivel: 4, Județ: Alba, Formă: Localitate, ID: 10458 <br /><b>Variante</b><br />Nume: Szaz Pian, Hartă: Transilvania (1869-1870), Limbă: Limba maghiară</description><Point><coordinates>23.487641,45.937789,0</coordinates></Point></Placemark>
<Placemark><name>Săsești</name><description>Nume: Săsești, Tip: săsești, Nivel: 4, Județ: Alba, Formă: Altele, ID: 14014 <br /><b>Variante</b><br />Nume: Săsești, Hartă: PDT, Limbă: Limba română</description><Point><coordinates>23.970416,46.372185,0</coordinates></Point></Placemark>
<Placemark><name>Szász-Ujfalu</name><description>Nume: Szász-Ujfalu, Tip: szász, Nivel: 4, Județ: Alba, Formă: Localitate, ID: 10501 <br /><b>Variante</b><br />Nume: Szász-Ujfalu, Hartă: Transilvania (1869-1870), Limbă: Limba maghiară</description><Point><coordinates>23.721020,46.274464,0</coordinates></Point></Placemark>
<Placemark><name>Dealu Sasu</name><description>Nume: Dealu Sasu, Tip: sas, Nivel: 4, Județ: Arad, Formă: Deal, ID: 13501 <br /><b>Variante</b><br />Nume: Dealu Sasu, Hartă: Geomil 25000, Limbă: Limba română</description><Point><coordinates>22.129675,46.073214,0</coordinates></Point></Placemark>
<Placemark><name>Pădurea Sasului</name><description>Nume: Pădurea Sasului, Tip: sas, Nivel: 4, Județ: Arad, Formă: Pădure, ID: 8035 <br /><b>Variante</b><br />Nume: Pădurea Sasului, Hartă: PDT, Limbă: Limba română</description><Point><coordinates>21.765391,46.502355,0</coordinates></Point></Placemark>
<Placemark><name>Valea Sasului</name><description>Nume: Valea Sasului, Tip: sas, Nivel: 4, Județ: Arad, Formă: Vale, ID: 5599 <br /><b>Variante</b><br />Nume: Valea Sasului, Hartă: Geomil 25000, Limbă: Limba română</description><Point><coordinates>22.452887,46.322336,0</coordinates></Point></Placemark>
<Placemark><name>Dealul Sasu</name><description>Nume: Dealul Sasu, Tip: sas, Nivel: 4, Județ: Arges, Formă: Deal, ID: 599 <br /><b>Variante</b><br />Nume: Dealul Sasu, Hartă: Geomil 25000, Limbă: Limba română</description><Point><coordinates>25.233779,45.508885,0</coordinates></Point></Placemark>
<Placemark><name>Dealul Sasului</name><description>Nume: Dealul Sasului, Tip: sas, Nivel: 4, Județ: Arges, Formă: Deal, ID: 5032 <br /><b>Variante</b><br />Nume: Dealul Sasului, Hartă: Geomil 25000, Limbă: Limba română<br />Nume: Dealul Sasului, Hartă: PDT, Limbă: Limba română</description><Point><coordinates>25.238633,45.410923,0</coordinates></Point></Placemark>
<Placemark><name>Dealul Sasului</name><description>Nume: Dealul Sasului, Tip: sas, Nivel: 4, Județ: Arges, Formă: Deal, ID: 12580 <br /><b>Variante</b><br />Nume: Dealul Sasului, Hartă: British Maps (1944), Limbă: Limba română</description><Point><coordinates>24.511145,45.256366,0</coordinates></Point></Placemark>
<Placemark><name>Piscu Sasului</name><description>Nume: Piscu Sasului, Tip: sas, Nivel: 4, Județ: Arges, Formă: Înălțime, ID: 11045 <br /><b>Variante</b><br />Nume: Piscu Sasului, Hartă: Geomil 25000, Limbă: Limba română</description><Point><coordinates>24.525602,44.921362,0</coordinates></Point></Placemark>
<Placemark><name>Valea Sasului</name><description>Nume: Valea Sasului, Tip: sas, Nivel: 4, Județ: Arges, Formă: Vale, ID: 1424 <br /><b>Variante</b><br />Nume: Valea Sasului, Hartă: Geomil 25000, Limbă: Limba română<br />Nume: Valea Sassului, Hartă: Austriacă, Limbă: Limba română</description><Point><coordinates>24.677472,45.107496,0</coordinates></Point></Placemark>
<Placemark><name>Valea Sasului</name><description>Nume: Valea Sasului, Tip: sas, Nivel: 4, Județ: Arges, Formă: Vale, ID: 4050 <br /><b>Variante</b><br />Nume: Valea Sasului, Hartă: PDT, Limbă: Limba română</description><Point><coordinates>24.695047,45.242279,0</coordinates></Point></Placemark>
<Placemark><name>Valea Sasului</name><description>Nume: Valea Sasului, Tip: sas, Nivel: 4, Județ: Arges, Formă: Vale, ID: 11120 <br /><b>Variante</b><br />Nume: Valea Sasului, Hartă: PDT, Limbă: Limba română</description><Point><coordinates>24.999831,45.241248,0</coordinates></Point></Placemark>
<Placemark><name>Sasu</name><description>Nume: Sasu, Tip: sas, Nivel: 4, Județ: Bacau, Formă: Localitate, ID: 13642 <br /><b>Variante</b><br />Nume: Sasu, Hartă: Moldova (1892-1898), Limbă: Limba română</description><Point><coordinates>27.040591,46.685866,0</coordinates></Point></Placemark>
<Placemark><name>Sasul</name><description>Nume: Sasul, Tip: sas, Nivel: 4, Județ: Bacau, Formă: Vale, ID: 13851 <br /><b>Variante</b><br />Nume: Sasul, Hartă: Geomil 25000, Limbă: Limba română</description><Point><coordinates>26.434156,46.216040,0</coordinates></Point></Placemark>
<Placemark><name>Poiana Sasului</name><description>Nume: Poiana Sasului, Tip: sas, Nivel: 4, Județ: Bihor, Formă: Poiană, ID: 979 <br /><b>Variante</b><br />Nume: Poiana Sasului, Hartă: Geomil 25000, Limbă: Limba română<br />Nume: Poiana Sasului, Hartă: PDT, Limbă: Limba română</description><Point><coordinates>22.181573,46.547876,0</coordinates></Point></Placemark>
<Placemark><name>Szászfalva (Satul Sasului)</name><description>Nume: Szászfalva (Satul Sasului), Tip: sas, Nivel: 4, Județ: Bihor, Formă: Localitate, ID: 10272 <br /><b>Variante</b><br />Nume: Szászfalva (Satul Sasului), Hartă: Ungară 1869, Limbă: Limba maghiară</description><Point><coordinates>22.448533,47.010263,0</coordinates></Point></Placemark>
<Placemark><name>Valea Sasului</name><description>Nume: Valea Sasului, Tip: sas, Nivel: 4, Județ: Bihor, Formă: Vale, ID: 1075 <br /><b>Variante</b><br />Nume: Valea Sasului, Hartă: Geomil 25000, Limbă: Limba română<br />Nume: Valea Sasului, Hartă: PDT, Limbă: Limba română</description><Point><coordinates>22.548973,46.989674,0</coordinates></Point></Placemark>
<Placemark><name>Dealul Sasului</name><description>Nume: Dealul Sasului, Tip: sas, Nivel: 4, Județ: Bistrita Nasaud, Formă: Deal, ID: 7118 <br /><b>Variante</b><br />Nume: Dealul Sasului, Hartă: Geomil 25000, Limbă: Limba română</description><Point><coordinates>24.369222,47.233873,0</coordinates></Point></Placemark>
<Placemark><name>Dealul Sasului</name><description>Nume: Dealul Sasului, Tip: sas, Nivel: 4, Județ: Bistrita Nasaud, Formă: Deal, ID: 10583 <br /><b>Variante</b><br />Nume: Dealul Sasului, Hartă: Imperiul Habsburgic (1887), Limbă: Limba română</description><Point><coordinates>24.565007,47.281064,0</coordinates></Point></Placemark>
<Placemark><name>Dealul Sasului</name><description>Nume: Dealul Sasului, Tip: sas, Nivel: 4, Județ: Bistrita Nasaud, Formă: Deal, ID: 14160 <br /><b>Variante</b><br />Nume: Dealul Sasului, Hartă: Geomil 25000, Limbă: Limba română</description><Point><coordinates>24.060200,47.168313,0</coordinates></Point></Placemark>
<Placemark><name>Dialu sasului</name><description>Nume: Dialu sasului, Tip: sas, Nivel: 4, Județ: Bistrita Nasaud, Formă: Deal, ID: 10496 <br /><b>Variante</b><br />Nume: Dialu sasului, Hartă: Transilvania (1869-1870), Limbă: Limba română</description><Point><coordinates>24.209680,47.219000,0</coordinates></Point></Placemark>
<Placemark><name>Moara Sasului</name><description>Nume: Moara Sasului, Tip: sas, Nivel: 4, Județ: Bistrita Nasaud, Formă: Altele, ID: 7112 <br /><b>Variante</b><br />Nume: Moara Sasului, Hartă: PDT, Limbă: Limba română<br />Nume: La Moara Sasului, Hartă: Geomil 25000, Limbă: Limba română</description><Point><coordinates>24.268377,47.300906,0</coordinates></Point></Placemark>
<Placemark><name>Valea Sasului</name><description>Nume: Valea Sasului, Tip: sas, Nivel: 4, Județ: Bistrita Nasaud, Formă: Vale, ID: 4500 <br /><b>Variante</b><br />Nume: Valea Sasului, Hartă: Geomil 25000, Limbă: Limba română</description><Point><coordinates>24.255397,47.260317,0</coordinates></Point></Placemark>
<Placemark><name>Szász Cegő</name><description>Nume: Szász Cegő, Tip: săsesc, Nivel: 4, Județ: Bistrita Nasaud, Formă: Localitate, ID: 10465 <br /><b>Variante</b><br />Nume: Szász Cegő, Hartă: Transilvania (1869-1870), Limbă: Limba maghiară</description><Point><coordinates>24.332263,47.069246,0</coordinates></Point></Placemark>
<Placemark><name>Szasz Budak</name><description>Nume: Szasz Budak, Tip: szász, Nivel: 4, Județ: Bistrita Nasaud, Formă: Localitate, ID: 14477 <br /><b>Variante</b><br />Nume: Szasz Budak, Hartă: Transilvania (1769-1773), Limbă: Limba română</description><Point><coordinates>24.521906,47.089700,0</coordinates></Point></Placemark>
<Placemark><name>Szasz Uj Öss</name><description>Nume: Szasz Uj Öss, Tip: szász, Nivel: 4, Județ: Bistrita Nasaud, Formă: Localitate, ID: 14481 <br /><b>Variante</b><br />Nume: Szasz Uj Öss, Hartă: Transilvania (1769-1773), Limbă: Limba maghiară</description><Point><coordinates>24.272223,46.939109,0</coordinates></Point></Placemark>
<Placemark><name>Szasz Ujfalu</name><description>Nume: Szasz Ujfalu, Tip: szász, Nivel: 4, Județ: Bistrita Nasaud, Formă: Localitate, ID: 14479 <br /><b>Variante</b><br />Nume: Szasz Ujfalu, Hartă: Transilvania (1769-1773), Limbă: Limba maghiară</description><Point><coordinates>24.260648,47.021476,0</coordinates></Point></Placemark>
<Placemark><name>Szász-Bréte</name><description>Nume: Szász-Bréte, Tip: szász, Nivel: 4, Județ: Bistrita Nasaud, Formă: Localitate, ID: 10467 <br /><b>Variante</b><br />Nume: Szász-Bréte, Hartă: Transilvania (1869-1870), Limbă: Limba maghiară</description><Point><coordinates>24.242708,47.123970,0</coordinates></Point></Placemark>
<Placemark><name>Târla Sasul</name><description>Nume: Târla Sasul, Tip: sas, Nivel: 4, Județ: Braila, Formă: Localitate, ID: 12617 <br /><b>Variante</b><br />Nume: Târla Sasul, Hartă: PDT, Limbă: Limba română</description><Point><coordinates>27.556150,45.230706,0</coordinates></Point></Placemark>
<Placemark><name>Movila Sașilor</name><description>Nume: Movila Sașilor, Tip: sași, Nivel: 3, Județ: Braila, Formă: Înălțime, ID: 3470 <br /><b>Variante</b><br />Nume: Movila Sașilor, Hartă: PDT, Limbă: Limba română</description><Point><coordinates>27.759301,44.816075,0</coordinates></Point></Placemark>
<Placemark><name>Pârâul Sasului</name><description>Nume: Pârâul Sasului, Tip: sas, Nivel: 4, Județ: Brasov, Formă: Vale, ID: 6822 <br /><b>Variante</b><br />Nume: Pârâul Sasului, Hartă: PDT, Limbă: Limba română</description><Point><coordinates>25.283512,45.721848,0</coordinates></Point></Placemark>
<Placemark><name>Valea Sasului</name><description>Nume: Valea Sasului, Tip: sas, Nivel: 4, Județ: Brasov, Formă: Vale, ID: 2700 <br /><b>Variante</b><br />Nume: Valea Sasului, Hartă: Geomil 25000, Limbă: Limba română</description><Point><coordinates>25.419075,45.783822,0</coordinates></Point></Placemark>
<Placemark><name>Valea Sasului</name><description>Nume: Valea Sasului, Tip: sas, Nivel: 4, Județ: Brasov, Formă: Vale, ID: 2770 <br /><b>Variante</b><br />Nume: Valea Sasului, Hartă: Geomil 25000, Limbă: Limba română</description><Point><coordinates>25.883085,45.590650,0</coordinates></Point></Placemark>
<Placemark><name>Valea Sasului</name><description>Nume: Valea Sasului, Tip: sas, Nivel: 4, Județ: Brasov, Formă: Vale, ID: 14161 <br /><b>Variante</b><br />Nume: Valea Sasului, Hartă: Geomil 25000, Limbă: Limba română</description><Point><coordinates>25.359610,45.463605,0</coordinates></Point></Placemark>
<Placemark><name>Ticușul săsesc</name><description>Nume: Ticușul săsesc, Tip: săsesc, Nivel: 4, Județ: Brasov, Formă: Localitate, ID: 10574 <br /><b>Variante</b><br />Nume: Ticușul săsesc, Hartă: Imperiul Habsburgic (1887), Limbă: Limba română</description><Point><coordinates>25.099705,45.928696,0</coordinates></Point></Placemark>
<Placemark><name>Calea Sașilor</name><description>Nume: Calea Sașilor, Tip: sași, Nivel: 3, Județ: Brasov, Formă: Drum, ID: 10532 <br /><b>Variante</b><br />Nume: Calea Sașilor, Hartă: Imperiul Habsburgic (1887), Limbă: Limba română</description><Point><coordinates>25.343785,45.728741,0</coordinates></Point></Placemark>
<Placemark><name>Lunca Sașilor</name><description>Nume: Lunca Sașilor, Tip: sași, Nivel: 3, Județ: Brasov, Formă: Apă-deal-câmpie, ID: 13847 <br /><b>Variante</b><br />Nume: Lunca Sașilor, Hartă: Geomil 25000, Limbă: Limba română</description><Point><coordinates>25.820882,45.743596,0</coordinates></Point></Placemark>
<Placemark><name>Terenurile Sașilor</name><description>Nume: Terenurile Sașilor, Tip: sași, Nivel: 3, Județ: Brasov, Formă: Altele, ID: 2486 <br /><b>Variante</b><br />Nume: Terenurile Sașilor, Hartă: Geomil 25000, Limbă: Limba română</description><Point><coordinates>25.223447,46.043679,0</coordinates></Point></Placemark>
<Placemark><name>Unghiul Sașillor</name><description>Nume: Unghiul Sașillor, Tip: sași, Nivel: 3, Județ: Brasov, Formă: Apă-deal-câmpie, ID: 6795 <br /><b>Variante</b><br />Nume: Unghiul Sașillor, Hartă: PDT, Limbă: Limba română</description><Point><coordinates>25.263508,45.973149,0</coordinates></Point></Placemark>
<Placemark><name>Pârâul Sasului</name><description>Nume: Pârâul Sasului, Tip: sas, Nivel: 4, Județ: Buzau, Formă: Vale, ID: 6043 <br /><b>Variante</b><br />Nume: Pârâul Sasului, Hartă: Geomil 25000, Limbă: Limba română</description><Point><coordinates>26.205005,45.554204,0</coordinates></Point></Placemark>
<Placemark><name>Săsenii Vechi</name><description>Nume: Săsenii Vechi, Tip: sași, Nivel: 3, Județ: Buzau, Formă: Localitate, ID: 70 <br /><b>Variante</b><br />Nume: Săsenii Vechi, Hartă: Geomil 25000, Limbă: Limba română<br />Nume: Săsenii Vechi, Hartă: PDT, Limbă: Limba română<br />Nume: Săseni veki, Hartă: Austriacă, Limbă: Limba română<br />Nume: Сэсени-Веки (Săseni Vechi), Hartă: Sovietică, Limbă: Limba română</description><Point><coordinates>26.677870,45.216628,0</coordinates></Point></Placemark>
<Placemark><name>Buza Sasului</name><description>Nume: Buza Sasului, Tip: sas, Nivel: 4, Județ: Caras Severin, Formă: Înălțime, ID: 4332 <br /><b>Variante</b><br />Nume: Buza Sasului, Hartă: PDT, Limbă: Limba română<br />Nume: Pusta Sasului, Hartă: Geomil 25000, Limbă: Limba română</description><Point><coordinates>22.148082,45.228297,0</coordinates></Point></Placemark>
<Placemark><name>Dealul Sasului</name><description>Nume: Dealul Sasului, Tip: sas, Nivel: 4, Județ: Cluj, Formă: Deal, ID: 4399 <br /><b>Variante</b><br />Nume: Dealul Sasului, Hartă: Geomil 25000, Limbă: Limba română</description><Point><coordinates>23.862897,47.368781,0</coordinates></Point></Placemark>
<Placemark><name>Dealul Sasului</name><description>Nume: Dealul Sasului, Tip: sas, Nivel: 4, Județ: Cluj, Formă: Deal, ID: 8963 <br /><b>Variante</b><br />Nume: Dealul Sasului, Hartă: PDT, Limbă: Limba română</description><Point><coordinates>23.334608,46.689402,0</coordinates></Point></Placemark>
<Placemark><name>Sas</name><description>Nume: Sas, Tip: sas, Nivel: 4, Județ: Cluj, Formă: Înălțime, ID: 13712 <br /><b>Variante</b><br />Nume: Sas, Hartă: Imperiul Habsburgic (1887), Limbă: Limba română<br />Nume: Muntie Sas, Hartă: Transilvania (1869-1870), Limbă: Limba română</description><Point><coordinates>23.612637,46.516110,0</coordinates></Point></Placemark>
<Placemark><name>Szász Fenes</name><description>Nume: Szász Fenes, Tip: szász, Nivel: 4, Județ: Cluj, Formă: Localitate, ID: 14489 <br /><b>Variante</b><br />Nume: Szász Fenes, Hartă: Transilvania (1769-1773), Limbă: Limba maghiară</description><Point><coordinates>23.483447,46.745874,0</coordinates></Point></Placemark>
<Placemark><name>Szász Lona</name><description>Nume: Szász Lona, Tip: szász, Nivel: 4, Județ: Cluj, Formă: Localitate, ID: 14490 <br /><b>Variante</b><br />Nume: Szász Lona, Hartă: Transilvania (1769-1773), Limbă: Limba maghiară</description><Point><coordinates>23.431348,46.742830,0</coordinates></Point></Placemark>
<Placemark><name>Culmea Sasului</name><description>Nume: Culmea Sasului, Tip: sas, Nivel: 4, Județ: Covasna, Formă: Înălțime, ID: 2750 <br /><b>Variante</b><br />Nume: Culmea Sasului, Hartă: Geomil 25000, Limbă: Limba română</description><Point><coordinates>25.773099,46.057185,0</coordinates></Point></Placemark>
<Placemark><name>Dealul Sașilor</name><description>Nume: Dealul Sașilor, Tip: sași, Nivel: 3, Județ: Covasna, Formă: Deal, ID: 12881 <br /><b>Variante</b><br />Nume: Dealul Sașilor, Hartă: Imperiul Habsburgic (1887), Limbă: Limba română</description><Point><coordinates>26.125344,45.637580,0</coordinates></Point></Placemark>
<Placemark><name>Pădurea Sasu</name><description>Nume: Pădurea Sasu, Tip: sas, Nivel: 4, Județ: Dambovita, Formă: Pădure, ID: 11154 <br /><b>Variante</b><br />Nume: Pădurea Sasu, Hartă: PDT, Limbă: Limba română</description><Point><coordinates>25.664891,44.708048,0</coordinates></Point></Placemark>
<Placemark><name>Valea Sasului</name><description>Nume: Valea Sasului, Tip: sas, Nivel: 4, Județ: Dambovita, Formă: Vale, ID: 1533 <br /><b>Variante</b><br />Nume: Valea Sasului, Hartă: Geomil 25000, Limbă: Limba română</description><Point><coordinates>25.479240,44.961617,0</coordinates></Point></Placemark>
<Placemark><name>Valea Sasului</name><description>Nume: Valea Sasului, Tip: sas, Nivel: 4, Județ: Dambovita, Formă: Vale, ID: 11195 <br /><b>Variante</b><br />Nume: Valea Sasului, Hartă: ANCPI, Limbă: Limba română</description><Point><coordinates>25.502989,45.074309,0</coordinates></Point></Placemark>
<Placemark><name>Dealul Sasului</name><description>Nume: Dealul Sasului, Tip: sas, Nivel: 4, Județ: Dolj, Formă: Deal, ID: 12179 <br /><b>Variante</b><br />Nume: Dealul Sasului, Hartă: PDT, Limbă: Limba română<br />Nume: B. Sasz, Hartă: Oltenia-Muntenia (1790), Limbă: Limba română</description><Point><coordinates>23.846280,44.349333,0</coordinates></Point></Placemark>
<Placemark><name>Valea Sasului</name><description>Nume: Valea Sasului, Tip: sas, Nivel: 4, Județ: Dolj, Formă: Vale, ID: 5108 <br /><b>Variante</b><br />Nume: Valea Sasului, Hartă: Austriacă, Limbă: Limba română<br />Nume: Valea Sasului, Hartă: Geomil 25000, Limbă: Limba română</description><Point><coordinates>23.787952,44.178449,0</coordinates></Point></Placemark>
<Placemark><name>Valea Sasului</name><description>Nume: Valea Sasului, Tip: sas, Nivel: 4, Județ: Dolj, Formă: Vale, ID: 7710 <br /><b>Variante</b><br />Nume: Valea Sasului, Hartă: PDT, Limbă: Limba română</description><Point><coordinates>23.735840,44.186734,0</coordinates></Point></Placemark>
<Placemark><name>Săseni</name><description>Nume: Săseni, Tip: săseni, Nivel: 4, Județ: Galati, Formă: Localitate, ID: 13946 <br /><b>Variante</b><br />Nume: Săseni, Hartă: Geomil 25000, Limbă: Limba română</description><Point><coordinates>27.934568,46.125927,0</coordinates></Point></Placemark>
<Placemark><name>Lacul Sasului</name><description>Nume: Lacul Sasului, Tip: sas, Nivel: 4, Județ: Giurgiu, Formă: Lac, ID: 4222 <br /><b>Variante</b><br />Nume: Lacul Sasului, Hartă: PDT, Limbă: Limba română</description><Point><coordinates>25.813636,44.167248,0</coordinates></Point></Placemark>
<Placemark><name>Valea Sasului</name><description>Nume: Valea Sasului, Tip: sas, Nivel: 4, Județ: Giurgiu, Formă: Vale, ID: 10106 <br /><b>Variante</b><br />Nume: Valea Sasului, Hartă: Geomil 25000, Limbă: Limba română</description><Point><coordinates>25.663416,44.323608,0</coordinates></Point></Placemark>
<Placemark><name>Săseni</name><description>Nume: Săseni, Tip: săseni, Nivel: 4, Județ: Gorj, Formă: Localitate, ID: 11817 <br /><b>Variante</b><br />Nume: Săseni, Hartă: PDT, Limbă: Limba română</description><Point><coordinates>23.493738,44.789204,0</coordinates></Point></Placemark>
<Placemark><name>Tăetura Sasului</name><description>Nume: Tăetura Sasului, Tip: sas, Nivel: 4, Județ: Harghita, Formă: Înălțime, ID: 10037 <br /><b>Variante</b><br />Nume: Tăetura Sasului, Hartă: PDT, Limbă: Limba română</description><Point><coordinates>25.404003,46.787182,0</coordinates></Point></Placemark>
<Placemark><name>Satul Săsesc</name><description>Nume: Satul Săsesc, Tip: săsesc, Nivel: 4, Județ: Harghita, Formă: Localitate, ID: 10044 <br /><b>Variante</b><br />Nume: Satul Săsesc, Hartă: PDT, Limbă: Limba română</description><Point><coordinates>25.499661,46.672614,0</coordinates></Point></Placemark>
<Placemark><name>Grădina Sașilor</name><description>Nume: Grădina Sașilor, Tip: sași, Nivel: 3, Județ: Harghita, Formă: Altele, ID: 7953 <br /><b>Variante</b><br />Nume: Grădina Sașilor, Hartă: Geomil 25000, Limbă: Limba română</description><Point><coordinates>25.346373,46.279887,0</coordinates></Point></Placemark>
<Placemark><name>Poiana Sașilor</name><description>Nume: Poiana Sașilor, Tip: sași, Nivel: 3, Județ: Harghita, Formă: Poiană, ID: 15158 <br /><b>Variante</b><br />Nume: Poiana Sașilor, Hartă: Munții noștri, Limbă: Limba română</description><Point><coordinates>25.319405,47.072246,0</coordinates></Point></Placemark>
<Placemark><name>Tabăra Sașilor</name><description>Nume: Tabăra Sașilor, Tip: sași, Nivel: 3, Județ: Harghita, Formă: Altele, ID: 4268 <br /><b>Variante</b><br />Nume: Tabăra Sașilor, Hartă: Geomil 25000, Limbă: Limba română</description><Point><coordinates>25.316556,46.305415,0</coordinates></Point></Placemark>
<Placemark><name>Culmea Sasului</name><description>Nume: Culmea Sasului, Tip: sas, Nivel: 4, Județ: Hunedoara, Formă: Înălțime, ID: 9834 <br /><b>Variante</b><br />Nume: Culmea Sasului, Hartă: Geomil 25000, Limbă: Limba română</description><Point><coordinates>23.355667,45.562260,0</coordinates></Point></Placemark>
<Placemark><name>Dealu Sasului</name><description>Nume: Dealu Sasului, Tip: sas, Nivel: 4, Județ: Hunedoara, Formă: Deal, ID: 6236 <br /><b>Variante</b><br />Nume: Dealu Sasului, Hartă: Geomil 25000, Limbă: Limba română</description><Point><coordinates>22.940256,46.120098,0</coordinates></Point></Placemark>
<Placemark><name>Pârâul Sasu</name><description>Nume: Pârâul Sasu, Tip: sas, Nivel: 4, Județ: Hunedoara, Formă: Vale, ID: 12690 <br /><b>Variante</b><br />Nume: Pârâul Sasu, Hartă: Geomil 25000, Limbă: Limba română</description><Point><coordinates>23.423605,45.382069,0</coordinates></Point></Placemark>
<Placemark><name>Vârfu Sașilor</name><description>Nume: Vârfu Sașilor, Tip: sași, Nivel: 3, Județ: Hunedoara, Formă: Înălțime, ID: 13430 <br /><b>Variante</b><br />Nume: Vârfu Sașilor, Hartă: Geomil 25000, Limbă: Limba română</description><Point><coordinates>22.825660,45.354796,0</coordinates></Point></Placemark>
<Placemark><name>Szászváros</name><description>Nume: Szászváros, Tip: szász, Nivel: 4, Județ: Hunedoara, Formă: Localitate, ID: 10522 <br /><b>Variante</b><br />Nume: Szászváros, Hartă: Transilvania (1869-1870), Limbă: Limba maghiară</description><Point><coordinates>23.197955,45.838223,0</coordinates></Point></Placemark>
<Placemark><name>La Cornul Sasului</name><description>Nume: La Cornul Sasului, Tip: sas, Nivel: 4, Județ: Iasi, Formă: Apă-deal-câmpie, ID: 6647 <br /><b>Variante</b><br />Nume: La Cornul Sasului, Hartă: Geomil 25000, Limbă: Limba română<br />Nume: La Cornul Sasului, Hartă: PDT, Limbă: Limba română</description><Point><coordinates>27.531588,47.397059,0</coordinates></Point></Placemark>
<Placemark><name>Arșița Sasului</name><description>Nume: Arșița Sasului, Tip: sas, Nivel: 4, Județ: Maramures, Formă: Altele, ID: 10267 <br /><b>Variante</b><br />Nume: Arșița Sasului, Hartă: Geomil 25000, Limbă: Limba română<br />Nume: V. Szazului, Hartă: Ungară 1869, Limbă: Limba română</description><Point><coordinates>24.449646,47.730779,0</coordinates></Point></Placemark>
<Placemark><name>Dealul Sasul Mic</name><description>Nume: Dealul Sasul Mic, Tip: sas, Nivel: 4, Județ: Maramures, Formă: Deal, ID: 7161 <br /><b>Variante</b><br />Nume: Dealul Sasul Mic, Hartă: Geomil 25000, Limbă: Limba română</description><Point><coordinates>24.448673,47.781591,0</coordinates></Point></Placemark>
<Placemark><name>Dealul Sasului</name><description>Nume: Dealul Sasului, Tip: sas, Nivel: 4, Județ: Maramures, Formă: Deal, ID: 10559 <br /><b>Variante</b><br />Nume: Dealul Sasului, Hartă: Imperiul Habsburgic (1887), Limbă: Limba română</description><Point><coordinates>23.779095,47.472021,0</coordinates></Point></Placemark>
<Placemark><name>Stâna Sasului</name><description>Nume: Stâna Sasului, Tip: sas, Nivel: 4, Județ: Maramures, Formă: Vale, ID: 7148 <br /><b>Variante</b><br />Nume: Stâna Sasului, Hartă: Geomil 25000, Limbă: Limba română</description><Point><coordinates>24.807126,47.647924,0</coordinates></Point></Placemark>
<Placemark><name>Valea Sasului</name><description>Nume: Valea Sasului, Tip: sas, Nivel: 4, Județ: Maramures, Formă: Vale, ID: 7150 <br /><b>Variante</b><br />Nume: Valea Sasului, Hartă: Geomil 25000, Limbă: Limba română</description><Point><coordinates>24.381911,47.635068,0</coordinates></Point></Placemark>
<Placemark><name>Dealul Sasului</name><description>Nume: Dealul Sasului, Tip: sas, Nivel: 4, Județ: Mures, Formă: Deal, ID: 5374 <br /><b>Variante</b><br />Nume: Dealul Sasului, Hartă: Geomil 25000, Limbă: Limba română</description><Point><coordinates>24.354071,46.657732,0</coordinates></Point></Placemark>
<Placemark><name>Pârâul Sasului</name><description>Nume: Pârâul Sasului, Tip: sas, Nivel: 4, Județ: Mures, Formă: Vale, ID: 5522 <br /><b>Variante</b><br />Nume: Pârâul Sasului, Hartă: PDT, Limbă: Limba română<br />Nume: Sasul, Hartă: Geomil 25000, Limbă: Limba română</description><Point><coordinates>24.737697,46.191600,0</coordinates></Point></Placemark>
<Placemark><name>Tăetura Sasului</name><description>Nume: Tăetura Sasului, Tip: sas, Nivel: 4, Județ: Mures, Formă: Altele, ID: 14312 <br /><b>Variante</b><br />Nume: Tăetura Sasului, Hartă: PDT, Limbă: Limba română</description><Point><coordinates>25.259119,46.933807,0</coordinates></Point></Placemark>
<Placemark><name>Valea Sasului</name><description>Nume: Valea Sasului, Tip: sas, Nivel: 4, Județ: Mures, Formă: Vale, ID: 5464 <br /><b>Variante</b><br />Nume: Valea Sasului, Hartă: Geomil 25000, Limbă: Limba română</description><Point><coordinates>24.485347,46.819475,0</coordinates></Point></Placemark>
<Placemark><name>Laslăul săsesc</name><description>Nume: Laslăul săsesc, Tip: săsesc, Nivel: 4, Județ: Mures, Formă: Localitate, ID: 10812 <br /><b>Variante</b><br />Nume: Laslăul săsesc, Hartă: Imperiul Habsburgic (1887), Limbă: Limba română</description><Point><coordinates>24.553810,46.367769,0</coordinates></Point></Placemark>
<Placemark><name>Pădurea Bisericii Săsești</name><description>Nume: Pădurea Bisericii Săsești, Tip: săsesc, Nivel: 4, Județ: Mures, Formă: Pădure, ID: 4336 <br /><b>Variante</b><br />Nume: Pădurea Bisericii Săsești, Hartă: Geomil 25000, Limbă: Limba română</description><Point><coordinates>24.716946,46.723778,0</coordinates></Point></Placemark>
<Placemark><name>Pârâul Săsesc</name><description>Nume: Pârâul Săsesc, Tip: săsesc, Nivel: 4, Județ: Mures, Formă: Vale, ID: 8647 <br /><b>Variante</b><br />Nume: Pârâul Săsesc, Hartă: PDT, Limbă: Limba română</description><Point><coordinates>24.398910,46.300280,0</coordinates></Point></Placemark>
<Placemark><name>Pășunea Sașilor</name><description>Nume: Pășunea Sașilor, Tip: sași, Nivel: 3, Județ: Mures, Formă: Altele, ID: 1910 <br /><b>Variante</b><br />Nume: Pășunea Sașilor, Hartă: Geomil 25000, Limbă: Limba română</description><Point><coordinates>24.520432,46.369088,0</coordinates></Point></Placemark>
<Placemark><name>Szász Csávás</name><description>Nume: Szász Csávás, Tip: szász, Nivel: 4, Județ: Mures, Formă: Localitate, ID: 14497 <br /><b>Variante</b><br />Nume: Szász Csávás, Hartă: Transilvania (1769-1773), Limbă: Limba maghiară</description><Point><coordinates>24.441724,46.342512,0</coordinates></Point></Placemark>
<Placemark><name>Szász Patak (Valea Sasului)</name><description>Nume: Szász Patak (Valea Sasului), Tip: szász, Nivel: 4, Județ: Mures, Formă: Vale, ID: 12814 <br /><b>Variante</b><br />Nume: Szász Patak (Valea Sasului), Hartă: PDT, Limbă: Limba română</description><Point><coordinates>24.662984,46.630853,0</coordinates></Point></Placemark>
<Placemark><name>Szász Sz Ivan</name><description>Nume: Szász Sz Ivan, Tip: szász, Nivel: 4, Județ: Mures, Formă: Localitate, ID: 14498 <br /><b>Variante</b><br />Nume: Szász Sz Ivan, Hartă: Transilvania (1769-1773), Limbă: Limba maghiară</description><Point><coordinates>24.563568,46.284139,0</coordinates></Point></Placemark>
<Placemark><name>Szász-Régen</name><description>Nume: Szász-Régen, Tip: szász, Nivel: 4, Județ: Mures, Formă: Localitate, ID: 10469 <br /><b>Variante</b><br />Nume: Szász-Régen, Hartă: Transilvania (1869-1870), Limbă: Limba maghiară</description><Point><coordinates>24.700384,46.780174,0</coordinates></Point></Placemark>
<Placemark><name>Muntele Arșița Sasului</name><description>Nume: Muntele Arșița Sasului, Tip: sas, Nivel: 4, Județ: Neamt, Formă: Înălțime, ID: 2068 <br /><b>Variante</b><br />Nume: Muntele Arșița Sasului, Hartă: Geomil 25000, Limbă: Limba română</description><Point><coordinates>25.888885,47.223963,0</coordinates></Point></Placemark>
<Placemark><name>Plaiul Sasului</name><description>Nume: Plaiul Sasului, Tip: sas, Nivel: 4, Județ: Neamt, Formă: Înălțime, ID: 9124 <br /><b>Variante</b><br />Nume: Plaiul Sasului, Hartă: PDT, Limbă: Limba română</description><Point><coordinates>26.149503,47.102208,0</coordinates></Point></Placemark>
<Placemark><name>Valea Sassului</name><description>Nume: Valea Sassului, Tip: sas, Nivel: 4, Județ: Olt, Formă: Vale, ID: 5812 <br /><b>Variante</b><br />Nume: Valea Sassului, Hartă: Austriacă, Limbă: Limba română</description><Point><coordinates>24.509163,44.473775,0</coordinates></Point></Placemark>
<Placemark><name>Valea Sasului</name><description>Nume: Valea Sasului, Tip: sas, Nivel: 4, Județ: Olt, Formă: Vale, ID: 1995 <br /><b>Variante</b><br />Nume: Valea Sasului, Hartă: Geomil 25000, Limbă: Limba română</description><Point><coordinates>24.501445,44.770694,0</coordinates></Point></Placemark>
<Placemark><name>Valea Sasului</name><description>Nume: Valea Sasului, Tip: sas, Nivel: 4, Județ: Salaj, Formă: Vale, ID: 14024 <br /><b>Variante</b><br />Nume: Valea Sasului, Hartă: Geomil 25000, Limbă: Limba română</description><Point><coordinates>23.326846,46.962272,0</coordinates></Point></Placemark>
<Placemark><name>Culmea Sasului</name><description>Nume: Culmea Sasului, Tip: sas, Nivel: 4, Județ: Sibiu, Formă: Înălțime, ID: 1165 <br /><b>Variante</b><br />Nume: Culmea Sasului, Hartă: Geomil 25000, Limbă: Limba română</description><Point><coordinates>24.158388,45.581625,0</coordinates></Point></Placemark>
<Placemark><name>Izvorul Sasului</name><description>Nume: Izvorul Sasului, Tip: sas, Nivel: 4, Județ: Sibiu, Formă: Vale, ID: 13810 <br /><b>Variante</b><br />Nume: Izvorul Sasului, Hartă: Geomil 25000, Limbă: Limba română</description><Point><coordinates>24.424933,45.631845,0</coordinates></Point></Placemark>
<Placemark><name>Pârâul Sasului</name><description>Nume: Pârâul Sasului, Tip: sas, Nivel: 4, Județ: Sibiu, Formă: Vale, ID: 7999 <br /><b>Variante</b><br />Nume: Pârâul Sasului, Hartă: PDT, Limbă: Limba română</description><Point><coordinates>24.397197,45.782547,0</coordinates></Point></Placemark>
<Placemark><name>Pârâul Sasului</name><description>Nume: Pârâul Sasului, Tip: sas, Nivel: 4, Județ: Sibiu, Formă: Vale, ID: 12500 <br /><b>Variante</b><br />Nume: Pârâul Sasului, Hartă: PDT, Limbă: Limba română</description><Point><coordinates>24.370857,45.644480,0</coordinates></Point></Placemark>
<Placemark><name>Alma săsasca</name><description>Nume: Alma săsasca, Tip: săsească, Nivel: 4, Județ: Sibiu, Formă: Localitate, ID: 10536 <br /><b>Variante</b><br />Nume: Alma săsasca, Hartă: Imperiul Habsburgic (1887), Limbă: Limba română</description><Point><coordinates>24.478056,46.212822,0</coordinates></Point></Placemark>
<Placemark><name>Casa bisericii Săsești</name><description>Nume: Casa bisericii Săsești, Tip: săsesc, Nivel: 4, Județ: Sibiu, Formă: Altele, ID: 8618 <br /><b>Variante</b><br />Nume: Casa bisericii Săsești, Hartă: PDT, Limbă: Limba română</description><Point><coordinates>24.612199,46.051592,0</coordinates></Point></Placemark>
<Placemark><name>Noul Săsesc</name><description>Nume: Noul Săsesc, Tip: săsesc, Nivel: 4, Județ: Sibiu, Formă: Localitate, ID: 8619 <br /><b>Variante</b><br />Nume: Noul Săsesc, Hartă: PDT, Limbă: Limba română</description><Point><coordinates>24.603628,46.110586,0</coordinates></Point></Placemark>
<Placemark><name>Coasta Sașilor</name><description>Nume: Coasta Sașilor, Tip: sași, Nivel: 3, Județ: Sibiu, Formă: Înălțime, ID: 11846 <br /><b>Variante</b><br />Nume: Coasta Sașilor, Hartă: Geomil 25000, Limbă: Limba română</description><Point><coordinates>24.131036,46.058013,0</coordinates></Point></Placemark>
<Placemark><name>Dosul Sașilor</name><description>Nume: Dosul Sașilor, Tip: sași, Nivel: 3, Județ: Sibiu, Formă: Înălțime, ID: 7979 <br /><b>Variante</b><br />Nume: Dosul Sașilor, Hartă: Geomil 25000, Limbă: Limba română</description><Point><coordinates>24.633811,45.813025,0</coordinates></Point></Placemark>
<Placemark><name>Lunca Sașilor</name><description>Nume: Lunca Sașilor, Tip: sași, Nivel: 3, Județ: Sibiu, Formă: Apă-deal-câmpie, ID: 11242 <br /><b>Variante</b><br />Nume: Lunca Sașilor, Hartă: ANCPI, Limbă: Limba română</description><Point><coordinates>24.415622,46.180735,0</coordinates></Point></Placemark>
<Placemark><name>Pitsora Sassilor</name><description>Nume: Pitsora Sassilor, Tip: sași, Nivel: 3, Județ: Sibiu, Formă: Înălțime, ID: 10446 <br /><b>Variante</b><br />Nume: Pitsora Sassilor, Hartă: Transilvania (1869-1870), Limbă: Limba română</description><Point><coordinates>24.298904,45.689499,0</coordinates></Point></Placemark>
<Placemark><name>Sachsenhausen</name><description>Nume: Sachsenhausen, Tip: sași, Nivel: 3, Județ: Sibiu, Formă: Localitate, ID: 10450 <br /><b>Variante</b><br />Nume: Sachsenhausen, Hartă: Transilvania (1869-1870), Limbă: Limba germană</description><Point><coordinates>24.603168,45.848585,0</coordinates></Point></Placemark>
<Placemark><name>Șuvara Sașilor</name><description>Nume: Șuvara Sașilor, Tip: sași, Nivel: 3, Județ: Sibiu, Formă: Altele, ID: 15030 <br /><b>Variante</b><br />Nume: Șuvara Sașilor, Hartă: ANCPI, Limbă: Limba română</description><Point><coordinates>24.227645,45.671964,0</coordinates></Point></Placemark>
<Placemark><name>Culmea Sasului</name><description>Nume: Culmea Sasului, Tip: sas, Nivel: 4, Județ: Suceava, Formă: Înălțime, ID: 6327 <br /><b>Variante</b><br />Nume: Culmea Sasului, Hartă: Geomil 25000, Limbă: Limba română</description><Point><coordinates>25.737201,47.535958,0</coordinates></Point></Placemark>
<Placemark><name>Valea Sasului</name><description>Nume: Valea Sasului, Tip: sas, Nivel: 4, Județ: Teleorman, Formă: Vale, ID: 1356 <br /><b>Variante</b><br />Nume: Valea Sasului, Hartă: Geomil 25000, Limbă: Limba română<br />Nume: Valea Sasului, Hartă: PDT, Limbă: Limba română</description><Point><coordinates>24.835097,43.910629,0</coordinates></Point></Placemark>
<Placemark><name>Muchia Sasului</name><description>Nume: Muchia Sasului, Tip: sas, Nivel: 4, Județ: Valcea, Formă: Înălțime, ID: 11380 <br /><b>Variante</b><br />Nume: Muchia Sasului, Hartă: ANCPI, Limbă: Limba română</description><Point><coordinates>24.362459,45.486443,0</coordinates></Point></Placemark>
<Placemark><name>Valea Sasu Mare</name><description>Nume: Valea Sasu Mare, Tip: sas, Nivel: 4, Județ: Valcea, Formă: Vale, ID: 2951 <br /><b>Variante</b><br />Nume: Valea Sasu Mare, Hartă: Geomil 25000, Limbă: Limba română</description><Point><coordinates>24.078647,44.681379,0</coordinates></Point></Placemark>
<Placemark><name>Sășcioara</name><description>Nume: Sășcioara, Tip: săscioara, Nivel: 4, Județ: Valcea, Formă: Localitate, ID: 9386 <br /><b>Variante</b><br />Nume: Sășcioara, Hartă: Geomil 25000, Limbă: Limba română<br />Nume: Sascioara, Hartă: PDT, Limbă: Limba română<br />Nume: Sâșcioara, Hartă: Austriacă, Limbă: Limba română</description><Point><coordinates>23.868654,44.797878,0</coordinates></Point></Placemark>
<Placemark><name>Valea Sașilor</name><description>Nume: Valea Sașilor, Tip: sași, Nivel: 3, Județ: Valcea, Formă: Vale, ID: 1450 <br /><b>Variante</b><br />Nume: Valea Sașilor, Hartă: Geomil 25000, Limbă: Limba română</description><Point><coordinates>24.380093,45.363225,0</coordinates></Point></Placemark>
<Placemark><name>Sasu</name><description>Nume: Sasu, Tip: sas, Nivel: 4, Județ: Vrancea, Formă: Localitate, ID: 9529 <br /><b>Variante</b><br />Nume: Sasu, Hartă: Moldova (1892-1898), Limbă: Limba română</description><Point><coordinates>27.330282,45.709620,0</coordinates></Point></Placemark></Document></kml>