<?xml version="1.0" encoding="UTF-8"?><kml xmlns="http://www.opengis.net/kml/2.2"><Document><Placemark><name>Dealul Ciutei</name><description>Nume: Dealul Ciutei, Tip: ciută, Nivel: 3, Județ: Dolj, Formă: Deal, ID: 122 <br /><b>Variante</b><br />Nume: Dealul Ciutei, Hartă: Geomil 25000, Limbă: Limba română</description><Point><coordinates>23.220879,44.430848</coordinates></Point></Placemark>
<Placemark><name>Dealu Ciuta</name><description>Nume: Dealu Ciuta, Tip: ciută, Nivel: 3, Județ: Mehedinti, Formă: Deal, ID: 197 <br /><b>Variante</b><br />Nume: Dealu Ciuta, Hartă: Geomil 25000, Limbă: Limba română</description><Point><coordinates>22.832615,44.984344</coordinates></Point></Placemark>
<Placemark><name>Valea Ciuta</name><description>Nume: Valea Ciuta, Tip: ciută, Nivel: 3, Județ: Gorj, Formă: Vale, ID: 224 <br /><b>Variante</b><br />Nume: Valea Ciuta, Hartă: Geomil 25000, Limbă: Limba română</description><Point><coordinates>22.817871,45.113143</coordinates></Point></Placemark>
<Placemark><name>Culmea Ciutei</name><description>Nume: Culmea Ciutei, Tip: ciută, Nivel: 3, Județ: Mehedinti, Formă: Înălțime, ID: 434 <br /><b>Variante</b><br />Nume: Culmea Ciutei, Hartă: Geomil 25000, Limbă: Limba română</description><Point><coordinates>23.014150,44.525565</coordinates></Point></Placemark>
<Placemark><name>Culmea Ciutei</name><description>Nume: Culmea Ciutei, Tip: ciută, Nivel: 3, Județ: Prahova, Formă: Înălțime, ID: 577 <br /><b>Variante</b><br />Nume: Culmea Ciutei, Hartă: Geomil 25000, Limbă: Limba română</description><Point><coordinates>25.604757,45.365875</coordinates></Point></Placemark>
<Placemark><name>Valea Ciutei</name><description>Nume: Valea Ciutei, Tip: ciută, Nivel: 3, Județ: Maramures, Formă: Vale, ID: 910 <br /><b>Variante</b><br />Nume: Valea Ciutei, Hartă: Geomil 25000, Limbă: Limba română</description><Point><coordinates>23.986448,47.761383</coordinates></Point></Placemark>
<Placemark><name>Pădurea Ciuta</name><description>Nume: Pădurea Ciuta, Tip: ciută, Nivel: 3, Județ: Bihor, Formă: Pădure, ID: 981 <br /><b>Variante</b><br />Nume: Pădurea Ciuta, Hartă: Geomil 25000, Limbă: Limba română</description><Point><coordinates>22.075901,46.626647</coordinates></Point></Placemark>
<Placemark><name>Gruiu Ciutei</name><description>Nume: Gruiu Ciutei, Tip: ciută, Nivel: 3, Județ: Bihor, Formă: Înălțime, ID: 1077 <br /><b>Variante</b><br />Nume: Gruiu Ciutei, Hartă: Geomil 25000, Limbă: Limba română</description><Point><coordinates>22.260430,46.927731</coordinates></Point></Placemark>
<Placemark><name>Ciuta</name><description>Nume: Ciuta, Tip: ciută, Nivel: 3, Județ: Dolj, Formă: Înălțime, ID: 1303 <br /><b>Variante</b><br />Nume: Ciuta, Hartă: Geomil 25000, Limbă: Limba română</description><Point><coordinates>23.709115,43.939793</coordinates></Point></Placemark>
<Placemark><name>Vârfu Ciutei</name><description>Nume: Vârfu Ciutei, Tip: ciută, Nivel: 3, Județ: Dambovita, Formă: Înălțime, ID: 1530 <br /><b>Variante</b><br />Nume: Vârfu Ciutei, Hartă: Geomil 25000, Limbă: Limba română</description><Point><coordinates>25.317039,44.979729</coordinates></Point></Placemark>
<Placemark><name>Piatra Ciutei</name><description>Nume: Piatra Ciutei, Tip: ciută, Nivel: 3, Județ: Vrancea, Formă: Înălțime, ID: 2794 <br /><b>Variante</b><br />Nume: Piatra Ciutei, Hartă: Geomil 25000, Limbă: Limba română</description><Point><coordinates>26.596000,45.947769</coordinates></Point></Placemark>
<Placemark><name>Măgura Ciutei</name><description>Nume: Măgura Ciutei, Tip: ciută, Nivel: 3, Județ: Olt, Formă: Înălțime, ID: 3029 <br /><b>Variante</b><br />Nume: Măgura Ciutei, Hartă: Geomil 25000, Limbă: Limba română</description><Point><coordinates>24.415116,43.769895</coordinates></Point></Placemark>
<Placemark><name>Grindul Ciutii</name><description>Nume: Grindul Ciutii, Tip: ciută, Nivel: 3, Județ: Calarasi, Formă: Altele, ID: 3307 <br /><b>Variante</b><br />Nume: Grindul Ciutii, Hartă: Geomil 25000, Limbă: Limba română</description><Point><coordinates>27.448217,44.341226</coordinates></Point></Placemark>
<Placemark><name>Viroaga Ciuta</name><description>Nume: Viroaga Ciuta, Tip: ciută, Nivel: 3, Județ: Teleorman, Formă: Altele, ID: 3335 <br /><b>Variante</b><br />Nume: Viroaga Ciuta, Hartă: PDT, Limbă: Limba română</description><Point><coordinates>24.759824,43.748577</coordinates></Point></Placemark>
<Placemark><name>Valea Ciutei</name><description>Nume: Valea Ciutei, Tip: ciută, Nivel: 3, Județ: Gorj, Formă: Vale, ID: 3674 <br /><b>Variante</b><br />Nume: Valea Ciutei, Hartă: PDT, Limbă: Limba română</description><Point><coordinates>22.978571,44.847617</coordinates></Point></Placemark>
<Placemark><name>Piscul Ciutii</name><description>Nume: Piscul Ciutii, Tip: ciută, Nivel: 3, Județ: Brasov, Formă: Înălțime, ID: 4025 <br /><b>Variante</b><br />Nume: Piscul Ciutii, Hartă: PDT, Limbă: Limba română</description><Point><coordinates>25.141955,45.727488</coordinates></Point></Placemark>
<Placemark><name>Poiana Ciutei</name><description>Nume: Poiana Ciutei, Tip: ciută, Nivel: 3, Județ: Bacau, Formă: Poiană, ID: 5322 <br /><b>Variante</b><br />Nume: Poiana Ciutei, Hartă: PDT, Limbă: Limba română</description><Point><coordinates>26.531175,46.308426</coordinates></Point></Placemark>
<Placemark><name>Valea Ciutei</name><description>Nume: Valea Ciutei, Tip: ciută, Nivel: 3, Județ: Alba, Formă: Vale, ID: 5582 <br /><b>Variante</b><br />Nume: Valea Ciutei, Hartă: Geomil 25000, Limbă: Limba română</description><Point><coordinates>23.085654,46.244890</coordinates></Point></Placemark>
<Placemark><name>Tâlva Ciutii</name><description>Nume: Tâlva Ciutii, Tip: ciută, Nivel: 3, Județ: Caras Severin, Formă: Înălțime, ID: 8501 <br /><b>Variante</b><br />Nume: Tâlva Ciutii, Hartă: PDT, Limbă: Limba română<br />Nume: Tâlva Ciutii, Hartă: Geomil 25000, Limbă: Limba română</description><Point><coordinates>22.012500,44.751625</coordinates></Point></Placemark>
<Placemark><name>Dealul Ciutei</name><description>Nume: Dealul Ciutei, Tip: ciută, Nivel: 3, Județ: Galati, Formă: Deal, ID: 9749 <br /><b>Variante</b><br />Nume: Dealul Ciutei, Hartă: Geomil 25000, Limbă: Limba română</description><Point><coordinates>27.815368,46.077949</coordinates></Point></Placemark>
<Placemark><name>Piscul Ciutei</name><description>Nume: Piscul Ciutei, Tip: ciută, Nivel: 3, Județ: Vrancea, Formă: Înălțime, ID: 11306 <br /><b>Variante</b><br />Nume: Piscul Ciutei, Hartă: Geomil 25000, Limbă: Limba română</description><Point><coordinates>26.804068,46.053381</coordinates></Point></Placemark>
<Placemark><name>Poiana Ciutei</name><description>Nume: Poiana Ciutei, Tip: ciută, Nivel: 3, Județ: Caras Severin, Formă: Poiană, ID: 13478 <br /><b>Variante</b><br />Nume: Poiana Ciutei, Hartă: PDT, Limbă: Limba română</description><Point><coordinates>22.171618,45.181528</coordinates></Point></Placemark></Document></kml>