<?xml version="1.0" encoding="UTF-8"?><kml xmlns="http://www.opengis.net/kml/2.2"><Document><Placemark><name>Cioranca</name><description>Nume: Cioranca, Tip: cioranca, Nivel: 3, Județ: Buzau, Formă: Localitate, ID: 14658 <br /><b>Variante</b><br />Nume: Cioranca, Hartă: PDT, Limbă: Limba română</description><Point><coordinates>26.715465,44.987188,0</coordinates></Point></Placemark>
<Placemark><name>Valea Ciorani</name><description>Nume: Valea Ciorani, Tip: ciorani, Nivel: 3, Județ: Calarasi, Formă: Vale, ID: 14654 <br /><b>Variante</b><br />Nume: Valea Ciorani, Hartă: PDT, Limbă: Limba română</description><Point><coordinates>26.758036,44.393474,0</coordinates></Point></Placemark>
<Placemark><name>Ciorogârla</name><description>Nume: Ciorogârla, Tip: ciorogârla, Nivel: 3, Județ: Giurgiu, Formă: Vale, ID: 14655 <br /><b>Variante</b><br />Nume: Ciorogârla, Hartă: ANCPI, Limbă: Limba română</description><Point><coordinates>25.824852,44.500027,0</coordinates></Point></Placemark>
<Placemark><name>Ciorani de jos</name><description>Nume: Ciorani de jos, Tip: ciorani, Nivel: 3, Județ: Prahova, Formă: Localitate, ID: 14656 <br /><b>Variante</b><br />Nume: Ciorani de jos, Hartă: Austriacă, Limbă: Limba română</description><Point><coordinates>26.410370,44.819398,0</coordinates></Point></Placemark>
<Placemark><name>Ciorani</name><description>Nume: Ciorani, Tip: ciorani, Nivel: 3, Județ: Vrancea, Formă: Localitate, ID: 14657 <br /><b>Variante</b><br />Nume: Ciorani, Hartă: PDT, Limbă: Limba română</description><Point><coordinates>27.215656,45.987715,0</coordinates></Point></Placemark></Document></kml>