<?xml version="1.0" encoding="UTF-8"?><kml xmlns="http://www.opengis.net/kml/2.2"><Document><Placemark><name>Cioranca</name><description>Nume: Cioranca, Tip: cioranca, Nivel: 3, Județ: Buzau, Formă: Localitate, ID: 14658 <br /><b>Variante</b><br />Nume: Cioranca, Hartă: PDT, Limbă: Limba română</description><Point><coordinates>26.715465,44.987188,0</coordinates></Point></Placemark>
<Placemark><name>Valea Ciorani</name><description>Nume: Valea Ciorani, Tip: ciorani, Nivel: 3, Județ: Calarasi, Formă: Vale, ID: 14654 <br /><b>Variante</b><br />Nume: Valea Ciorani, Hartă: PDT, Limbă: Limba română</description><Point><coordinates>26.758036,44.393474,0</coordinates></Point></Placemark>
<Placemark><name>Ciorăști</name><description>Nume: Ciorăști, Tip: ciorăști, Nivel: 3, Județ: Galati, Formă: Localitate, ID: 14660 <br /><b>Variante</b><br />Nume: Ciorăști, Hartă: PDT, Limbă: Limba română</description><Point><coordinates>27.449968,46.114067,0</coordinates></Point></Placemark>
<Placemark><name>Cioranului B.</name><description>Nume: Cioranului B., Tip: cioran, Nivel: 3, Județ: Giurgiu, Formă: Apă-deal-câmpie, ID: 14759 <br /><b>Variante</b><br />Nume: Cioranului B., Hartă: Austriacă, Limbă: Limba română</description><Point><coordinates>26.170697,44.021976,0</coordinates></Point></Placemark>
<Placemark><name>Ciorogârla</name><description>Nume: Ciorogârla, Tip: ciorogârla, Nivel: 3, Județ: Giurgiu, Formă: Vale, ID: 14655 <br /><b>Variante</b><br />Nume: Ciorogârla, Hartă: ANCPI, Limbă: Limba română</description><Point><coordinates>25.824852,44.500027,0</coordinates></Point></Placemark>
<Placemark><name>Dealul Cioroaia</name><description>Nume: Dealul Cioroaia, Tip: cioroaia (turanic), Nivel: 3, Județ: Iasi, Formă: Deal, ID: 14928 <br /><b>Variante</b><br />Nume: Dealul Cioroaia, Hartă: PDT, Limbă: Limba română</description><Point><coordinates>27.707510,47.124963,0</coordinates></Point></Placemark>
<Placemark><name>Ciorani de jos</name><description>Nume: Ciorani de jos, Tip: ciorani, Nivel: 3, Județ: Prahova, Formă: Localitate, ID: 14656 <br /><b>Variante</b><br />Nume: Ciorani de jos, Hartă: Austriacă, Limbă: Limba română</description><Point><coordinates>26.410370,44.819398,0</coordinates></Point></Placemark>
<Placemark><name>Valea lui Ciora</name><description>Nume: Valea lui Ciora, Tip: ciora, Nivel: 3, Județ: Teleorman, Formă: Vale, ID: 14824 <br /><b>Variante</b><br />Nume: Valea lui Ciora, Hartă: PDT, Limbă: Limba română</description><Point><coordinates>24.908624,44.376316,0</coordinates></Point></Placemark>
<Placemark><name>Dealul Cioran</name><description>Nume: Dealul Cioran, Tip: cioran, Nivel: 3, Județ: Vaslui, Formă: Deal, ID: 14741 <br /><b>Variante</b><br />Nume: Dealul Cioran, Hartă: ANCPI, Limbă: Limba română</description><Point><coordinates>27.800147,46.494560,0</coordinates></Point></Placemark>
<Placemark><name>Dealul Cioranilor</name><description>Nume: Dealul Cioranilor, Tip: ciorani, Nivel: 3, Județ: Vaslui, Formă: Deal, ID: 14829 <br /><b>Variante</b><br />Nume: Dealul Cioranilor, Hartă: PDT, Limbă: Limba română</description><Point><coordinates>27.957800,46.223248,0</coordinates></Point></Placemark>
<Placemark><name>Ciorani</name><description>Nume: Ciorani, Tip: ciorani, Nivel: 3, Județ: Vrancea, Formă: Localitate, ID: 14657 <br /><b>Variante</b><br />Nume: Ciorani, Hartă: PDT, Limbă: Limba română</description><Point><coordinates>27.215656,45.987715,0</coordinates></Point></Placemark></Document></kml>