<?xml version="1.0" encoding="UTF-8"?><kml xmlns="http://www.opengis.net/kml/2.2"><Document><Placemark><name>D. Priseczi</name><description>Nume: D. Priseczi, Tip: prisacă, Nivel: 3, Județ: Alba, Formă: Deal, ID: 10520 <br /><b>Variante</b><br />Nume: D. Priseczi, Hartă: Transilvania (1869-1870), Limbă: Limba română</description><Point><coordinates>23.202319,46.075874,0</coordinates></Point></Placemark>
<Placemark><name>Dealu Prisăcii</name><description>Nume: Dealu Prisăcii, Tip: prisacă, Nivel: 3, Județ: Alba, Formă: Deal, ID: 1135 <br /><b>Variante</b><br />Nume: Dealu Prisăcii, Hartă: Geomil 25000, Limbă: Limba română</description><Point><coordinates>23.407166,45.779812,0</coordinates></Point></Placemark>
<Placemark><name>Pârâu Prisăcii</name><description>Nume: Pârâu Prisăcii, Tip: prisacă, Nivel: 3, Județ: Alba, Formă: Vale, ID: 10243 <br /><b>Variante</b><br />Nume: Pârâu Prisăcii, Hartă: Geomil 25000, Limbă: Limba română</description><Point><coordinates>22.801843,46.358221,0</coordinates></Point></Placemark>
<Placemark><name>Pârâul Prisecii</name><description>Nume: Pârâul Prisecii, Tip: prisacă, Nivel: 3, Județ: Alba, Formă: Vale, ID: 9394 <br /><b>Variante</b><br />Nume: Pârâul Prisecii, Hartă: PDT, Limbă: Limba română</description><Point><coordinates>23.001843,46.216664,0</coordinates></Point></Placemark>
<Placemark><name>Presaca Ampoiului</name><description>Nume: Presaca Ampoiului, Tip: prisacă, Nivel: 3, Județ: Alba, Formă: Localitate, ID: 11779 <br /><b>Variante</b><br />Nume: Presaca Ampoiului, Hartă: Geomil 25000, Limbă: Limba română</description><Point><coordinates>23.329227,46.098129,0</coordinates></Point></Placemark>
<Placemark><name>Preszaka B.</name><description>Nume: Preszaka B., Tip: prisacă, Nivel: 3, Județ: Alba, Formă: Înălțime, ID: 15861 <br /><b>Variante</b><br />Nume: Preszaka B., Hartă: Transilvania (1769-1773), Limbă: Limba română</description><Point><coordinates>23.033629,46.309686,0</coordinates></Point></Placemark>
<Placemark><name>Prisaca</name><description>Nume: Prisaca, Tip: prisacă, Nivel: 3, Județ: Alba, Formă: Înălțime, ID: 10441 <br /><b>Variante</b><br />Nume: Prisaca, Hartă: Transilvania (1869-1870), Limbă: Limba română</description><Point><coordinates>23.490160,46.489953,0</coordinates></Point></Placemark>
<Placemark><name>Valea Prisăcii</name><description>Nume: Valea Prisăcii, Tip: prisacă, Nivel: 3, Județ: Alba, Formă: Vale, ID: 11217 <br /><b>Variante</b><br />Nume: Valea Prisăcii, Hartă: Geomil 25000, Limbă: Limba română</description><Point><coordinates>23.564718,45.601096,0</coordinates></Point></Placemark>
<Placemark><name>Vârful Prisecii</name><description>Nume: Vârful Prisecii, Tip: prisacă, Nivel: 3, Județ: Alba, Formă: Înălțime, ID: 11831 <br /><b>Variante</b><br />Nume: Vârful Prisecii, Hartă: Geomil 25000, Limbă: Limba română</description><Point><coordinates>23.502717,46.282737,0</coordinates></Point></Placemark>
<Placemark><name>La Stupină</name><description>Nume: La Stupină, Tip: stupină, Nivel: 3, Județ: Alba, Formă: Altele, ID: 11240 <br /><b>Variante</b><br />Nume: La Stupină, Hartă: Geomil 25000, Limbă: Limba română</description><Point><coordinates>24.032038,46.030642,0</coordinates></Point></Placemark>
<Placemark><name>Stupina</name><description>Nume: Stupina, Tip: stupină, Nivel: 3, Județ: Alba, Formă: Altele, ID: 8154 <br /><b>Variante</b><br />Nume: Stupina, Hartă: PDT, Limbă: Limba română</description><Point><coordinates>23.843963,46.156052,0</coordinates></Point></Placemark>
<Placemark><name>Stupina</name><description>Nume: Stupina, Tip: stupină, Nivel: 3, Județ: Alba, Formă: Altele, ID: 8155 <br /><b>Variante</b><br />Nume: Stupina, Hartă: PDT, Limbă: Limba română</description><Point><coordinates>23.891688,46.130013,0</coordinates></Point></Placemark>
<Placemark><name>Stupina</name><description>Nume: Stupina, Tip: stupină, Nivel: 3, Județ: Alba, Formă: Altele, ID: 8635 <br /><b>Variante</b><br />Nume: Stupina, Hartă: PDT, Limbă: Limba română</description><Point><coordinates>24.132118,46.174018,0</coordinates></Point></Placemark>
<Placemark><name>Dealu Prisaca</name><description>Nume: Dealu Prisaca, Tip: prisacă, Nivel: 3, Județ: Arad, Formă: Deal, ID: 976 <br /><b>Variante</b><br />Nume: Dealu Prisaca, Hartă: Geomil 25000, Limbă: Limba română</description><Point><coordinates>22.193024,46.471238,0</coordinates></Point></Placemark>
<Placemark><name>Dealu Prisaca</name><description>Nume: Dealu Prisaca, Tip: prisacă, Nivel: 3, Județ: Arad, Formă: Deal, ID: 11523 <br /><b>Variante</b><br />Nume: Dealu Prisaca, Hartă: Geomil 25000, Limbă: Limba română</description><Point><coordinates>22.448023,46.125367,0</coordinates></Point></Placemark>
<Placemark><name>Dealul Prisaca</name><description>Nume: Dealul Prisaca, Tip: prisacă, Nivel: 3, Județ: Arad, Formă: Deal, ID: 14272 <br /><b>Variante</b><br />Nume: Dealul Prisaca, Hartă: ANCPI, Limbă: Limba română</description><Point><coordinates>22.262903,46.146493,0</coordinates></Point></Placemark>
<Placemark><name>Prisaca</name><description>Nume: Prisaca, Tip: prisacă, Nivel: 3, Județ: Arad, Formă: Altele, ID: 6263 <br /><b>Variante</b><br />Nume: Prisaca, Hartă: Geomil 25000, Limbă: Limba română<br />Nume: Prisaca, Hartă: PDT, Limbă: Limba română</description><Point><coordinates>22.542625,46.361891,0</coordinates></Point></Placemark>
<Placemark><name>Prisaca</name><description>Nume: Prisaca, Tip: prisacă, Nivel: 3, Județ: Arad, Formă: Altele, ID: 7648 <br /><b>Variante</b><br />Nume: Prisaca, Hartă: Geomil 25000, Limbă: Limba română<br />Nume: Prisaca, Hartă: PDT, Limbă: Limba română</description><Point><coordinates>22.389679,46.343815,0</coordinates></Point></Placemark>
<Placemark><name>Valea Prisaca</name><description>Nume: Valea Prisaca, Tip: prisacă, Nivel: 3, Județ: Arad, Formă: Vale, ID: 4085 <br /><b>Variante</b><br />Nume: Valea Prisaca, Hartă: PDT, Limbă: Limba română</description><Point><coordinates>22.151974,46.542127,0</coordinates></Point></Placemark>
<Placemark><name>Valea Prisaca</name><description>Nume: Valea Prisaca, Tip: prisacă, Nivel: 3, Județ: Arad, Formă: Vale, ID: 5596 <br /><b>Variante</b><br />Nume: Valea Prisaca, Hartă: Geomil 25000, Limbă: Limba română</description><Point><coordinates>22.492512,46.337375,0</coordinates></Point></Placemark>
<Placemark><name>Vârfu Prisăcii</name><description>Nume: Vârfu Prisăcii, Tip: prisacă, Nivel: 3, Județ: Arad, Formă: Înălțime, ID: 9410 <br /><b>Variante</b><br />Nume: Vârfu Prisăcii, Hartă: Geomil 25000, Limbă: Limba română</description><Point><coordinates>21.993257,46.241310,0</coordinates></Point></Placemark>
<Placemark><name>La Stupii Surdului</name><description>Nume: La Stupii Surdului, Tip: stupi, Nivel: 3, Județ: Arad, Formă: Altele, ID: 9408 <br /><b>Variante</b><br />Nume: La Stupii Surdului, Hartă: Geomil 25000, Limbă: Limba română</description><Point><coordinates>21.983609,46.281369,0</coordinates></Point></Placemark>
<Placemark><name>Dealu Stupina</name><description>Nume: Dealu Stupina, Tip: stupină, Nivel: 3, Județ: Arad, Formă: Deal, ID: 953 <br /><b>Variante</b><br />Nume: Dealu Stupina, Hartă: Geomil 25000, Limbă: Limba română</description><Point><coordinates>22.060760,46.104295,0</coordinates></Point></Placemark>
<Placemark><name>Stupina B.</name><description>Nume: Stupina B., Tip: stupină, Nivel: 3, Județ: Arad, Formă: Deal, ID: 10291 <br /><b>Variante</b><br />Nume: Stupina B., Hartă: Ungară 1869, Limbă: Limba română</description><Point><coordinates>21.749755,46.236488,0</coordinates></Point></Placemark>
<Placemark><name>Stupina Țeliorii</name><description>Nume: Stupina Țeliorii, Tip: stupină, Nivel: 3, Județ: Arad, Formă: Altele, ID: 12731 <br /><b>Variante</b><br />Nume: Stupina Țeliorii, Hartă: Geomil 25000, Limbă: Limba română</description><Point><coordinates>22.228177,46.411106,0</coordinates></Point></Placemark>
<Placemark><name>Valea Stupișnic</name><description>Nume: Valea Stupișnic, Tip: stupișnic, Nivel: 4, Județ: Arad, Formă: Vale, ID: 9418 <br /><b>Variante</b><br />Nume: Valea Stupișnic, Hartă: PDT, Limbă: Limba română</description><Point><coordinates>21.825835,46.273227,0</coordinates></Point></Placemark>
<Placemark><name>Dealul Prisaca</name><description>Nume: Dealul Prisaca, Tip: prisacă, Nivel: 3, Județ: Arges, Formă: Deal, ID: 4970 <br /><b>Variante</b><br />Nume: Dealul Prisaca, Hartă: Geomil 25000, Limbă: Limba română</description><Point><coordinates>24.890388,45.180409,0</coordinates></Point></Placemark>
<Placemark><name>Izlazul Prisecii</name><description>Nume: Izlazul Prisecii, Tip: prisacă, Nivel: 3, Județ: Arges, Formă: Altele, ID: 10202 <br /><b>Variante</b><br />Nume: Izlazul Prisecii, Hartă: Geomil 25000, Limbă: Limba română</description><Point><coordinates>24.527755,45.324769,0</coordinates></Point></Placemark>
<Placemark><name>Poiana Prisaca</name><description>Nume: Poiana Prisaca, Tip: prisacă, Nivel: 3, Județ: Arges, Formă: Poiană, ID: 14234 <br /><b>Variante</b><br />Nume: Poiana Prisaca, Hartă: PDT, Limbă: Limba română</description><Point><coordinates>24.807819,44.837449,0</coordinates></Point></Placemark>
<Placemark><name>Priseaca</name><description>Nume: Priseaca, Tip: prisacă, Nivel: 3, Județ: Arges, Formă: Înălțime, ID: 6005 <br /><b>Variante</b><br />Nume: Priseaca, Hartă: Geomil 25000, Limbă: Limba română<br />Nume: Virfu Prisiaka, Hartă: Austriacă, Limbă: Limba română<br />Nume: Muntele Priseaca, Hartă: Geomil 25000, Limbă: Limba română</description><Point><coordinates>25.210445,45.294011,0</coordinates></Point></Placemark>
<Placemark><name>Priseaca</name><description>Nume: Priseaca, Tip: prisacă, Nivel: 3, Județ: Arges, Formă: Localitate, ID: 9806 <br /><b>Variante</b><br />Nume: Priseaca, Hartă: Geomil 25000, Limbă: Limba română</description><Point><coordinates>24.844439,45.092799,0</coordinates></Point></Placemark>
<Placemark><name>Valea Priseaca</name><description>Nume: Valea Priseaca, Tip: prisacă, Nivel: 3, Județ: Arges, Formă: Vale, ID: 6898 <br /><b>Variante</b><br />Nume: Valea Priseaca, Hartă: Geomil 25000, Limbă: Limba română</description><Point><coordinates>24.804329,45.110787,0</coordinates></Point></Placemark>
<Placemark><name>Dealul Groapa Stupinei</name><description>Nume: Dealul Groapa Stupinei, Tip: stupină, Nivel: 3, Județ: Arges, Formă: Deal, ID: 11112 <br /><b>Variante</b><br />Nume: Dealul Groapa Stupinei, Hartă: PDT, Limbă: Limba română</description><Point><coordinates>24.639299,45.206683,0</coordinates></Point></Placemark>
<Placemark><name>Muchia Stupinei</name><description>Nume: Muchia Stupinei, Tip: stupină, Nivel: 3, Județ: Arges, Formă: Înălțime, ID: 5071 <br /><b>Variante</b><br />Nume: Muchia Stupinei, Hartă: PDT, Limbă: Limba română</description><Point><coordinates>24.794948,45.319224,0</coordinates></Point></Placemark>
<Placemark><name>Valea Stupina</name><description>Nume: Valea Stupina, Tip: stupină, Nivel: 3, Județ: Arges, Formă: Vale, ID: 1416 <br /><b>Variante</b><br />Nume: Valea Stupina, Hartă: Geomil 25000, Limbă: Limba română</description><Point><coordinates>24.591242,45.021600,0</coordinates></Point></Placemark>
<Placemark><name>Valea Stupina</name><description>Nume: Valea Stupina, Tip: stupină, Nivel: 3, Județ: Arges, Formă: Vale, ID: 6902 <br /><b>Variante</b><br />Nume: Valea Stupina, Hartă: Geomil 25000, Limbă: Limba română</description><Point><coordinates>24.860734,45.040378,0</coordinates></Point></Placemark>
<Placemark><name>Valea Stupinei</name><description>Nume: Valea Stupinei, Tip: stupină, Nivel: 3, Județ: Arges, Formă: Vale, ID: 1400 <br /><b>Variante</b><br />Nume: Valea Stupinei, Hartă: Geomil 25000, Limbă: Limba română</description><Point><coordinates>24.910566,44.622800,0</coordinates></Point></Placemark>
<Placemark><name>Valea Stupinei</name><description>Nume: Valea Stupinei, Tip: stupină, Nivel: 3, Județ: Arges, Formă: Vale, ID: 1428 <br /><b>Variante</b><br />Nume: Valea Stupinei, Hartă: Geomil 25000, Limbă: Limba română<br />Nume: Valea Stupinei, Hartă: PDT, Limbă: Limba română</description><Point><coordinates>24.684561,45.229082,0</coordinates></Point></Placemark>
<Placemark><name>Valea Stupinei</name><description>Nume: Valea Stupinei, Tip: stupină, Nivel: 3, Județ: Arges, Formă: Vale, ID: 4056 <br /><b>Variante</b><br />Nume: Valea Stupinei, Hartă: PDT, Limbă: Limba română</description><Point><coordinates>24.756960,45.256975,0</coordinates></Point></Placemark>
<Placemark><name>Valea Stupinei</name><description>Nume: Valea Stupinei, Tip: stupină, Nivel: 3, Județ: Arges, Formă: Vale, ID: 6897 <br /><b>Variante</b><br />Nume: Valea Stupinei, Hartă: Geomil 25000, Limbă: Limba română</description><Point><coordinates>24.793872,45.042441,0</coordinates></Point></Placemark>
<Placemark><name>Valea Stupinei</name><description>Nume: Valea Stupinei, Tip: stupină, Nivel: 3, Județ: Arges, Formă: Vale, ID: 10070 <br /><b>Variante</b><br />Nume: Valea Stupinei, Hartă: Geomil 25000, Limbă: Limba română</description><Point><coordinates>24.963297,45.271678,0</coordinates></Point></Placemark>
<Placemark><name>Valea Stupinei</name><description>Nume: Valea Stupinei, Tip: stupină, Nivel: 3, Județ: Arges, Formă: Vale, ID: 11568 <br /><b>Variante</b><br />Nume: Valea Stupinei, Hartă: Geomil 25000, Limbă: Limba română</description><Point><coordinates>24.912111,45.199136,0</coordinates></Point></Placemark>
<Placemark><name>Valea Stupinei</name><description>Nume: Valea Stupinei, Tip: stupină, Nivel: 3, Județ: Arges, Formă: Vale, ID: 12028 <br /><b>Variante</b><br />Nume: Valea Stupinei, Hartă: PDT, Limbă: Limba română</description><Point><coordinates>24.692889,44.998634,0</coordinates></Point></Placemark>
<Placemark><name>Dealul Prisaca</name><description>Nume: Dealul Prisaca, Tip: prisacă, Nivel: 3, Județ: Bacau, Formă: Deal, ID: 13860 <br /><b>Variante</b><br />Nume: Dealul Prisaca, Hartă: PDT, Limbă: Limba română</description><Point><coordinates>26.695367,46.396168,0</coordinates></Point></Placemark>
<Placemark><name>Dealul Prisăcii</name><description>Nume: Dealul Prisăcii, Tip: prisacă, Nivel: 3, Județ: Bacau, Formă: Deal, ID: 692 <br /><b>Variante</b><br />Nume: Dealul Prisăcii, Hartă: Geomil 25000, Limbă: Limba română<br />Nume: Dealul Prisăcii, Hartă: PDT, Limbă: Limba română</description><Point><coordinates>26.647995,46.146172,0</coordinates></Point></Placemark>
<Placemark><name>Dealul Prisăcii</name><description>Nume: Dealul Prisăcii, Tip: prisacă, Nivel: 3, Județ: Bacau, Formă: Deal, ID: 3904 <br /><b>Variante</b><br />Nume: Dealul Prisăcii, Hartă: Geomil 25000, Limbă: Limba română</description><Point><coordinates>27.115268,46.592444,0</coordinates></Point></Placemark>
<Placemark><name>Dealul Prisăcii</name><description>Nume: Dealul Prisăcii, Tip: prisacă, Nivel: 3, Județ: Bacau, Formă: Deal, ID: 5313 <br /><b>Variante</b><br />Nume: Dealul Prisăcii, Hartă: Geomil 25000, Limbă: Limba română<br />Nume: Dealul Prisaca, Hartă: PDT, Limbă: Limba română</description><Point><coordinates>26.782780,46.246225,0</coordinates></Point></Placemark>
<Placemark><name>Dealul Prisăcii</name><description>Nume: Dealul Prisăcii, Tip: prisacă, Nivel: 3, Județ: Bacau, Formă: Deal, ID: 7854 <br /><b>Variante</b><br />Nume: Dealul Prisăcii, Hartă: Geomil 25000, Limbă: Limba română</description><Point><coordinates>27.087166,46.481880,0</coordinates></Point></Placemark>
<Placemark><name>Dealul Prisăcii</name><description>Nume: Dealul Prisăcii, Tip: prisacă, Nivel: 3, Județ: Bacau, Formă: Deal, ID: 14124 <br /><b>Variante</b><br />Nume: Dealul Prisăcii, Hartă: Geomil 25000, Limbă: Limba română</description><Point><coordinates>27.329838,46.382653,0</coordinates></Point></Placemark>
<Placemark><name>La Prisaca</name><description>Nume: La Prisaca, Tip: prisacă, Nivel: 3, Județ: Bacau, Formă: Altele, ID: 3929 <br /><b>Variante</b><br />Nume: La Prisaca, Hartă: PDT, Limbă: Limba română</description><Point><coordinates>27.130142,46.218352,0</coordinates></Point></Placemark>
<Placemark><name>La Prisacă</name><description>Nume: La Prisacă, Tip: prisacă, Nivel: 3, Județ: Bacau, Formă: Altele, ID: 4573 <br /><b>Variante</b><br />Nume: La Prisacă, Hartă: Geomil 25000, Limbă: Limba română<br />Nume: În Priseacă, Hartă: PDT, Limbă: Limba română</description><Point><coordinates>26.679331,46.301895,0</coordinates></Point></Placemark>
<Placemark><name>La Prisaca</name><description>Nume: La Prisaca, Tip: prisacă, Nivel: 3, Județ: Bacau, Formă: Altele, ID: 15339 <br /><b>Variante</b><br />Nume: La Prisaca, Hartă: Moldova (1892-1898), Limbă: Limba română</description><Point><coordinates>27.249750,46.479489,0</coordinates></Point></Placemark>
<Placemark><name>Lanul La Prisacă</name><description>Nume: Lanul La Prisacă, Tip: prisacă, Nivel: 3, Județ: Bacau, Formă: Altele, ID: 7851 <br /><b>Variante</b><br />Nume: Lanul La Prisacă, Hartă: Geomil 25000, Limbă: Limba română</description><Point><coordinates>27.119145,46.422363,0</coordinates></Point></Placemark>
<Placemark><name>Pădurea Prisaca</name><description>Nume: Pădurea Prisaca, Tip: prisacă, Nivel: 3, Județ: Bacau, Formă: Pădure, ID: 7894 <br /><b>Variante</b><br />Nume: Pădurea Prisaca, Hartă: PDT, Limbă: Limba română</description><Point><coordinates>27.318312,46.203209,0</coordinates></Point></Placemark>
<Placemark><name>Pârâul Prisăcei</name><description>Nume: Pârâul Prisăcei, Tip: prisacă, Nivel: 3, Județ: Bacau, Formă: Vale, ID: 12775 <br /><b>Variante</b><br />Nume: Pârâul Prisăcei, Hartă: PDT, Limbă: Limba română</description><Point><coordinates>26.357412,46.448999,0</coordinates></Point></Placemark>
<Placemark><name>Prisaca</name><description>Nume: Prisaca, Tip: prisacă, Nivel: 3, Județ: Bacau, Formă: Localitate, ID: 3839 <br /><b>Variante</b><br />Nume: Prisaca, Hartă: Geomil 25000, Limbă: Limba română</description><Point><coordinates>26.717724,46.470852,0</coordinates></Point></Placemark>
<Placemark><name>Valea Prisăcii</name><description>Nume: Valea Prisăcii, Tip: prisacă, Nivel: 3, Județ: Bacau, Formă: Vale, ID: 1604 <br /><b>Variante</b><br />Nume: Valea Prisăcii, Hartă: Geomil 25000, Limbă: Limba română</description><Point><coordinates>27.211003,46.693483,0</coordinates></Point></Placemark>
<Placemark><name>Valea Stupilor</name><description>Nume: Valea Stupilor, Tip: stupi, Nivel: 3, Județ: Bacau, Formă: Vale, ID: 7892 <br /><b>Variante</b><br />Nume: Valea Stupilor, Hartă: PDT, Limbă: Limba română</description><Point><coordinates>27.250354,46.317606,0</coordinates></Point></Placemark>
<Placemark><name>La Stupină</name><description>Nume: La Stupină, Tip: stupină, Nivel: 3, Județ: Bacau, Formă: Altele, ID: 4577 <br /><b>Variante</b><br />Nume: La Stupină, Hartă: PDT, Limbă: Limba română</description><Point><coordinates>26.621607,46.289891,0</coordinates></Point></Placemark>
<Placemark><name>Valea Stupinelor</name><description>Nume: Valea Stupinelor, Tip: stupină, Nivel: 3, Județ: Bacau, Formă: Vale, ID: 11543 <br /><b>Variante</b><br />Nume: Valea Stupinelor, Hartă: Geomil 25000, Limbă: Limba română</description><Point><coordinates>27.445266,46.327416,0</coordinates></Point></Placemark>
<Placemark><name>Dealu Prisaca</name><description>Nume: Dealu Prisaca, Tip: prisacă, Nivel: 3, Județ: Bihor, Formă: Deal, ID: 995 <br /><b>Variante</b><br />Nume: Dealu Prisaca, Hartă: Geomil 25000, Limbă: Limba română<br />Nume: Dealul Prisaca, Hartă: PDT, Limbă: Limba română</description><Point><coordinates>22.427922,46.473872,0</coordinates></Point></Placemark>
<Placemark><name>La Prisacă</name><description>Nume: La Prisacă, Tip: prisacă, Nivel: 3, Județ: Bihor, Formă: Altele, ID: 5613 <br /><b>Variante</b><br />Nume: La Prisacă, Hartă: Geomil 25000, Limbă: Limba română</description><Point><coordinates>22.631654,46.401454,0</coordinates></Point></Placemark>
<Placemark><name>La Prisaca</name><description>Nume: La Prisaca, Tip: prisacă, Nivel: 3, Județ: Bihor, Formă: Altele, ID: 9402 <br /><b>Variante</b><br />Nume: La Prisaca, Hartă: PDT, Limbă: Limba română</description><Point><coordinates>22.604380,46.412625,0</coordinates></Point></Placemark>
<Placemark><name>La Priseci</name><description>Nume: La Priseci, Tip: prisacă, Nivel: 3, Județ: Bihor, Formă: Altele, ID: 10376 <br /><b>Variante</b><br />Nume: La Priseci, Hartă: PDT, Limbă: Limba română</description><Point><coordinates>22.184690,46.753343,0</coordinates></Point></Placemark>
<Placemark><name>Poiana Prisaca</name><description>Nume: Poiana Prisaca, Tip: prisacă, Nivel: 3, Județ: Bihor, Formă: Poiană, ID: 4125 <br /><b>Variante</b><br />Nume: Poiana Prisaca, Hartă: Geomil 25000, Limbă: Limba română</description><Point><coordinates>22.547095,46.713729,0</coordinates></Point></Placemark>
<Placemark><name>Prisaca</name><description>Nume: Prisaca, Tip: prisacă, Nivel: 3, Județ: Bihor, Formă: Altele, ID: 4095 <br /><b>Variante</b><br />Nume: Prisaca, Hartă: PDT, Limbă: Limba română</description><Point><coordinates>22.232017,46.604355,0</coordinates></Point></Placemark>
<Placemark><name>Prisaca</name><description>Nume: Prisaca, Tip: prisacă, Nivel: 3, Județ: Bihor, Formă: Localitate, ID: 4120 <br /><b>Variante</b><br />Nume: Prisaca, Hartă: PDT, Limbă: Limba română</description><Point><coordinates>22.220596,46.710765,0</coordinates></Point></Placemark>
<Placemark><name>Valea Prisaca</name><description>Nume: Valea Prisaca, Tip: prisacă, Nivel: 3, Județ: Bihor, Formă: Vale, ID: 2002 <br /><b>Variante</b><br />Nume: Valea Prisaca, Hartă: Geomil 25000, Limbă: Limba română</description><Point><coordinates>22.231093,46.717881,0</coordinates></Point></Placemark>
<Placemark><name>Pășunea Stupini</name><description>Nume: Pășunea Stupini, Tip: stupină, Nivel: 3, Județ: Bihor, Formă: Altele, ID: 11666 <br /><b>Variante</b><br />Nume: Pășunea Stupini, Hartă: Geomil 25000, Limbă: Limba română</description><Point><coordinates>21.552350,46.727587,0</coordinates></Point></Placemark>
<Placemark><name>Stupina</name><description>Nume: Stupina, Tip: stupină, Nivel: 3, Județ: Bihor, Formă: Altele, ID: 15332 <br /><b>Variante</b><br />Nume: Stupina, Hartă: ANCPI, Limbă: Limba română</description><Point><coordinates>21.818839,46.967481,0</coordinates></Point></Placemark>
<Placemark><name>Valea Stupinei</name><description>Nume: Valea Stupinei, Tip: stupină, Nivel: 3, Județ: Bihor, Formă: Vale, ID: 4110 <br /><b>Variante</b><br />Nume: Valea Stupinei, Hartă: Geomil 25000, Limbă: Limba română<br />Nume: Valea Stupinei, Hartă: Geomil 25000, Limbă: Limba română</description><Point><coordinates>21.967841,46.646724,0</coordinates></Point></Placemark>
<Placemark><name>Dealul Prisăcii</name><description>Nume: Dealul Prisăcii, Tip: prisacă, Nivel: 3, Județ: Bistrita Nasaud, Formă: Deal, ID: 7081 <br /><b>Variante</b><br />Nume: Dealul Prisăcii, Hartă: Geomil 25000, Limbă: Limba română</description><Point><coordinates>24.446227,47.442187,0</coordinates></Point></Placemark>
<Placemark><name>Valea Prisaca</name><description>Nume: Valea Prisaca, Tip: prisacă, Nivel: 3, Județ: Bistrita Nasaud, Formă: Vale, ID: 7125 <br /><b>Variante</b><br />Nume: Valea Prisaca, Hartă: PDT, Limbă: Limba română</description><Point><coordinates>24.420941,47.264882,0</coordinates></Point></Placemark>
<Placemark><name>Valea Prisăcii</name><description>Nume: Valea Prisăcii, Tip: prisacă, Nivel: 3, Județ: Bistrita Nasaud, Formă: Vale, ID: 9864 <br /><b>Variante</b><br />Nume: Valea Prisăcii, Hartă: Geomil 25000, Limbă: Limba română</description><Point><coordinates>24.653701,47.337427,0</coordinates></Point></Placemark>
<Placemark><name>Valea Prisăcilor</name><description>Nume: Valea Prisăcilor, Tip: prisacă, Nivel: 3, Județ: Bistrita Nasaud, Formă: Vale, ID: 7089 <br /><b>Variante</b><br />Nume: Valea Prisăcilor, Hartă: Geomil 25000, Limbă: Limba română</description><Point><coordinates>24.129427,47.344557,0</coordinates></Point></Placemark>
<Placemark><name>Vârful Prisăcii</name><description>Nume: Vârful Prisăcii, Tip: prisacă, Nivel: 3, Județ: Bistrita Nasaud, Formă: , ID: 4520 <br /><b>Variante</b><br />Nume: Vârful Prisăcii, Hartă: Geomil 25000, Limbă: Limba română</description><Point><coordinates>24.624345,47.308152,0</coordinates></Point></Placemark>
<Placemark><name>Valea Stupului</name><description>Nume: Valea Stupului, Tip: stupi, Nivel: 3, Județ: Bistrita Nasaud, Formă: Vale, ID: 7091 <br /><b>Variante</b><br />Nume: Valea Stupului, Hartă: Geomil 25000, Limbă: Limba română</description><Point><coordinates>24.195846,47.407504,0</coordinates></Point></Placemark>
<Placemark><name>Dealul Stupinelor</name><description>Nume: Dealul Stupinelor, Tip: stupină, Nivel: 3, Județ: Bistrita Nasaud, Formă: Deal, ID: 5462 <br /><b>Variante</b><br />Nume: Dealul Stupinelor, Hartă: Geomil 25000, Limbă: Limba română</description><Point><coordinates>24.462333,46.842705,0</coordinates></Point></Placemark>
<Placemark><name>Stupini</name><description>Nume: Stupini, Tip: stupină, Nivel: 3, Județ: Bistrita Nasaud, Formă: Localitate, ID: 5477 <br /><b>Variante</b><br />Nume: Stupini, Hartă: Geomil 25000, Limbă: Limba română</description><Point><coordinates>24.379303,46.875471,0</coordinates></Point></Placemark>
<Placemark><name>Coasta Prisăcii</name><description>Nume: Coasta Prisăcii, Tip: prisacă, Nivel: 3, Județ: Botosani, Formă: Înălțime, ID: 2379 <br /><b>Variante</b><br />Nume: Coasta Prisăcii, Hartă: Geomil 25000, Limbă: Limba română</description><Point><coordinates>26.982172,47.738966,0</coordinates></Point></Placemark>
<Placemark><name>Dealul Prisaca</name><description>Nume: Dealul Prisaca, Tip: prisacă, Nivel: 3, Județ: Botosani, Formă: Deal, ID: 6668 <br /><b>Variante</b><br />Nume: Dealul Prisaca, Hartă: PDT, Limbă: Limba română<br />Nume: Dealul Prisăcii, Hartă: Geomil 25000, Limbă: Limba română</description><Point><coordinates>27.014710,47.709256,0</coordinates></Point></Placemark>
<Placemark><name>Dealul Prisăci</name><description>Nume: Dealul Prisăci, Tip: prisacă, Nivel: 3, Județ: Botosani, Formă: Deal, ID: 13932 <br /><b>Variante</b><br />Nume: Dealul Prisăci, Hartă: Moldova (1892-1898), Limbă: Limba română</description><Point><coordinates>26.809824,47.676246,0</coordinates></Point></Placemark>
<Placemark><name>Dealul Prisăcii</name><description>Nume: Dealul Prisăcii, Tip: prisacă, Nivel: 3, Județ: Botosani, Formă: Deal, ID: 1757 <br /><b>Variante</b><br />Nume: Dealul Prisăcii, Hartă: Geomil 25000, Limbă: Limba română</description><Point><coordinates>26.793274,47.581428,0</coordinates></Point></Placemark>
<Placemark><name>Dealul Prisăcii</name><description>Nume: Dealul Prisăcii, Tip: prisacă, Nivel: 3, Județ: Botosani, Formă: Deal, ID: 2313 <br /><b>Variante</b><br />Nume: Dealul Prisăcii, Hartă: Geomil 25000, Limbă: Limba română</description><Point><coordinates>26.378050,48.011143,0</coordinates></Point></Placemark>
<Placemark><name>Dealul Prisăcii</name><description>Nume: Dealul Prisăcii, Tip: prisacă, Nivel: 3, Județ: Botosani, Formă: Deal, ID: 2377 <br /><b>Variante</b><br />Nume: Dealul Prisăcii, Hartă: Geomil 25000, Limbă: Limba română</description><Point><coordinates>27.035143,47.786465,0</coordinates></Point></Placemark>
<Placemark><name>Dealul Prisăcii</name><description>Nume: Dealul Prisăcii, Tip: prisacă, Nivel: 3, Județ: Botosani, Formă: Deal, ID: 11402 <br /><b>Variante</b><br />Nume: Dealul Prisăcii, Hartă: ANCPI, Limbă: Limba română</description><Point><coordinates>26.873789,47.639694,0</coordinates></Point></Placemark>
<Placemark><name>Hârtopul Prisăcii</name><description>Nume: Hârtopul Prisăcii, Tip: prisacă, Nivel: 3, Județ: Botosani, Formă: Altele, ID: 2426 <br /><b>Variante</b><br />Nume: Hârtopul Prisăcii, Hartă: Geomil 25000, Limbă: Limba română</description><Point><coordinates>27.083101,47.736616,0</coordinates></Point></Placemark>
<Placemark><name>Jazu de la Prisacă</name><description>Nume: Jazu de la Prisacă, Tip: prisacă, Nivel: 3, Județ: Botosani, Formă: Apă-deal-câmpie, ID: 6672 <br /><b>Variante</b><br />Nume: Jazu de la Prisacă, Hartă: PDT, Limbă: Limba română</description><Point><coordinates>26.862564,47.901634,0</coordinates></Point></Placemark>
<Placemark><name>La Prisacă</name><description>Nume: La Prisacă, Tip: prisacă, Nivel: 3, Județ: Botosani, Formă: Altele, ID: 1816 <br /><b>Variante</b><br />Nume: La Prisacă, Hartă: Geomil 25000, Limbă: Limba română</description><Point><coordinates>26.867344,47.996257,0</coordinates></Point></Placemark>
<Placemark><name>La Prisaca</name><description>Nume: La Prisaca, Tip: prisacă, Nivel: 3, Județ: Botosani, Formă: Altele, ID: 2006 <br /><b>Variante</b><br />Nume: La Prisaca, Hartă: Geomil 25000, Limbă: Limba română<br />Nume: Dealul la Prisacă, Hartă: PDT, Limbă: Limba română</description><Point><coordinates>26.702345,48.225797,0</coordinates></Point></Placemark>
<Placemark><name>La Prisacă</name><description>Nume: La Prisacă, Tip: prisacă, Nivel: 3, Județ: Botosani, Formă: Altele, ID: 2331 <br /><b>Variante</b><br />Nume: La Prisacă, Hartă: Geomil 25000, Limbă: Limba română<br />Nume: Valea la Prisacă, Hartă: PDT, Limbă: Limba română</description><Point><coordinates>26.820429,48.142109,0</coordinates></Point></Placemark>
<Placemark><name>La Prisacă</name><description>Nume: La Prisacă, Tip: prisacă, Nivel: 3, Județ: Botosani, Formă: Altele, ID: 2424 <br /><b>Variante</b><br />Nume: La Prisacă, Hartă: Geomil 25000, Limbă: Limba română</description><Point><coordinates>27.145812,47.697238,0</coordinates></Point></Placemark>
<Placemark><name>La Prisacă</name><description>Nume: La Prisacă, Tip: prisacă, Nivel: 3, Județ: Botosani, Formă: Altele, ID: 6664 <br /><b>Variante</b><br />Nume: La Prisacă, Hartă: PDT, Limbă: Limba română</description><Point><coordinates>27.142633,47.692844,0</coordinates></Point></Placemark>
<Placemark><name>La Prisaca Popii</name><description>Nume: La Prisaca Popii, Tip: prisacă, Nivel: 3, Județ: Botosani, Formă: Altele, ID: 11404 <br /><b>Variante</b><br />Nume: La Prisaca Popii, Hartă: Geomil 25000, Limbă: Limba română</description><Point><coordinates>26.528579,47.805771,0</coordinates></Point></Placemark>
<Placemark><name>Poeana la Prisaca</name><description>Nume: Poeana la Prisaca, Tip: prisacă, Nivel: 3, Județ: Botosani, Formă: Poiană, ID: 14587 <br /><b>Variante</b><br />Nume: Poeana la Prisaca, Hartă: PDT, Limbă: Limba română</description><Point><coordinates>26.654963,47.615285,0</coordinates></Point></Placemark>
<Placemark><name>Poiana Prisăcei</name><description>Nume: Poiana Prisăcei, Tip: prisacă, Nivel: 3, Județ: Botosani, Formă: Poiană, ID: 14581 <br /><b>Variante</b><br />Nume: Poiana Prisăcei, Hartă: PDT, Limbă: Limba română</description><Point><coordinates>26.667849,47.525813,0</coordinates></Point></Placemark>
<Placemark><name>Prisaca</name><description>Nume: Prisaca, Tip: prisacă, Nivel: 3, Județ: Botosani, Formă: Înălțime, ID: 14748 <br /><b>Variante</b><br />Nume: Prisaca, Hartă: ANCPI, Limbă: Limba română</description><Point><coordinates>26.646226,47.706561,0</coordinates></Point></Placemark>
<Placemark><name>Prisaca Bădărăilor</name><description>Nume: Prisaca Bădărăilor, Tip: prisacă, Nivel: 3, Județ: Botosani, Formă: Altele, ID: 8932 <br /><b>Variante</b><br />Nume: Prisaca Bădărăilor, Hartă: PDT, Limbă: Limba română</description><Point><coordinates>27.341326,47.580134,0</coordinates></Point></Placemark>
<Placemark><name>Valea la Prisaca</name><description>Nume: Valea la Prisaca, Tip: prisacă, Nivel: 3, Județ: Botosani, Formă: Vale, ID: 14602 <br /><b>Variante</b><br />Nume: Valea la Prisacă, Hartă: PDT, Limbă: Limba română</description><Point><coordinates>26.673324,48.173041,0</coordinates></Point></Placemark>
<Placemark><name>Valea Prisaca</name><description>Nume: Valea Prisaca, Tip: prisacă, Nivel: 3, Județ: Botosani, Formă: Vale, ID: 3579 <br /><b>Variante</b><br />Nume: Valea Prisaca, Hartă: PDT, Limbă: Limba română</description><Point><coordinates>26.666068,48.005887,0</coordinates></Point></Placemark>
<Placemark><name>Valea Prisaca</name><description>Nume: Valea Prisaca, Tip: prisacă, Nivel: 3, Județ: Botosani, Formă: Vale, ID: 7770 <br /><b>Variante</b><br />Nume: Valea Prisaca, Hartă: PDT, Limbă: Limba română</description><Point><coordinates>26.592874,47.730158,0</coordinates></Point></Placemark>
<Placemark><name>Valea Prisaca Popei</name><description>Nume: Valea Prisaca Popei, Tip: prisacă, Nivel: 3, Județ: Botosani, Formă: Vale, ID: 14898 <br /><b>Variante</b><br />Nume: Valea Prisaca Popei, Hartă: PDT, Limbă: Limba română</description><Point><coordinates>26.915084,47.501058,0</coordinates></Point></Placemark>
<Placemark><name>Valea Prisaca Popii</name><description>Nume: Valea Prisaca Popii, Tip: prisacă, Nivel: 3, Județ: Botosani, Formă: Vale, ID: 12756 <br /><b>Variante</b><br />Nume: Valea Prisaca Popii, Hartă: Geomil 25000, Limbă: Limba română</description><Point><coordinates>26.628379,47.897607,0</coordinates></Point></Placemark>
<Placemark><name>Valea Prisaca Șchiopului</name><description>Nume: Valea Prisaca Șchiopului, Tip: prisacă, Nivel: 3, Județ: Botosani, Formă: Vale, ID: 2429 <br /><b>Variante</b><br />Nume: Valea Prisaca Șchiopului, Hartă: Geomil 25000, Limbă: Limba română</description><Point><coordinates>27.190313,47.662453,0</coordinates></Point></Placemark>
<Placemark><name>Valea Prisăcii</name><description>Nume: Valea Prisăcii, Tip: prisacă, Nivel: 3, Județ: Botosani, Formă: Vale, ID: 1805 <br /><b>Variante</b><br />Nume: Valea Prisăcii, Hartă: Geomil 25000, Limbă: Limba română</description><Point><coordinates>26.434501,47.885254,0</coordinates></Point></Placemark>
<Placemark><name>Valea Prisăcii</name><description>Nume: Valea Prisăcii, Tip: prisacă, Nivel: 3, Județ: Botosani, Formă: Vale, ID: 1820 <br /><b>Variante</b><br />Nume: Valea Prisăcii, Hartă: Geomil 25000, Limbă: Limba română<br />Nume: Valea Prisăcii, Hartă: PDT, Limbă: Limba română</description><Point><coordinates>26.990431,47.998648,0</coordinates></Point></Placemark>
<Placemark><name>Valea Prisăcii</name><description>Nume: Valea Prisăcii, Tip: prisacă, Nivel: 3, Județ: Botosani, Formă: Vale, ID: 1831 <br /><b>Variante</b><br />Nume: Valea Prisăcii, Hartă: Geomil 25000, Limbă: Limba română</description><Point><coordinates>26.570083,47.692424,0</coordinates></Point></Placemark>
<Placemark><name>Valea Prisăcii</name><description>Nume: Valea Prisăcii, Tip: prisacă, Nivel: 3, Județ: Botosani, Formă: Vale, ID: 2387 <br /><b>Variante</b><br />Nume: Valea Prisăcii, Hartă: Geomil 25000, Limbă: Limba română</description><Point><coordinates>27.087795,47.719573,0</coordinates></Point></Placemark>
<Placemark><name>Valea Prisăcii</name><description>Nume: Valea Prisăcii, Tip: prisacă, Nivel: 3, Județ: Botosani, Formă: Vale, ID: 2389 <br /><b>Variante</b><br />Nume: Valea Prisăcii, Hartă: Geomil 25000, Limbă: Limba română</description><Point><coordinates>27.136638,47.738069,0</coordinates></Point></Placemark>
<Placemark><name>Valea Prisăcii</name><description>Nume: Valea Prisăcii, Tip: prisacă, Nivel: 3, Județ: Botosani, Formă: Vale, ID: 2403 <br /><b>Variante</b><br />Nume: Valea Prisăcii, Hartă: Geomil 25000, Limbă: Limba română</description><Point><coordinates>26.993258,48.089651,0</coordinates></Point></Placemark>
<Placemark><name>Valea Prisăcii</name><description>Nume: Valea Prisăcii, Tip: prisacă, Nivel: 3, Județ: Botosani, Formă: Vale, ID: 2420 <br /><b>Variante</b><br />Nume: Valea Prisăcii, Hartă: Geomil 25000, Limbă: Limba română</description><Point><coordinates>26.869014,47.614565,0</coordinates></Point></Placemark>
<Placemark><name>Valea Prisăcii</name><description>Nume: Valea Prisăcii, Tip: prisacă, Nivel: 3, Județ: Botosani, Formă: Vale, ID: 2423 <br /><b>Variante</b><br />Nume: Valea Prisăcii, Hartă: Geomil 25000, Limbă: Limba română</description><Point><coordinates>27.194075,47.701637,0</coordinates></Point></Placemark>
<Placemark><name>Valea Prisăcii</name><description>Nume: Valea Prisăcii, Tip: prisacă, Nivel: 3, Județ: Botosani, Formă: Vale, ID: 7757 <br /><b>Variante</b><br />Nume: Valea Prisăcii, Hartă: Geomil 25000, Limbă: Limba română</description><Point><coordinates>26.796945,47.764721,0</coordinates></Point></Placemark>
<Placemark><name>Valea Prisăcii</name><description>Nume: Valea Prisăcii, Tip: prisacă, Nivel: 3, Județ: Botosani, Formă: Vale, ID: 11660 <br /><b>Variante</b><br />Nume: Valea Prisăcii, Hartă: Geomil 25000, Limbă: Limba română</description><Point><coordinates>26.671663,47.630317,0</coordinates></Point></Placemark>
<Placemark><name>Valea Prisecei</name><description>Nume: Valea Prisecei, Tip: prisacă, Nivel: 3, Județ: Botosani, Formă: Vale, ID: 14603 <br /><b>Variante</b><br />Nume: Valea Prisecei, Hartă: PDT, Limbă: Limba română</description><Point><coordinates>26.716489,48.173168,0</coordinates></Point></Placemark>
<Placemark><name>Drumul Stupăriei</name><description>Nume: Drumul Stupăriei, Tip: stupărie, Nivel: 3, Județ: Botosani, Formă: Drum, ID: 14304 <br /><b>Variante</b><br />Nume: Drumul Stupăriei, Hartă: ANCPI, Limbă: Limba română</description><Point><coordinates>26.138708,47.973936,0</coordinates></Point></Placemark>
<Placemark><name>Grindul Stuparu</name><description>Nume: Grindul Stuparu, Tip: stupar, Nivel: 3, Județ: Braila, Formă: Apă-deal-câmpie, ID: 3478 <br /><b>Variante</b><br />Nume: Grindul Stuparu, Hartă: PDT, Limbă: Limba română</description><Point><coordinates>27.911296,44.916405,0</coordinates></Point></Placemark>
<Placemark><name>La Stupina</name><description>Nume: La Stupina, Tip: stupină, Nivel: 3, Județ: Braila, Formă: Altele, ID: 14543 <br /><b>Variante</b><br />Nume: La Stupina, Hartă: PDT, Limbă: Limba română</description><Point><coordinates>27.526902,45.356247,0</coordinates></Point></Placemark>
<Placemark><name>la Stupina Kâlugârenilor</name><description>Nume: la Stupina Kâlugârenilor, Tip: stupină, Nivel: 3, Județ: Braila, Formă: Altele, ID: 10901 <br /><b>Variante</b><br />Nume: la Stupina Kâlugârenilor, Hartă: Austriacă, Limbă: Limba română</description><Point><coordinates>27.644320,45.465330,0</coordinates></Point></Placemark>
<Placemark><name>Movila Stupina</name><description>Nume: Movila Stupina, Tip: stupină, Nivel: 3, Județ: Braila, Formă: Înălțime, ID: 3476 <br /><b>Variante</b><br />Nume: Movila Stupina, Hartă: PDT, Limbă: Limba română</description><Point><coordinates>27.870760,44.923658,0</coordinates></Point></Placemark>
<Placemark><name>Stupărie</name><description>Nume: Stupărie, Tip: stupărie, Nivel: 3, Județ: Brasov, Formă: Altele, ID: 8568 <br /><b>Variante</b><br />Nume: Stupărie, Hartă: PDT, Limbă: Limba română</description><Point><coordinates>25.416003,45.587591,0</coordinates></Point></Placemark>
<Placemark><name>Cartierul Stupini</name><description>Nume: Cartierul Stupini, Tip: stupină, Nivel: 3, Județ: Brasov, Formă: Localitate, ID: 8548 <br /><b>Variante</b><br />Nume: Cartierul Stupini, Hartă: Geomil 25000, Limbă: Limba română</description><Point><coordinates>25.560710,45.700215,0</coordinates></Point></Placemark>
<Placemark><name>Pe Stupini</name><description>Nume: Pe Stupini, Tip: stupină, Nivel: 3, Județ: Brasov, Formă: Altele, ID: 11251 <br /><b>Variante</b><br />Nume: Pe Stupini, Hartă: Geomil 25000, Limbă: Limba română</description><Point><coordinates>25.030732,45.825356,0</coordinates></Point></Placemark>
<Placemark><name>Stupinele Hărman</name><description>Nume: Stupinele Hărman, Tip: stupină, Nivel: 3, Județ: Brasov, Formă: Altele, ID: 8545 <br /><b>Variante</b><br />Nume: Stupinele Hărman, Hartă: Geomil 25000, Limbă: Limba română</description><Point><coordinates>25.712264,45.654920,0</coordinates></Point></Placemark>
<Placemark><name>Stupini</name><description>Nume: Stupini, Tip: stupină, Nivel: 3, Județ: Brasov, Formă: Altele, ID: 10500 <br /><b>Variante</b><br />Nume: Stupini, Hartă: Transilvania (1869-1870), Limbă: Limba română</description><Point><coordinates>25.743334,45.756373,0</coordinates></Point></Placemark>
<Placemark><name>Stupinii Prejmerului</name><description>Nume: Stupinii Prejmerului, Tip: stupină, Nivel: 3, Județ: Brasov, Formă: Localitate, ID: 6051 <br /><b>Variante</b><br />Nume: Stupinii Prejmerului, Hartă: Geomil 25000, Limbă: Limba română</description><Point><coordinates>25.817901,45.717597,0</coordinates></Point></Placemark>
<Placemark><name>Stupinile Brașov</name><description>Nume: Stupinile Brașov, Tip: stupină, Nivel: 3, Județ: Brasov, Formă: Altele, ID: 8546 <br /><b>Variante</b><br />Nume: Stupinile Brașov, Hartă: Geomil 25000, Limbă: Limba română</description><Point><coordinates>25.633810,45.682465,0</coordinates></Point></Placemark>
<Placemark><name>Pârâul Preseaca</name><description>Nume: Pârâul Preseaca, Tip: prisacă, Nivel: 3, Județ: Buzau, Formă: Vale, ID: 15216 <br /><b>Variante</b><br />Nume: Pârâul Preseaca, Hartă: Munții noștri, Limbă: Limba română</description><Point><coordinates>26.174415,45.394069,0</coordinates></Point></Placemark>
<Placemark><name>Preseaca</name><description>Nume: Preseaca, Tip: prisacă, Nivel: 3, Județ: Buzau, Formă: Vale, ID: 11316 <br /><b>Variante</b><br />Nume: Preseaca, Hartă: ANCPI, Limbă: Limba română</description><Point><coordinates>26.189325,45.421025,0</coordinates></Point></Placemark>
<Placemark><name>Prisaca</name><description>Nume: Prisaca, Tip: prisacă, Nivel: 3, Județ: Buzau, Formă: Altele, ID: 15462 <br /><b>Variante</b><br />Nume: Prisaca, Hartă: Munții noștri, Limbă: Limba română</description><Point><coordinates>26.205802,45.540872,0</coordinates></Point></Placemark>
<Placemark><name>Vârful Preseaca</name><description>Nume: Vârful Preseaca, Tip: prisacă, Nivel: 3, Județ: Buzau, Formă: Înălțime, ID: 13209 <br /><b>Variante</b><br />Nume: Vârful Preseaca, Hartă: Geomil 25000, Limbă: Limba română</description><Point><coordinates>26.583144,45.516987,0</coordinates></Point></Placemark>
<Placemark><name>Dealul Stupina</name><description>Nume: Dealul Stupina, Tip: stupină, Nivel: 3, Județ: Buzau, Formă: Deal, ID: 5232 <br /><b>Variante</b><br />Nume: Dealul Stupina, Hartă: Geomil 25000, Limbă: Limba română</description><Point><coordinates>26.704445,45.468696,0</coordinates></Point></Placemark>
<Placemark><name>La stupăriile de la pietroiu</name><description>Nume: La stupăriile de la pietroiu, Tip: stupărie, Nivel: 3, Județ: Calarasi, Formă: Altele, ID: 3272 <br /><b>Variante</b><br />Nume: La stupăriile de la pietroiu, Hartă: PDT, Limbă: Limba română</description><Point><coordinates>26.526988,44.064689,0</coordinates></Point></Placemark>
<Placemark><name>D. Prisek</name><description>Nume: D. Prisek, Tip: prisacă, Nivel: 3, Județ: Caras Severin, Formă: Deal, ID: 15879 <br /><b>Variante</b><br />Nume: D. Prisek, Hartă: Ungară 1869, Limbă: Limba română</description><Point><coordinates>21.759787,45.191497,0</coordinates></Point></Placemark>
<Placemark><name>Dealu Prisaca</name><description>Nume: Dealu Prisaca, Tip: prisacă, Nivel: 3, Județ: Caras Severin, Formă: Deal, ID: 6124 <br /><b>Variante</b><br />Nume: Dealu Prisaca, Hartă: Geomil 25000, Limbă: Limba română</description><Point><coordinates>22.144511,45.256695,0</coordinates></Point></Placemark>
<Placemark><name>Dealu Prisaca</name><description>Nume: Dealu Prisaca, Tip: prisacă, Nivel: 3, Județ: Caras Severin, Formă: Deal, ID: 10702 <br /><b>Variante</b><br />Nume: Dealu Prisaca, Hartă: Geomil 25000, Limbă: Limba română</description><Point><coordinates>21.708763,45.046515,0</coordinates></Point></Placemark>
<Placemark><name>Dealu Prisaca</name><description>Nume: Dealu Prisaca, Tip: prisacă, Nivel: 3, Județ: Caras Severin, Formă: Deal, ID: 13438 <br /><b>Variante</b><br />Nume: Dealu Prisaca, Hartă: Geomil 25000, Limbă: Limba română</description><Point><coordinates>22.164621,44.862476,0</coordinates></Point></Placemark>
<Placemark><name>Dealul Prisaca</name><description>Nume: Dealul Prisaca, Tip: prisacă, Nivel: 3, Județ: Caras Severin, Formă: Deal, ID: 1220 <br /><b>Variante</b><br />Nume: Dealul Prisaca, Hartă: Geomil 25000, Limbă: Limba română</description><Point><coordinates>22.383132,44.929377,0</coordinates></Point></Placemark>
<Placemark><name>Fața Prisăcii</name><description>Nume: Fața Prisăcii, Tip: prisacă, Nivel: 3, Județ: Caras Severin, Formă: Altele, ID: 8503 <br /><b>Variante</b><br />Nume: Fața Prisăcii, Hartă: Geomil 25000, Limbă: Limba română</description><Point><coordinates>21.771443,44.802307,0</coordinates></Point></Placemark>
<Placemark><name>Ogașu Prisecii</name><description>Nume: Ogașu Prisecii, Tip: prisacă, Nivel: 3, Județ: Caras Severin, Formă: Vale, ID: 11784 <br /><b>Variante</b><br />Nume: Ogașu Prisecii, Hartă: Geomil 25000, Limbă: Limba română</description><Point><coordinates>22.492399,45.179288,0</coordinates></Point></Placemark>
<Placemark><name>Ogașul Prisaca</name><description>Nume: Ogașul Prisaca, Tip: prisacă, Nivel: 3, Județ: Caras Severin, Formă: Vale, ID: 12751 <br /><b>Variante</b><br />Nume: Ogașul Prisaca, Hartă: PDT, Limbă: Limba română</description><Point><coordinates>21.934759,45.047691,0</coordinates></Point></Placemark>
<Placemark><name>Poiana Prisaca</name><description>Nume: Poiana Prisaca, Tip: prisacă, Nivel: 3, Județ: Caras Severin, Formă: Poiană, ID: 3316 <br /><b>Variante</b><br />Nume: Poiana Prisaca, Hartă: Geomil 25000, Limbă: Limba română</description><Point><coordinates>22.070740,44.804656,0</coordinates></Point></Placemark>
<Placemark><name>Poiana Prisaca</name><description>Nume: Poiana Prisaca, Tip: prisacă, Nivel: 3, Județ: Caras Severin, Formă: Poiană, ID: 12752 <br /><b>Variante</b><br />Nume: Poiana Prisaca, Hartă: Geomil 25000, Limbă: Limba română</description><Point><coordinates>22.024973,45.020087,0</coordinates></Point></Placemark>
<Placemark><name>Poiana Prisaca</name><description>Nume: Poiana Prisaca, Tip: prisacă, Nivel: 3, Județ: Caras Severin, Formă: Poiană, ID: 13181 <br /><b>Variante</b><br />Nume: Poiana Prisaca, Hartă: Geomil 25000, Limbă: Limba română</description><Point><coordinates>22.485546,45.330737,0</coordinates></Point></Placemark>
<Placemark><name>Prisaca</name><description>Nume: Prisaca, Tip: prisacă, Nivel: 3, Județ: Caras Severin, Formă: Localitate, ID: 4308 <br /><b>Variante</b><br />Nume: Prisaca, Hartă: Geomil 25000, Limbă: Limba română</description><Point><coordinates>22.154684,45.499904,0</coordinates></Point></Placemark>
<Placemark><name>Prisaca</name><description>Nume: Prisaca, Tip: prisacă, Nivel: 3, Județ: Caras Severin, Formă: Altele, ID: 6129 <br /><b>Variante</b><br />Nume: Prisaca, Hartă: Geomil 25000, Limbă: Limba română</description><Point><coordinates>22.191216,45.136804,0</coordinates></Point></Placemark>
<Placemark><name>Prisaca</name><description>Nume: Prisaca, Tip: prisacă, Nivel: 3, Județ: Caras Severin, Formă: Altele, ID: 11580 <br /><b>Variante</b><br />Nume: Prisaca, Hartă: ANCPI, Limbă: Limba română</description><Point><coordinates>22.540890,45.434165,0</coordinates></Point></Placemark>
<Placemark><name>Prisaca</name><description>Nume: Prisaca, Tip: prisacă, Nivel: 3, Județ: Caras Severin, Formă: Altele, ID: 12157 <br /><b>Variante</b><br />Nume: Prisaca, Hartă: PDT, Limbă: Limba română</description><Point><coordinates>21.586705,44.977733,0</coordinates></Point></Placemark>
<Placemark><name>Prisaca</name><description>Nume: Prisaca, Tip: prisacă, Nivel: 3, Județ: Caras Severin, Formă: Altele, ID: 12158 <br /><b>Variante</b><br />Nume: Prisaca, Hartă: PDT, Limbă: Limba română</description><Point><coordinates>21.731920,44.886445,0</coordinates></Point></Placemark>
<Placemark><name>Prisaka</name><description>Nume: Prisaka, Tip: prisacă, Nivel: 3, Județ: Caras Severin, Formă: Altele, ID: 10255 <br /><b>Variante</b><br />Nume: Prisaka, Hartă: Ungară 1869, Limbă: Limba română<br />Nume: Poiana Prisaca, Hartă: PDT, Limbă: Limba română</description><Point><coordinates>22.187506,45.261538,0</coordinates></Point></Placemark>
<Placemark><name>Vârful Prisăcii</name><description>Nume: Vârful Prisăcii, Tip: prisacă, Nivel: 3, Județ: Caras Severin, Formă: Înălțime, ID: 8663 <br /><b>Variante</b><br />Nume: Vârful Prisăcii, Hartă: PDT, Limbă: Limba română</description><Point><coordinates>22.507865,45.350358,0</coordinates></Point></Placemark>
<Placemark><name>Pârâu Prisăcina</name><description>Nume: Pârâu Prisăcina, Tip: prisăcină, Nivel: 4, Județ: Caras Severin, Formă: Vale, ID: 13081 <br /><b>Variante</b><br />Nume: Pârâu Prisăcina, Hartă: Geomil 25000, Limbă: Limba română</description><Point><coordinates>22.507526,45.011897,0</coordinates></Point></Placemark>
<Placemark><name>Dealul Stuparului</name><description>Nume: Dealul Stuparului, Tip: stupar, Nivel: 3, Județ: Caras Severin, Formă: Deal, ID: 4321 <br /><b>Variante</b><br />Nume: Dealul Stuparului, Hartă: PDT, Limbă: Limba română<br />Nume: Dealul Stuoarului, Hartă: Geomil 25000, Limbă: Limba română</description><Point><coordinates>21.796294,45.314597,0</coordinates></Point></Placemark>
<Placemark><name>Obârșia Stuparului</name><description>Nume: Obârșia Stuparului, Tip: stupar, Nivel: 3, Județ: Caras Severin, Formă: Altele, ID: 5691 <br /><b>Variante</b><br />Nume: Obârșia Stuparului, Hartă: Geomil 25000, Limbă: Limba română</description><Point><coordinates>21.753715,45.453943,0</coordinates></Point></Placemark>
<Placemark><name>Valea Stuparului</name><description>Nume: Valea Stuparului, Tip: stupar, Nivel: 3, Județ: Caras Severin, Formă: Vale, ID: 893 <br /><b>Variante</b><br />Nume: Valea Stuparului, Hartă: Geomil 25000, Limbă: Limba română</description><Point><coordinates>21.554738,45.399893,0</coordinates></Point></Placemark>
<Placemark><name>Dealu Stupilor</name><description>Nume: Dealu Stupilor, Tip: stupi, Nivel: 3, Județ: Caras Severin, Formă: Deal, ID: 5716 <br /><b>Variante</b><br />Nume: Dealu Stupilor, Hartă: Geomil 25000, Limbă: Limba română</description><Point><coordinates>21.827720,45.172854,0</coordinates></Point></Placemark>
<Placemark><name>Poiana Stupilor</name><description>Nume: Poiana Stupilor, Tip: stupi, Nivel: 3, Județ: Caras Severin, Formă: Poiană, ID: 10300 <br /><b>Variante</b><br />Nume: Poiana Stupilor, Hartă: Ungară 1869, Limbă: Limba română</description><Point><coordinates>22.151792,45.443458,0</coordinates></Point></Placemark>
<Placemark><name>La Stupina</name><description>Nume: La Stupina, Tip: stupină, Nivel: 3, Județ: Caras Severin, Formă: Altele, ID: 4329 <br /><b>Variante</b><br />Nume: La Stupina, Hartă: PDT, Limbă: Limba română<br />Nume: Poiana Stupina, Hartă: Geomil 25000, Limbă: Limba română</description><Point><coordinates>22.020411,45.221686,0</coordinates></Point></Placemark>
<Placemark><name>La Stupină</name><description>Nume: La Stupină, Tip: stupină, Nivel: 3, Județ: Caras Severin, Formă: Altele, ID: 6188 <br /><b>Variante</b><br />Nume: La Stupină, Hartă: PDT, Limbă: Limba română</description><Point><coordinates>22.121207,45.485905,0</coordinates></Point></Placemark>
<Placemark><name>Poiana Stupina</name><description>Nume: Poiana Stupina, Tip: stupină, Nivel: 3, Județ: Caras Severin, Formă: Poiană, ID: 4325 <br /><b>Variante</b><br />Nume: Poiana Stupina, Hartă: PDT, Limbă: Limba română</description><Point><coordinates>21.958150,45.289139,0</coordinates></Point></Placemark>
<Placemark><name>Stupin</name><description>Nume: Stupin, Tip: stupină, Nivel: 3, Județ: Caras Severin, Formă: Altele, ID: 6187 <br /><b>Variante</b><br />Nume: Stupin, Hartă: PDT, Limbă: Limba română</description><Point><coordinates>22.163172,45.491459,0</coordinates></Point></Placemark>
<Placemark><name>Stupini</name><description>Nume: Stupini, Tip: stupină, Nivel: 3, Județ: Caras Severin, Formă: Altele, ID: 11788 <br /><b>Variante</b><br />Nume: Stupini, Hartă: Geomil 25000, Limbă: Limba română</description><Point><coordinates>22.410565,45.004693,0</coordinates></Point></Placemark>
<Placemark><name>Valea Stupina</name><description>Nume: Valea Stupina, Tip: stupină, Nivel: 3, Județ: Caras Severin, Formă: Vale, ID: 15165 <br /><b>Variante</b><br />Nume: Valea Stupina, Hartă: Munții noștri, Limbă: Limba română</description><Point><coordinates>22.446191,45.307514,0</coordinates></Point></Placemark>
<Placemark><name>Prisaca</name><description>Nume: Prisaca, Tip: prisacă, Nivel: 3, Județ: Cluj, Formă: Altele, ID: 14953 <br /><b>Variante</b><br />Nume: Prisaca, Hartă: PDT, Limbă: Limba română</description><Point><coordinates>23.425436,47.106438,0</coordinates></Point></Placemark>
<Placemark><name>Sub stupina</name><description>Nume: Sub stupina, Tip: stupină, Nivel: 3, Județ: Cluj, Formă: Altele, ID: 13733 <br /><b>Variante</b><br />Nume: Sub stupina, Hartă: Transilvania (1869-1870), Limbă: Limba română</description><Point><coordinates>24.222130,46.897949,0</coordinates></Point></Placemark>
<Placemark><name>La Stupină</name><description>Nume: La Stupină, Tip: stupină, Nivel: 3, Județ: Constanta, Formă: Altele, ID: 11599 <br /><b>Variante</b><br />Nume: La Stupină, Hartă: Geomil 25000, Limbă: Limba română</description><Point><coordinates>28.166030,44.536875,0</coordinates></Point></Placemark>
<Placemark><name>Stupăria</name><description>Nume: Stupăria, Tip: stupărie, Nivel: 3, Județ: Covasna, Formă: Vale, ID: 13307 <br /><b>Variante</b><br />Nume: Stupăria, Hartă: Geomil 25000, Limbă: Limba română</description><Point><coordinates>26.379263,46.043743,0</coordinates></Point></Placemark>
<Placemark><name>Preseaka</name><description>Nume: Preseaka, Tip: prisacă, Nivel: 3, Județ: Dambovita, Formă: Localitate, ID: 6013 <br /><b>Variante</b><br />Nume: Preseaka, Hartă: Austriacă, Limbă: Limba română</description><Point><coordinates>25.771865,44.609786,0</coordinates></Point></Placemark>
<Placemark><name>Priseaca</name><description>Nume: Priseaca, Tip: prisacă, Nivel: 3, Județ: Dambovita, Formă: Localitate, ID: 5996 <br /><b>Variante</b><br />Nume: Priseaca, Hartă: Geomil 25000, Limbă: Limba română<br />Nume: Preseaka, Hartă: Austriacă, Limbă: Limba română</description><Point><coordinates>25.403967,44.921450,0</coordinates></Point></Placemark>
<Placemark><name>Poiana La Stupine</name><description>Nume: Poiana La Stupine, Tip: stupină, Nivel: 3, Județ: Dambovita, Formă: Poiană, ID: 1535 <br /><b>Variante</b><br />Nume: Poiana La Stupine, Hartă: Geomil 25000, Limbă: Limba română</description><Point><coordinates>25.700722,44.843372,0</coordinates></Point></Placemark>
<Placemark><name>Valea Stupinei</name><description>Nume: Valea Stupinei, Tip: stupină, Nivel: 3, Județ: Dambovita, Formă: Vale, ID: 11070 <br /><b>Variante</b><br />Nume: Valea Stupinei, Hartă: PDT, Limbă: Limba română</description><Point><coordinates>25.305864,45.000918,0</coordinates></Point></Placemark>
<Placemark><name>Valea Stupinei</name><description>Nume: Valea Stupinei, Tip: stupină, Nivel: 3, Județ: Dambovita, Formă: Vale, ID: 15678 <br /><b>Variante</b><br />Nume: Valea Stupinei, Hartă: PDT, Limbă: Limba română</description><Point><coordinates>25.275823,44.837155,0</coordinates></Point></Placemark>
<Placemark><name>Presaka</name><description>Nume: Presaka, Tip: prisacă, Nivel: 3, Județ: Dolj, Formă: Localitate, ID: 5104 <br /><b>Variante</b><br />Nume: Presaka, Hartă: Austriacă, Limbă: Limba română</description><Point><coordinates>23.617424,44.494075,0</coordinates></Point></Placemark>
<Placemark><name>Valea Prisaca</name><description>Nume: Valea Prisaca, Tip: prisacă, Nivel: 3, Județ: Dolj, Formă: Vale, ID: 9762 <br /><b>Variante</b><br />Nume: Valea Prisaca, Hartă: PDT, Limbă: Limba română</description><Point><coordinates>23.556629,44.262817,0</coordinates></Point></Placemark>
<Placemark><name>Valea Prisăcuța</name><description>Nume: Valea Prisăcuța, Tip: prisăcuța, Nivel: 4, Județ: Dolj, Formă: Vale, ID: 14972 <br /><b>Variante</b><br />Nume: Valea Prisăcuța, Hartă: PDT, Limbă: Limba română</description><Point><coordinates>23.868368,44.301668,0</coordinates></Point></Placemark>
<Placemark><name>Dealul Stuparului</name><description>Nume: Dealul Stuparului, Tip: stupar, Nivel: 3, Județ: Dolj, Formă: Deal, ID: 1273 <br /><b>Variante</b><br />Nume: Dealul Stuparului, Hartă: Geomil 25000, Limbă: Limba română</description><Point><coordinates>24.065299,43.755075,0</coordinates></Point></Placemark>
<Placemark><name>Valea Stuparului</name><description>Nume: Valea Stuparului, Tip: stupar, Nivel: 3, Județ: Dolj, Formă: Vale, ID: 3363 <br /><b>Variante</b><br />Nume: Valea Stuparului, Hartă: Geomil 25000, Limbă: Limba română</description><Point><coordinates>23.597557,44.268068,0</coordinates></Point></Placemark>
<Placemark><name>Valea Stuparului</name><description>Nume: Valea Stuparului, Tip: stupar, Nivel: 3, Județ: Dolj, Formă: Vale, ID: 14191 <br /><b>Variante</b><br />Nume: Valea Stuparului, Hartă: PDT, Limbă: Limba română</description><Point><coordinates>23.197121,44.446873,0</coordinates></Point></Placemark>
<Placemark><name>Puțul Stupăriei</name><description>Nume: Puțul Stupăriei, Tip: stupărie, Nivel: 3, Județ: Dolj, Formă: Altele, ID: 12171 <br /><b>Variante</b><br />Nume: Puțul Stupăriei, Hartă: PDT, Limbă: Limba română</description><Point><coordinates>23.817626,44.231939,0</coordinates></Point></Placemark>
<Placemark><name>Piscul Stuparului</name><description>Nume: Piscul Stuparului, Tip: stupi, Nivel: 3, Județ: Dolj, Formă: Deal, ID: 116 <br /><b>Variante</b><br />Nume: ур. Ступулуй (Dealul Stupului), Hartă: Sovietică, Limbă: Limba română<br />Nume: Piscul Stuparului, Hartă: PDT, Limbă: Limba română</description><Point><coordinates>23.281036,44.457551,0</coordinates></Point></Placemark>
<Placemark><name>Dealul Stupina</name><description>Nume: Dealul Stupina, Tip: stupină, Nivel: 3, Județ: Dolj, Formă: Deal, ID: 11811 <br /><b>Variante</b><br />Nume: Dealul Stupina, Hartă: PDT, Limbă: Limba română</description><Point><coordinates>23.617992,44.540491,0</coordinates></Point></Placemark>
<Placemark><name>Pădurea Stupina</name><description>Nume: Pădurea Stupina, Tip: stupină, Nivel: 3, Județ: Dolj, Formă: Pădure, ID: 12296 <br /><b>Variante</b><br />Nume: Pădurea Stupina, Hartă: PDT, Limbă: Limba română</description><Point><coordinates>23.642914,44.440138,0</coordinates></Point></Placemark>
<Placemark><name>Piscul Stupinei</name><description>Nume: Piscul Stupinei, Tip: stupină, Nivel: 3, Județ: Dolj, Formă: Înălțime, ID: 9760 <br /><b>Variante</b><br />Nume: Piscul Stupinei, Hartă: PDT, Limbă: Limba română</description><Point><coordinates>23.463557,44.340242,0</coordinates></Point></Placemark>
<Placemark><name>Valea Stupineaua</name><description>Nume: Valea Stupineaua, Tip: stupină, Nivel: 3, Județ: Dolj, Formă: Vale, ID: 388 <br /><b>Variante</b><br />Nume: Valea Stupineaua, Hartă: Geomil 25000, Limbă: Limba română</description><Point><coordinates>23.850370,44.598970,0</coordinates></Point></Placemark>
<Placemark><name>Pădurea Prisaca</name><description>Nume: Pădurea Prisaca, Tip: prisacă, Nivel: 3, Județ: Galati, Formă: Pădure, ID: 9491 <br /><b>Variante</b><br />Nume: Pădurea Prisaca, Hartă: PDT, Limbă: Limba română</description><Point><coordinates>27.469138,45.948182,0</coordinates></Point></Placemark>
<Placemark><name>Prisaca</name><description>Nume: Prisaca, Tip: prisacă, Nivel: 3, Județ: Galati, Formă: Vale, ID: 15729 <br /><b>Variante</b><br />Nume: Prisaca, Hartă: ANCPI, Limbă: Limba română</description><Point><coordinates>27.410992,45.905531,0</coordinates></Point></Placemark>
<Placemark><name>Vadul Prisaca</name><description>Nume: Vadul Prisaca, Tip: prisacă, Nivel: 3, Județ: Galati, Formă: Altele, ID: 751 <br /><b>Variante</b><br />Nume: Vadul Prisaca, Hartă: Geomil 25000, Limbă: Limba română<br />Nume: Vadul Prisaca, Hartă: PDT, Limbă: Limba română</description><Point><coordinates>27.651632,45.518946,0</coordinates></Point></Placemark>
<Placemark><name>Valea Prisacă</name><description>Nume: Valea Prisacă, Tip: prisacă, Nivel: 3, Județ: Galati, Formă: Vale, ID: 10916 <br /><b>Variante</b><br />Nume: Valea Prisacă, Hartă: Moldova (1892-1898), Limbă: Limba română</description><Point><coordinates>27.993077,45.999569,0</coordinates></Point></Placemark>
<Placemark><name>Valea Prisăcii</name><description>Nume: Valea Prisăcii, Tip: prisacă, Nivel: 3, Județ: Galati, Formă: Vale, ID: 2167 <br /><b>Variante</b><br />Nume: Valea Prisăcii, Hartă: Geomil 25000, Limbă: Limba română</description><Point><coordinates>27.433910,46.023011,0</coordinates></Point></Placemark>
<Placemark><name>Valea Stupinei</name><description>Nume: Valea Stupinei, Tip: stupină, Nivel: 3, Județ: Galati, Formă: Vale, ID: 740 <br /><b>Variante</b><br />Nume: Valea Stupinei, Hartă: Geomil 25000, Limbă: Limba română</description><Point><coordinates>27.491509,45.901874,0</coordinates></Point></Placemark>
<Placemark><name>În Stupină</name><description>Nume: În Stupină, Tip: stupină, Nivel: 3, Județ: Giurgiu, Formă: Altele, ID: 16018 <br /><b>Variante</b><br />Nume: În Stupină, Hartă: PDT, Limbă: Limba română</description><Point><coordinates>26.197461,44.258978,0</coordinates></Point></Placemark>
<Placemark><name>Dealul Prisăcilor</name><description>Nume: Dealul Prisăcilor, Tip: prisacă, Nivel: 3, Județ: Gorj, Formă: Deal, ID: 2916 <br /><b>Variante</b><br />Nume: Dealul Prisăcilor, Hartă: Geomil 25000, Limbă: Limba română</description><Point><coordinates>23.392993,45.078957,0</coordinates></Point></Placemark>
<Placemark><name>Valea Prisaca</name><description>Nume: Valea Prisaca, Tip: prisacă, Nivel: 3, Județ: Gorj, Formă: Vale, ID: 9791 <br /><b>Variante</b><br />Nume: Valea Prisaca, Hartă: PDT, Limbă: Limba română</description><Point><coordinates>23.388545,45.048836,0</coordinates></Point></Placemark>
<Placemark><name>Culmea Stupinei</name><description>Nume: Culmea Stupinei, Tip: stupină, Nivel: 3, Județ: Gorj, Formă: Înălțime, ID: 12679 <br /><b>Variante</b><br />Nume: Culmea Stupinei, Hartă: PDT, Limbă: Limba română</description><Point><coordinates>23.691796,44.804233,0</coordinates></Point></Placemark>
<Placemark><name>Dealul Stupinelor</name><description>Nume: Dealul Stupinelor, Tip: stupină, Nivel: 3, Județ: Gorj, Formă: Deal, ID: 12448 <br /><b>Variante</b><br />Nume: Dealul Stupinelor, Hartă: PDT, Limbă: Limba română</description><Point><coordinates>23.369885,44.913313,0</coordinates></Point></Placemark>
<Placemark><name>Valea Stupina</name><description>Nume: Valea Stupina, Tip: stupină, Nivel: 3, Județ: Gorj, Formă: Vale, ID: 11033 <br /><b>Variante</b><br />Nume: Valea Stupina, Hartă: Geomil 25000, Limbă: Limba română</description><Point><coordinates>23.738052,44.843717,0</coordinates></Point></Placemark>
<Placemark><name>Valea Stupinii</name><description>Nume: Valea Stupinii, Tip: stupină, Nivel: 3, Județ: Gorj, Formă: Vale, ID: 5119 <br /><b>Variante</b><br />Nume: Valea Stupinii, Hartă: Geomil 25000, Limbă: Limba română<br />Nume: Valea Stupinilor, Hartă: PDT, Limbă: Limba română</description><Point><coordinates>23.060066,44.876485,0</coordinates></Point></Placemark>
<Placemark><name>Culmea Prisăcii</name><description>Nume: Culmea Prisăcii, Tip: prisacă, Nivel: 3, Județ: Hunedoara, Formă: Înălțime, ID: 1202 <br /><b>Variante</b><br />Nume: Culmea Prisăcii, Hartă: Geomil 25000, Limbă: Limba română</description><Point><coordinates>22.768577,45.444380,0</coordinates></Point></Placemark>
<Placemark><name>Dealu Prisaca</name><description>Nume: Dealu Prisaca, Tip: prisacă, Nivel: 3, Județ: Hunedoara, Formă: Deal, ID: 939 <br /><b>Variante</b><br />Nume: Dealu Prisaca, Hartă: Geomil 25000, Limbă: Limba română</description><Point><coordinates>22.716104,46.027398,0</coordinates></Point></Placemark>
<Placemark><name>Prisaca</name><description>Nume: Prisaca, Tip: prisacă, Nivel: 3, Județ: Hunedoara, Formă: Înălțime, ID: 9828 <br /><b>Variante</b><br />Nume: Prisaca, Hartă: PDT, Limbă: Limba română<br />Nume: Prisaca, Hartă: Geomil 25000, Limbă: Limba română</description><Point><coordinates>23.208994,45.687118,0</coordinates></Point></Placemark>
<Placemark><name>Vârfu Prisaca</name><description>Nume: Vârfu Prisaca, Tip: prisacă, Nivel: 3, Județ: Hunedoara, Formă: Înălțime, ID: 9665 <br /><b>Variante</b><br />Nume: Vârfu Prisaca, Hartă: Geomil 25000, Limbă: Limba română</description><Point><coordinates>22.929198,46.176228,0</coordinates></Point></Placemark>
<Placemark><name>Vârfu Prisăcii</name><description>Nume: Vârfu Prisăcii, Tip: prisacă, Nivel: 3, Județ: Hunedoara, Formă: Înălțime, ID: 928 <br /><b>Variante</b><br />Nume: Vârfu Prisăcii, Hartă: Geomil 25000, Limbă: Limba română</description><Point><coordinates>22.792532,46.305494,0</coordinates></Point></Placemark>
<Placemark><name>Vârfu Prisăcii</name><description>Nume: Vârfu Prisăcii, Tip: prisacă, Nivel: 3, Județ: Hunedoara, Formă: Înălțime, ID: 6261 <br /><b>Variante</b><br />Nume: Vârfu Prisăcii, Hartă: Geomil 25000, Limbă: Limba română<br />Nume: Vârful Prisăcei, Hartă: PDT, Limbă: Limba română</description><Point><coordinates>22.516909,46.172463,0</coordinates></Point></Placemark>
<Placemark><name>Vârfu Stupina</name><description>Nume: Vârfu Stupina, Tip: stupină, Nivel: 3, Județ: Hunedoara, Formă: Înălțime, ID: 6266 <br /><b>Variante</b><br />Nume: Vârfu Stupina, Hartă: Geomil 25000, Limbă: Limba română</description><Point><coordinates>22.605024,46.176389,0</coordinates></Point></Placemark>
<Placemark><name>Mo. Stupului</name><description>Nume: Mo. Stupului, Tip: stupi, Nivel: 3, Județ: Ialomita, Formă: Înălțime, ID: 5750 <br /><b>Variante</b><br />Nume: Mo. Stupului, Hartă: Austriacă, Limbă: Limba română</description><Point><coordinates>26.494433,44.669872,0</coordinates></Point></Placemark>
<Placemark><name>Stupina Radulesku</name><description>Nume: Stupina Radulesku, Tip: stupină, Nivel: 3, Județ: Ialomita, Formă: Altele, ID: 14712 <br /><b>Variante</b><br />Nume: Stupina Radulesku, Hartă: Austriacă, Limbă: Limba română</description><Point><coordinates>26.319547,44.759549,0</coordinates></Point></Placemark>
<Placemark><name>Balta Prisaca</name><description>Nume: Balta Prisaca, Tip: prisacă, Nivel: 3, Județ: Iasi, Formă: Apă-deal-câmpie, ID: 8884 <br /><b>Variante</b><br />Nume: Balta Prisaca, Hartă: PDT, Limbă: Limba română</description><Point><coordinates>26.854971,47.100836,0</coordinates></Point></Placemark>
<Placemark><name>Cotul Prisăcii</name><description>Nume: Cotul Prisăcii, Tip: prisacă, Nivel: 3, Județ: Iasi, Formă: Altele, ID: 1705 <br /><b>Variante</b><br />Nume: Cotul Prisăcii, Hartă: Geomil 25000, Limbă: Limba română</description><Point><coordinates>28.081220,46.973475,0</coordinates></Point></Placemark>
<Placemark><name>Dealul Prisacei</name><description>Nume: Dealul Prisacei, Tip: prisacă, Nivel: 3, Județ: Iasi, Formă: Deal, ID: 6610 <br /><b>Variante</b><br />Nume: Dealul Prisacei, Hartă: PDT, Limbă: Limba română</description><Point><coordinates>27.213357,47.184538,0</coordinates></Point></Placemark>
<Placemark><name>Dealul Prisacei</name><description>Nume: Dealul Prisacei, Tip: prisacă, Nivel: 3, Județ: Iasi, Formă: Deal, ID: 8900 <br /><b>Variante</b><br />Nume: Dealul Prisacei, Hartă: PDT, Limbă: Limba română</description><Point><coordinates>27.326720,47.112220,0</coordinates></Point></Placemark>
<Placemark><name>Dealul Prisăcii</name><description>Nume: Dealul Prisăcii, Tip: prisacă, Nivel: 3, Județ: Iasi, Formă: Deal, ID: 8903 <br /><b>Variante</b><br />Nume: Dealul Prisăcii, Hartă: Geomil 25000, Limbă: Limba română<br />Nume: Dealul Priseci, Hartă: PDT, Limbă: Limba română</description><Point><coordinates>26.736571,47.220874,0</coordinates></Point></Placemark>
<Placemark><name>La Prisacă</name><description>Nume: La Prisacă, Tip: prisacă, Nivel: 3, Județ: Iasi, Formă: Altele, ID: 6589 <br /><b>Variante</b><br />Nume: La Prisacă, Hartă: PDT, Limbă: Limba română</description><Point><coordinates>27.677727,47.044171,0</coordinates></Point></Placemark>
<Placemark><name>La Prisacă</name><description>Nume: La Prisacă, Tip: prisacă, Nivel: 3, Județ: Iasi, Formă: Altele, ID: 6651 <br /><b>Variante</b><br />Nume: La Prisacă, Hartă: PDT, Limbă: Limba română</description><Point><coordinates>27.272509,47.481924,0</coordinates></Point></Placemark>
<Placemark><name>La Prisaca</name><description>Nume: La Prisaca, Tip: prisacă, Nivel: 3, Județ: Iasi, Formă: Altele, ID: 6656 <br /><b>Variante</b><br />Nume: La Prisaca, Hartă: PDT, Limbă: Limba română</description><Point><coordinates>27.238536,47.518764,0</coordinates></Point></Placemark>
<Placemark><name>La Prisacă</name><description>Nume: La Prisacă, Tip: prisacă, Nivel: 3, Județ: Iasi, Formă: Altele, ID: 15414 <br /><b>Variante</b><br />Nume: La Prisacă, Hartă: PDT, Limbă: Limba română</description><Point><coordinates>27.038536,47.310634,0</coordinates></Point></Placemark>
<Placemark><name>La priseacă</name><description>Nume: La priseacă, Tip: prisacă, Nivel: 3, Județ: Iasi, Formă: Altele, ID: 8933 <br /><b>Variante</b><br />Nume: La priseacă, Hartă: PDT, Limbă: Limba română</description><Point><coordinates>27.378817,47.560825,0</coordinates></Point></Placemark>
<Placemark><name>Lacul la Prisaca</name><description>Nume: Lacul la Prisaca, Tip: prisacă, Nivel: 3, Județ: Iasi, Formă: Lac, ID: 4859 <br /><b>Variante</b><br />Nume: Lacul la Prisaca, Hartă: PDT, Limbă: Limba română</description><Point><coordinates>27.407597,47.367271,0</coordinates></Point></Placemark>
<Placemark><name>Pădurea Prisaca</name><description>Nume: Pădurea Prisaca, Tip: prisacă, Nivel: 3, Județ: Iasi, Formă: Pădure, ID: 12389 <br /><b>Variante</b><br />Nume: Pădurea Prisaca, Hartă: PDT, Limbă: Limba română</description><Point><coordinates>27.791364,47.144502,0</coordinates></Point></Placemark>
<Placemark><name>Poienele Prisacei</name><description>Nume: Poienele Prisacei, Tip: prisacă, Nivel: 3, Județ: Iasi, Formă: Poiană, ID: 13623 <br /><b>Variante</b><br />Nume: Poienele Prisacei, Hartă: Moldova (1892-1898), Limbă: Limba română</description><Point><coordinates>27.454306,46.972768,0</coordinates></Point></Placemark>
<Placemark><name>Prisaca</name><description>Nume: Prisaca, Tip: prisacă, Nivel: 3, Județ: Iasi, Formă: Altele, ID: 9856 <br /><b>Variante</b><br />Nume: Prisaca, Hartă: Moldova (1892-1898), Limbă: Limba română</description><Point><coordinates>27.543828,46.972785,0</coordinates></Point></Placemark>
<Placemark><name>Prisaca</name><description>Nume: Prisaca, Tip: prisacă, Nivel: 3, Județ: Iasi, Formă: Altele, ID: 11633 <br /><b>Variante</b><br />Nume: Prisaca, Hartă: Geomil 25000, Limbă: Limba română</description><Point><coordinates>26.757478,47.382513,0</coordinates></Point></Placemark>
<Placemark><name>Prisaca lui Țițiu</name><description>Nume: Prisaca lui Țițiu, Tip: prisacă, Nivel: 3, Județ: Iasi, Formă: Altele, ID: 14594 <br /><b>Variante</b><br />Nume: Prisaca lui Țițiu, Hartă: PDT, Limbă: Limba română</description><Point><coordinates>27.205152,47.530768,0</coordinates></Point></Placemark>
<Placemark><name>Prisaca Popi</name><description>Nume: Prisaca Popi, Tip: prisacă, Nivel: 3, Județ: Iasi, Formă: Altele, ID: 9741 <br /><b>Variante</b><br />Nume: Prisaca Popi, Hartă: Moldova (1892-1898), Limbă: Limba română</description><Point><coordinates>27.028042,47.442765,0</coordinates></Point></Placemark>
<Placemark><name>Prisaca Șuva</name><description>Nume: Prisaca Șuva, Tip: prisacă, Nivel: 3, Județ: Iasi, Formă: Altele, ID: 13467 <br /><b>Variante</b><br />Nume: Prisaca Șuva, Hartă: Moldova (1892-1898), Limbă: Limba română</description><Point><coordinates>26.719666,47.307623,0</coordinates></Point></Placemark>
<Placemark><name>Rediul Prisăcii</name><description>Nume: Rediul Prisăcii, Tip: prisacă, Nivel: 3, Județ: Iasi, Formă: Altele, ID: 1648 <br /><b>Variante</b><br />Nume: Rediul Prisăcii, Hartă: Geomil 25000, Limbă: Limba română</description><Point><coordinates>27.260023,47.123025,0</coordinates></Point></Placemark>
<Placemark><name>Valea Cotu Prisăci</name><description>Nume: Valea Cotu Prisăci, Tip: prisacă, Nivel: 3, Județ: Iasi, Formă: Vale, ID: 11771 <br /><b>Variante</b><br />Nume: Valea Cotu Prisăci, Hartă: Moldova (1892-1898), Limbă: Limba română</description><Point><coordinates>26.809147,47.124280,0</coordinates></Point></Placemark>
<Placemark><name>Valea Prisacei</name><description>Nume: Valea Prisacei, Tip: prisacă, Nivel: 3, Județ: Iasi, Formă: Vale, ID: 6643 <br /><b>Variante</b><br />Nume: Valea Prisacei, Hartă: PDT, Limbă: Limba română<br />Nume: Valea Prisăcii, Hartă: Geomil 25000, Limbă: Limba română</description><Point><coordinates>27.174885,47.339685,0</coordinates></Point></Placemark>
<Placemark><name>Valea Prisăcii</name><description>Nume: Valea Prisăcii, Tip: prisacă, Nivel: 3, Județ: Iasi, Formă: Vale, ID: 8896 <br /><b>Variante</b><br />Nume: Valea Prisăcii, Hartă: PDT, Limbă: Limba română</description><Point><coordinates>27.524353,47.087143,0</coordinates></Point></Placemark>
<Placemark><name>Valea Prisăcii</name><description>Nume: Valea Prisăcii, Tip: prisacă, Nivel: 3, Județ: Iasi, Formă: Vale, ID: 11626 <br /><b>Variante</b><br />Nume: Valea Prisăcii, Hartă: Geomil 25000, Limbă: Limba română</description><Point><coordinates>27.470566,47.238799,0</coordinates></Point></Placemark>
<Placemark><name>Valea Priseca</name><description>Nume: Valea Priseca, Tip: prisacă, Nivel: 3, Județ: Iasi, Formă: Vale, ID: 14902 <br /><b>Variante</b><br />Nume: Valea Priseca, Hartă: PDT, Limbă: Limba română</description><Point><coordinates>26.845459,47.213277,0</coordinates></Point></Placemark>
<Placemark><name>La Stupină</name><description>Nume: La Stupină, Tip: stupină, Nivel: 3, Județ: Iasi, Formă: Altele, ID: 2227 <br /><b>Variante</b><br />Nume: La Stupină, Hartă: Geomil 25000, Limbă: Limba română</description><Point><coordinates>27.364674,46.949210,0</coordinates></Point></Placemark>
<Placemark><name>La Stupine</name><description>Nume: La Stupine, Tip: stupină, Nivel: 3, Județ: Ilfov, Formă: Altele, ID: 4257 <br /><b>Variante</b><br />Nume: La Stupine, Hartă: PDT, Limbă: Limba română</description><Point><coordinates>25.989706,44.644727,0</coordinates></Point></Placemark>
<Placemark><name>Stupină</name><description>Nume: Stupină, Tip: stupină, Nivel: 3, Județ: Ilfov, Formă: Altele, ID: 4263 <br /><b>Variante</b><br />Nume: Stupină, Hartă: PDT, Limbă: Limba română</description><Point><coordinates>26.278529,44.534436,0</coordinates></Point></Placemark>
<Placemark><name>Câmpul Prisăcii</name><description>Nume: Câmpul Prisăcii, Tip: prisacă, Nivel: 3, Județ: Maramures, Formă: Câmp, ID: 12658 <br /><b>Variante</b><br />Nume: Câmpul Prisăcii, Hartă: PDT, Limbă: Limba română</description><Point><coordinates>23.950116,47.667569,0</coordinates></Point></Placemark>
<Placemark><name>Dealul Prisăcii</name><description>Nume: Dealul Prisăcii, Tip: prisacă, Nivel: 3, Județ: Maramures, Formă: Deal, ID: 7146 <br /><b>Variante</b><br />Nume: Dealul Prisăcii, Hartă: Geomil 25000, Limbă: Limba română</description><Point><coordinates>24.753822,47.611167,0</coordinates></Point></Placemark>
<Placemark><name>Picioru Presecselor</name><description>Nume: Picioru Presecselor, Tip: prisacă, Nivel: 3, Județ: Maramures, Formă: Înălțime, ID: 13753 <br /><b>Variante</b><br />Nume: Picioru Presecselor, Hartă: Transilvania (1869-1870), Limbă: Limba română</description><Point><coordinates>24.089175,47.624415,0</coordinates></Point></Placemark>
<Placemark><name>Prisaca</name><description>Nume: Prisaca, Tip: prisacă, Nivel: 3, Județ: Maramures, Formă: Altele, ID: 4481 <br /><b>Variante</b><br />Nume: Prisaca, Hartă: Geomil 25000, Limbă: Limba română</description><Point><coordinates>23.649676,47.839555,0</coordinates></Point></Placemark>
<Placemark><name>Prisaca</name><description>Nume: Prisaca, Tip: prisacă, Nivel: 3, Județ: Maramures, Formă: Înălțime, ID: 6943 <br /><b>Variante</b><br />Nume: Prisaca, Hartă: Geomil 25000, Limbă: Limba română</description><Point><coordinates>23.363669,47.434078,0</coordinates></Point></Placemark>
<Placemark><name>Prisăcile</name><description>Nume: Prisăcile, Tip: prisacă, Nivel: 3, Județ: Maramures, Formă: Altele, ID: 11520 <br /><b>Variante</b><br />Nume: Prisăcile, Hartă: Geomil 25000, Limbă: Limba română</description><Point><coordinates>24.142976,47.615016,0</coordinates></Point></Placemark>
<Placemark><name>Valea Prisăcii</name><description>Nume: Valea Prisăcii, Tip: prisacă, Nivel: 3, Județ: Maramures, Formă: Vale, ID: 13916 <br /><b>Variante</b><br />Nume: Valea Prisăcii, Hartă: PDT, Limbă: Limba română</description><Point><coordinates>23.502257,47.446618,0</coordinates></Point></Placemark>
<Placemark><name>Stupina</name><description>Nume: Stupina, Tip: stupină, Nivel: 3, Județ: Maramures, Formă: Altele, ID: 13756 <br /><b>Variante</b><br />Nume: Stupina, Hartă: Geomil 25000, Limbă: Limba română<br />Nume: Stupina, Hartă: Imperiul Habsburgic (1887), Limbă: Limba română</description><Point><coordinates>24.280659,47.619050,0</coordinates></Point></Placemark>
<Placemark><name>Valea Stupinei</name><description>Nume: Valea Stupinei, Tip: stupină, Nivel: 3, Județ: Maramures, Formă: Vale, ID: 14103 <br /><b>Variante</b><br />Nume: Valea Stupinei, Hartă: Geomil 25000, Limbă: Limba română</description><Point><coordinates>24.169825,47.781549,0</coordinates></Point></Placemark>
<Placemark><name>Cracu Prisăcii</name><description>Nume: Cracu Prisăcii, Tip: prisacă, Nivel: 3, Județ: Mehedinti, Formă: Înălțime, ID: 834 <br /><b>Variante</b><br />Nume: Cracu Prisăcii, Hartă: Geomil 25000, Limbă: Limba română</description><Point><coordinates>22.192940,44.626771,0</coordinates></Point></Placemark>
<Placemark><name>Dealu Prisaca</name><description>Nume: Dealu Prisaca, Tip: prisacă, Nivel: 3, Județ: Mehedinti, Formă: Deal, ID: 8409 <br /><b>Variante</b><br />Nume: Dealu Prisaca, Hartă: Geomil 25000, Limbă: Limba română</description><Point><coordinates>22.757956,44.750964,0</coordinates></Point></Placemark>
<Placemark><name>Poiana Prisaca</name><description>Nume: Poiana Prisaca, Tip: prisacă, Nivel: 3, Județ: Mehedinti, Formă: Poiană, ID: 6146 <br /><b>Variante</b><br />Nume: Poiana Prisaca, Hartă: Geomil 25000, Limbă: Limba română</description><Point><coordinates>22.440696,44.807481,0</coordinates></Point></Placemark>
<Placemark><name>Prisaka</name><description>Nume: Prisaka, Tip: prisacă, Nivel: 3, Județ: Mehedinti, Formă: Altele, ID: 12463 <br /><b>Variante</b><br />Nume: Prisaka, Hartă: Austriacă, Limbă: Limba română<br />Nume: B. Prisaka, Hartă: Oltenia-Muntenia (1790), Limbă: Limba română</description><Point><coordinates>22.509651,44.756032,0</coordinates></Point></Placemark>
<Placemark><name>Prisăceaua</name><description>Nume: Prisăceaua, Tip: prisăcea, Nivel: 4, Județ: Mehedinti, Formă: Localitate, ID: 6163 <br /><b>Variante</b><br />Nume: Prisăceaua, Hartă: Geomil 25000, Limbă: Limba română</description><Point><coordinates>23.094873,44.317496,0</coordinates></Point></Placemark>
<Placemark><name>Dealu Stuparului</name><description>Nume: Dealu Stuparului, Tip: stupar, Nivel: 3, Județ: Mehedinti, Formă: Deal, ID: 6147 <br /><b>Variante</b><br />Nume: Dealu Stuparului, Hartă: Geomil 25000, Limbă: Limba română</description><Point><coordinates>22.584141,44.722899,0</coordinates></Point></Placemark>
<Placemark><name>Dealul Stuparului</name><description>Nume: Dealul Stuparului, Tip: stupar, Nivel: 3, Județ: Mehedinti, Formă: Deal, ID: 3666 <br /><b>Variante</b><br />Nume: Dealul Stuparului, Hartă: PDT, Limbă: Limba română</description><Point><coordinates>23.062561,44.559313,0</coordinates></Point></Placemark>
<Placemark><name>Valea Stuparului</name><description>Nume: Valea Stuparului, Tip: stupar, Nivel: 3, Județ: Mehedinti, Formă: Vale, ID: 133 <br /><b>Variante</b><br />Nume: Valea Stuparului, Hartă: Geomil 25000, Limbă: Limba română</description><Point><coordinates>23.174242,44.402301,0</coordinates></Point></Placemark>
<Placemark><name>Ogașul Stupinei</name><description>Nume: Ogașul Stupinei, Tip: stupină, Nivel: 3, Județ: Mehedinti, Formă: Vale, ID: 415 <br /><b>Variante</b><br />Nume: Ogașul Stupinei, Hartă: Geomil 25000, Limbă: Limba română</description><Point><coordinates>23.308678,44.615329,0</coordinates></Point></Placemark>
<Placemark><name>Pădurea Stupina</name><description>Nume: Pădurea Stupina, Tip: stupină, Nivel: 3, Județ: Mehedinti, Formă: Pădure, ID: 180 <br /><b>Variante</b><br />Nume: Pădurea Stupina, Hartă: Geomil 25000, Limbă: Limba română</description><Point><coordinates>22.800082,44.635180,0</coordinates></Point></Placemark>
<Placemark><name>Valea Stupinelor</name><description>Nume: Valea Stupinelor, Tip: stupină, Nivel: 3, Județ: Mehedinti, Formă: Vale, ID: 7448 <br /><b>Variante</b><br />Nume: Valea Stupinelor, Hartă: PDT, Limbă: Limba română</description><Point><coordinates>23.312849,44.625899,0</coordinates></Point></Placemark>
<Placemark><name>Pădurea Prisăcii</name><description>Nume: Pădurea Prisăcii, Tip: prisacă, Nivel: 3, Județ: Mures, Formă: Pădure, ID: 5369 <br /><b>Variante</b><br />Nume: Pădurea Prisăcii, Hartă: Geomil 25000, Limbă: Limba română</description><Point><coordinates>24.368613,46.696002,0</coordinates></Point></Placemark>
<Placemark><name>Valea Prisăcii</name><description>Nume: Valea Prisăcii, Tip: prisacă, Nivel: 3, Județ: Mures, Formă: Vale, ID: 2082 <br /><b>Variante</b><br />Nume: Valea Prisăcii, Hartă: Geomil 25000, Limbă: Limba română</description><Point><coordinates>24.808821,47.039199,0</coordinates></Point></Placemark>
<Placemark><name>Dealul Stupinei</name><description>Nume: Dealul Stupinei, Tip: stupină, Nivel: 3, Județ: Mures, Formă: Deal, ID: 6759 <br /><b>Variante</b><br />Nume: Dealul Stupinei, Hartă: Geomil 25000, Limbă: Limba română</description><Point><coordinates>24.156519,46.364599,0</coordinates></Point></Placemark>
<Placemark><name>Stupina</name><description>Nume: Stupina, Tip: stupină, Nivel: 3, Județ: Mures, Formă: Altele, ID: 5456 <br /><b>Variante</b><br />Nume: Stupina, Hartă: PDT, Limbă: Limba română<br />Nume: Stupina, Hartă: Geomil 25000, Limbă: Limba română</description><Point><coordinates>24.687442,46.856957,0</coordinates></Point></Placemark>
<Placemark><name>Stupina</name><description>Nume: Stupina, Tip: stupină, Nivel: 3, Județ: Mures, Formă: Altele, ID: 6771 <br /><b>Variante</b><br />Nume: Stupina, Hartă: Geomil 25000, Limbă: Limba română</description><Point><coordinates>24.127254,46.624998,0</coordinates></Point></Placemark>
<Placemark><name>Coasta Prisăcii</name><description>Nume: Coasta Prisăcii, Tip: prisacă, Nivel: 3, Județ: Neamt, Formă: Înălțime, ID: 7798 <br /><b>Variante</b><br />Nume: Coasta Prisăcii, Hartă: Geomil 25000, Limbă: Limba română</description><Point><coordinates>27.110493,47.055473,0</coordinates></Point></Placemark>
<Placemark><name>La Prisacă</name><description>Nume: La Prisacă, Tip: prisacă, Nivel: 3, Județ: Neamt, Formă: Altele, ID: 2249 <br /><b>Variante</b><br />Nume: La Prisacă, Hartă: Geomil 25000, Limbă: Limba română</description><Point><coordinates>26.441272,47.298477,0</coordinates></Point></Placemark>
<Placemark><name>La Prisacă</name><description>Nume: La Prisacă, Tip: prisacă, Nivel: 3, Județ: Neamt, Formă: Altele, ID: 9147 <br /><b>Variante</b><br />Nume: La Prisacă, Hartă: PDT, Limbă: Limba română</description><Point><coordinates>26.573158,46.788918,0</coordinates></Point></Placemark>
<Placemark><name>Pârâul Prisăci</name><description>Nume: Pârâul Prisăci, Tip: prisacă, Nivel: 3, Județ: Neamt, Formă: Vale, ID: 15493 <br /><b>Variante</b><br />Nume: Pârâul Prisăci, Hartă: PDT, Limbă: Limba română</description><Point><coordinates>25.873206,47.229592,0</coordinates></Point></Placemark>
<Placemark><name>Poiana de la Prisaca</name><description>Nume: Poiana de la Prisaca, Tip: prisacă, Nivel: 3, Județ: Neamt, Formă: Poiană, ID: 7813 <br /><b>Variante</b><br />Nume: Poiana de la Prisaca, Hartă: PDT, Limbă: Limba română</description><Point><coordinates>26.809540,46.946640,0</coordinates></Point></Placemark>
<Placemark><name>Prisacă</name><description>Nume: Prisacă, Tip: prisacă, Nivel: 3, Județ: Neamt, Formă: Altele, ID: 8907 <br /><b>Variante</b><br />Nume: Prisacă, Hartă: PDT, Limbă: Limba română</description><Point><coordinates>26.480271,47.219742,0</coordinates></Point></Placemark>
<Placemark><name>Șesul la Prisacă</name><description>Nume: Șesul la Prisacă, Tip: prisacă, Nivel: 3, Județ: Neamt, Formă: Câmp, ID: 3885 <br /><b>Variante</b><br />Nume: Șesul la Prisacă, Hartă: PDT, Limbă: Limba română</description><Point><coordinates>26.540066,47.213960,0</coordinates></Point></Placemark>
<Placemark><name>Șesul Prisăcii</name><description>Nume: Șesul Prisăcii, Tip: prisacă, Nivel: 3, Județ: Neamt, Formă: Câmp, ID: 11393 <br /><b>Variante</b><br />Nume: Șesul Prisăcii, Hartă: Geomil 25000, Limbă: Limba română</description><Point><coordinates>26.774218,47.049288,0</coordinates></Point></Placemark>
<Placemark><name>Grindul Prisaca</name><description>Nume: Grindul Prisaca, Tip: prisacă, Nivel: 3, Județ: Olt, Formă: Înălțime, ID: 9327 <br /><b>Variante</b><br />Nume: Grindul Prisaca, Hartă: PDT, Limbă: Limba română</description><Point><coordinates>24.167215,43.791362,0</coordinates></Point></Placemark>
<Placemark><name>Prisaca</name><description>Nume: Prisaca, Tip: prisacă, Nivel: 3, Județ: Olt, Formă: Localitate, ID: 11340 <br /><b>Variante</b><br />Nume: Prisaca, Hartă: Geomil 25000, Limbă: Limba română</description><Point><coordinates>23.911022,44.472057,0</coordinates></Point></Placemark>
<Placemark><name>Priseaca</name><description>Nume: Priseaca, Tip: prisacă, Nivel: 3, Județ: Olt, Formă: Localitate, ID: 8119 <br /><b>Variante</b><br />Nume: Priseaca, Hartă: Geomil 25000, Limbă: Limba română<br />Nume: Priseaca, Hartă: PDT, Limbă: Limba română</description><Point><coordinates>24.449229,44.515141,0</coordinates></Point></Placemark>
<Placemark><name>Priseaca</name><description>Nume: Priseaca, Tip: prisacă, Nivel: 3, Județ: Olt, Formă: Altele, ID: 9487 <br /><b>Variante</b><br />Nume: Priseaca, Hartă: PDT, Limbă: Limba română</description><Point><coordinates>24.505872,44.517725,0</coordinates></Point></Placemark>
<Placemark><name>Valea Prisăceaua</name><description>Nume: Valea Prisăceaua, Tip: prisăcea, Nivel: 4, Județ: Olt, Formă: Vale, ID: 4786 <br /><b>Variante</b><br />Nume: Valea Prisăceaua, Hartă: PDT, Limbă: Limba română</description><Point><coordinates>24.418452,44.724109,0</coordinates></Point></Placemark>
<Placemark><name>Dealu Stuparului</name><description>Nume: Dealu Stuparului, Tip: stupar, Nivel: 3, Județ: Olt, Formă: Deal, ID: 1370 <br /><b>Variante</b><br />Nume: Dealu Stuparului, Hartă: Geomil 25000, Limbă: Limba română<br />Nume: Dealu Stuparului, Hartă: PDT, Limbă: Limba română</description><Point><coordinates>24.539774,44.654441,0</coordinates></Point></Placemark>
<Placemark><name>Valea Stuparilor</name><description>Nume: Valea Stuparilor, Tip: stupar, Nivel: 3, Județ: Olt, Formă: Vale, ID: 12236 <br /><b>Variante</b><br />Nume: Valea Stuparilor, Hartă: PDT, Limbă: Limba română</description><Point><coordinates>24.128318,44.475817,0</coordinates></Point></Placemark>
<Placemark><name>Valea Stuparului</name><description>Nume: Valea Stuparului, Tip: stupar, Nivel: 3, Județ: Olt, Formă: Vale, ID: 13532 <br /><b>Variante</b><br />Nume: Valea Stuparului, Hartă: PDT, Limbă: Limba română</description><Point><coordinates>24.563758,44.634005,0</coordinates></Point></Placemark>
<Placemark><name>Balta Stupina</name><description>Nume: Balta Stupina, Tip: stupină, Nivel: 3, Județ: Olt, Formă: Apă-deal-câmpie, ID: 12135 <br /><b>Variante</b><br />Nume: Balta Stupina, Hartă: PDT, Limbă: Limba română</description><Point><coordinates>24.559435,44.104388,0</coordinates></Point></Placemark>
<Placemark><name>Pădurea Stupina</name><description>Nume: Pădurea Stupina, Tip: stupină, Nivel: 3, Județ: Olt, Formă: Pădure, ID: 1996 <br /><b>Variante</b><br />Nume: Pădurea Stupina, Hartă: Geomil 25000, Limbă: Limba română<br />Nume: Pădurea Stupina, Hartă: PDT, Limbă: Limba română</description><Point><coordinates>24.503363,44.753561,0</coordinates></Point></Placemark>
<Placemark><name>Pădurea Stupina</name><description>Nume: Pădurea Stupina, Tip: stupină, Nivel: 3, Județ: Olt, Formă: Pădure, ID: 9488 <br /><b>Variante</b><br />Nume: Pădurea Stupina, Hartă: PDT, Limbă: Limba română</description><Point><coordinates>24.597742,44.436453,0</coordinates></Point></Placemark>
<Placemark><name>Valea Stupina</name><description>Nume: Valea Stupina, Tip: stupină, Nivel: 3, Județ: Olt, Formă: Vale, ID: 1990 <br /><b>Variante</b><br />Nume: Valea Stupina, Hartă: Geomil 25000, Limbă: Limba română</description><Point><coordinates>24.543178,44.615339,0</coordinates></Point></Placemark>
<Placemark><name>Valea Stupina</name><description>Nume: Valea Stupina, Tip: stupină, Nivel: 3, Județ: Olt, Formă: Vale, ID: 3062 <br /><b>Variante</b><br />Nume: Valea Stupina, Hartă: Geomil 25000, Limbă: Limba română</description><Point><coordinates>24.408418,44.722935,0</coordinates></Point></Placemark>
<Placemark><name>Dealu Stupineaua</name><description>Nume: Dealu Stupineaua, Tip: stupinea, Nivel: 4, Județ: Olt, Formă: Deal, ID: 3060 <br /><b>Variante</b><br />Nume: Dealu Stupineaua, Hartă: Geomil 25000, Limbă: Limba română</description><Point><coordinates>24.337681,44.685792,0</coordinates></Point></Placemark>
<Placemark><name>Priseaca</name><description>Nume: Priseaca, Tip: prisacă, Nivel: 3, Județ: Prahova, Formă: Localitate, ID: 3977 <br /><b>Variante</b><br />Nume: Priseaca, Hartă: Geomil 25000, Limbă: Limba română</description><Point><coordinates>26.247071,45.099928,0</coordinates></Point></Placemark>
<Placemark><name>Stupina</name><description>Nume: Stupina, Tip: stupină, Nivel: 3, Județ: Prahova, Formă: Altele, ID: 10083 <br /><b>Variante</b><br />Nume: Stupina, Hartă: PDT, Limbă: Limba română</description><Point><coordinates>25.995392,44.982749,0</coordinates></Point></Placemark>
<Placemark><name>Stupine</name><description>Nume: Stupine, Tip: stupină, Nivel: 3, Județ: Prahova, Formă: Altele, ID: 8793 <br /><b>Variante</b><br />Nume: Stupine, Hartă: PDT, Limbă: Limba română</description><Point><coordinates>26.314357,44.868614,0</coordinates></Point></Placemark>
<Placemark><name>Valea Stupinei</name><description>Nume: Valea Stupinei, Tip: stupină, Nivel: 3, Județ: Prahova, Formă: Vale, ID: 11131 <br /><b>Variante</b><br />Nume: Valea Stupinei, Hartă: PDT, Limbă: Limba română</description><Point><coordinates>25.739563,45.174934,0</coordinates></Point></Placemark>
<Placemark><name>Valea Stupinii</name><description>Nume: Valea Stupinii, Tip: stupină, Nivel: 3, Județ: Prahova, Formă: Vale, ID: 819 <br /><b>Variante</b><br />Nume: Valea Stupinii, Hartă: Geomil 25000, Limbă: Limba română</description><Point><coordinates>26.145602,45.267659,0</coordinates></Point></Placemark>
<Placemark><name>Dealu Prisăcii</name><description>Nume: Dealu Prisăcii, Tip: prisacă, Nivel: 3, Județ: Salaj, Formă: Deal, ID: 1048 <br /><b>Variante</b><br />Nume: Dealu Prisăcii, Hartă: Geomil 25000, Limbă: Limba română</description><Point><coordinates>22.984300,47.072389,0</coordinates></Point></Placemark>
<Placemark><name>Stupini</name><description>Nume: Stupini, Tip: stupină, Nivel: 3, Județ: Salaj, Formă: Localitate, ID: 6913 <br /><b>Variante</b><br />Nume: Stupini, Hartă: Geomil 25000, Limbă: Limba română</description><Point><coordinates>23.385267,47.072489,0</coordinates></Point></Placemark>
<Placemark><name>Coasta Prisăcilor</name><description>Nume: Coasta Prisăcilor, Tip: prisacă, Nivel: 3, Județ: Satu Mare, Formă: Înălțime, ID: 4467 <br /><b>Variante</b><br />Nume: Coasta Prisăcilor, Hartă: Geomil 25000, Limbă: Limba română</description><Point><coordinates>23.508358,47.943155,0</coordinates></Point></Placemark>
<Placemark><name>Dâmbu Prisăcii</name><description>Nume: Dâmbu Prisăcii, Tip: prisacă, Nivel: 3, Județ: Satu Mare, Formă: Înălțime, ID: 4421 <br /><b>Variante</b><br />Nume: Dâmbu Prisăcii, Hartă: Geomil 25000, Limbă: Limba română</description><Point><coordinates>23.188008,47.607825,0</coordinates></Point></Placemark>
<Placemark><name>La Stupini</name><description>Nume: La Stupini, Tip: stupină, Nivel: 3, Județ: Satu Mare, Formă: Altele, ID: 4471 <br /><b>Variante</b><br />Nume: La Stupini, Hartă: Geomil 25000, Limbă: Limba română</description><Point><coordinates>23.231210,47.751668,0</coordinates></Point></Placemark>
<Placemark><name>Stupină</name><description>Nume: Stupină, Tip: stupină, Nivel: 3, Județ: Satu Mare, Formă: Altele, ID: 14503 <br /><b>Variante</b><br />Nume: Stupină, Hartă: ANCPI, Limbă: Limba română</description><Point><coordinates>22.431117,47.563329,0</coordinates></Point></Placemark>
<Placemark><name>Dealul Priseci</name><description>Nume: Dealul Priseci, Tip: prisacă, Nivel: 3, Județ: Sibiu, Formă: Deal, ID: 4039 <br /><b>Variante</b><br />Nume: Dealul Priseci, Hartă: PDT, Limbă: Limba română</description><Point><coordinates>24.253719,45.622840,0</coordinates></Point></Placemark>
<Placemark><name>Presaca</name><description>Nume: Presaca, Tip: prisacă, Nivel: 3, Județ: Sibiu, Formă: Localitate, ID: 10483 <br /><b>Variante</b><br />Nume: Presaca, Hartă: PDT, Limbă: Limba română</description><Point><coordinates>23.890241,45.975912,0</coordinates></Point></Placemark>
<Placemark><name>Prisaca</name><description>Nume: Prisaca, Tip: prisacă, Nivel: 3, Județ: Sibiu, Formă: Înălțime, ID: 12499 <br /><b>Variante</b><br />Nume: Prisaca, Hartă: Imperiul Habsburgic (1887), Limbă: Limba română</description><Point><coordinates>24.482636,45.639807,0</coordinates></Point></Placemark>
<Placemark><name>Stupul</name><description>Nume: Stupul, Tip: stupi, Nivel: 3, Județ: Sibiu, Formă: Vale, ID: 8584 <br /><b>Variante</b><br />Nume: Stupul, Hartă: Geomil 25000, Limbă: Limba română</description><Point><coordinates>24.127359,45.732691,0</coordinates></Point></Placemark>
<Placemark><name>Pârâul Stupini</name><description>Nume: Pârâul Stupini, Tip: stupină, Nivel: 3, Județ: Sibiu, Formă: Vale, ID: 8586 <br /><b>Variante</b><br />Nume: Pârâul Stupini, Hartă: PDT, Limbă: Limba română</description><Point><coordinates>24.240596,45.747802,0</coordinates></Point></Placemark>
<Placemark><name>Stupina Mundri</name><description>Nume: Stupina Mundri, Tip: stupină, Nivel: 3, Județ: Sibiu, Formă: Altele, ID: 10964 <br /><b>Variante</b><br />Nume: Stupina Mundri, Hartă: Transilvania (1869-1870), Limbă: Limba română</description><Point><coordinates>24.057918,45.927228,0</coordinates></Point></Placemark>
<Placemark><name>Dealul Prisăcii</name><description>Nume: Dealul Prisăcii, Tip: prisacă, Nivel: 3, Județ: Suceava, Formă: Deal, ID: 4925 <br /><b>Variante</b><br />Nume: Dealul Prisăcii, Hartă: PDT, Limbă: Limba română</description><Point><coordinates>26.336464,47.491682,0</coordinates></Point></Placemark>
<Placemark><name>Dealul Prisecei</name><description>Nume: Dealul Prisecei, Tip: prisacă, Nivel: 3, Județ: Suceava, Formă: Deal, ID: 9068 <br /><b>Variante</b><br />Nume: Dealul Prisecei, Hartă: PDT, Limbă: Limba română</description><Point><coordinates>26.443300,47.479371,0</coordinates></Point></Placemark>
<Placemark><name>La Prisacă</name><description>Nume: La Prisacă, Tip: prisacă, Nivel: 3, Județ: Suceava, Formă: Altele, ID: 2253 <br /><b>Variante</b><br />Nume: La Prisacă, Hartă: Geomil 25000, Limbă: Limba română</description><Point><coordinates>26.396207,47.343526,0</coordinates></Point></Placemark>
<Placemark><name>Prisaca</name><description>Nume: Prisaca, Tip: prisacă, Nivel: 3, Județ: Suceava, Formă: Altele, ID: 1795 <br /><b>Variante</b><br />Nume: Prisaca, Hartă: Geomil 25000, Limbă: Limba română<br />Nume: Prisaca Grigorești, Hartă: PDT, Limbă: Limba română</description><Point><coordinates>26.405343,47.722721,0</coordinates></Point></Placemark>
<Placemark><name>Prisaca</name><description>Nume: Prisaca, Tip: prisacă, Nivel: 3, Județ: Suceava, Formă: Altele, ID: 2279 <br /><b>Variante</b><br />Nume: Prisaca, Hartă: Geomil 25000, Limbă: Limba română</description><Point><coordinates>25.839925,47.805281,0</coordinates></Point></Placemark>
<Placemark><name>Prisaca</name><description>Nume: Prisaca, Tip: prisacă, Nivel: 3, Județ: Suceava, Formă: Înălțime, ID: 8915 <br /><b>Variante</b><br />Nume: Prisaca, Hartă: PDT, Limbă: Limba română</description><Point><coordinates>26.467651,47.370725,0</coordinates></Point></Placemark>
<Placemark><name>Prisaca</name><description>Nume: Prisaca, Tip: prisacă, Nivel: 3, Județ: Suceava, Formă: Altele, ID: 10755 <br /><b>Variante</b><br />Nume: Prisaca, Hartă: Imperiul Habsburgic (1887), Limbă: Limba română</description><Point><coordinates>26.224927,47.717629,0</coordinates></Point></Placemark>
<Placemark><name>Prisaca</name><description>Nume: Prisaca, Tip: prisacă, Nivel: 3, Județ: Suceava, Formă: Altele, ID: 10770 <br /><b>Variante</b><br />Nume: Prisaca, Hartă: Imperiul Habsburgic (1887), Limbă: Limba română</description><Point><coordinates>25.657006,47.552504,0</coordinates></Point></Placemark>
<Placemark><name>Prisaca lui Cantacuzen</name><description>Nume: Prisaca lui Cantacuzen, Tip: prisacă, Nivel: 3, Județ: Suceava, Formă: Altele, ID: 4922 <br /><b>Variante</b><br />Nume: Prisaca lui Cantacuzen, Hartă: PDT, Limbă: Limba română<br />Nume: Prisaca lui Cantacuzen, Hartă: Geomil 25000, Limbă: Limba română</description><Point><coordinates>26.311196,47.637452,0</coordinates></Point></Placemark>
<Placemark><name>Vârful Prisăcuței</name><description>Nume: Vârful Prisăcuței, Tip: prisăcuța, Nivel: 4, Județ: Suceava, Formă: Înălțime, ID: 10766 <br /><b>Variante</b><br />Nume: Vârful Prisăcuței, Hartă: Geomil 25000, Limbă: Limba română</description><Point><coordinates>25.590814,47.876316,0</coordinates></Point></Placemark>
<Placemark><name>Valea Stuparului</name><description>Nume: Valea Stuparului, Tip: stupar, Nivel: 3, Județ: Teleorman, Formă: Poiană, ID: 1391 <br /><b>Variante</b><br />Nume: Valea Stuparului, Hartă: Geomil 25000, Limbă: Limba română</description><Point><coordinates>25.493793,43.987429,0</coordinates></Point></Placemark>
<Placemark><name>Valea la Stupina</name><description>Nume: Valea la Stupina, Tip: stupină, Nivel: 3, Județ: Teleorman, Formă: Vale, ID: 12209 <br /><b>Variante</b><br />Nume: Valea la Stupina, Hartă: PDT, Limbă: Limba română</description><Point><coordinates>25.527176,43.834014,0</coordinates></Point></Placemark>
<Placemark><name>Valea Stupinei</name><description>Nume: Valea Stupinei, Tip: stupină, Nivel: 3, Județ: Teleorman, Formă: Vale, ID: 14232 <br /><b>Variante</b><br />Nume: Valea Stupinei, Hartă: PDT, Limbă: Limba română</description><Point><coordinates>25.176481,43.984248,0</coordinates></Point></Placemark>
<Placemark><name>Dealu Prisaca</name><description>Nume: Dealu Prisaca, Tip: prisacă, Nivel: 3, Județ: Timis, Formă: Deal, ID: 899 <br /><b>Variante</b><br />Nume: Dealu Prisaca, Hartă: Geomil 25000, Limbă: Limba română</description><Point><coordinates>21.459311,45.269140,0</coordinates></Point></Placemark>
<Placemark><name>la Prisaka</name><description>Nume: la Prisaka, Tip: prisacă, Nivel: 3, Județ: Timis, Formă: Altele, ID: 13492 <br /><b>Variante</b><br />Nume: la Prisaka, Hartă: Ungară 1869, Limbă: Limba română</description><Point><coordinates>21.960113,45.844130,0</coordinates></Point></Placemark>
<Placemark><name>Pârâu Prisaca</name><description>Nume: Pârâu Prisaca, Tip: prisacă, Nivel: 3, Județ: Timis, Formă: Vale, ID: 6177 <br /><b>Variante</b><br />Nume: Pârâu Prisaca, Hartă: Geomil 25000, Limbă: Limba română</description><Point><coordinates>22.491624,45.758572,0</coordinates></Point></Placemark>
<Placemark><name>Prisaka</name><description>Nume: Prisaka, Tip: prisacă, Nivel: 3, Județ: Timis, Formă: Altele, ID: 14247 <br /><b>Variante</b><br />Nume: Prisaka, Hartă: Ungară 1869, Limbă: Limba română</description><Point><coordinates>22.492445,45.784130,0</coordinates></Point></Placemark>
<Placemark><name>Dealul Stupinei</name><description>Nume: Dealul Stupinei, Tip: stupină, Nivel: 3, Județ: Timis, Formă: Deal, ID: 1240 <br /><b>Variante</b><br />Nume: Dealul Stupinei, Hartă: Geomil 25000, Limbă: Limba română</description><Point><coordinates>21.776642,45.533684,0</coordinates></Point></Placemark>
<Placemark><name>La Stupină</name><description>Nume: La Stupină, Tip: stupină, Nivel: 3, Județ: Timis, Formă: Altele, ID: 10209 <br /><b>Variante</b><br />Nume: La Stupină, Hartă: Geomil 25000, Limbă: Limba română</description><Point><coordinates>21.850221,45.941423,0</coordinates></Point></Placemark>