<?xml version="1.0" encoding="UTF-8"?><kml xmlns="http://www.opengis.net/kml/2.2"><Document><Placemark><name>Valea Remete</name><description>Nume: Valea Remete, Tip: remete, Nivel: 3, Județ: Alba, Formă: Vale, ID: 11832 <br /><b>Variante</b><br />Nume: Valea Remete, Hartă: Imperiul Habsburgic (1887), Limbă: Limba română</description><Point><coordinates>23.582621,46.320920,0</coordinates></Point></Placemark>
<Placemark><name>Remetea</name><description>Nume: Remetea, Tip: remetea, Nivel: 2, Județ: Alba, Formă: Localitate, ID: 5576 <br /><b>Variante</b><br />Nume: Remetea, Hartă: Geomil 25000, Limbă: Limba română</description><Point><coordinates>23.429500,46.120374,0</coordinates></Point></Placemark>
<Placemark><name>Rimetea</name><description>Nume: Rimetea, Tip: remetea, Nivel: 2, Județ: Alba, Formă: Localitate, ID: 7062 <br /><b>Variante</b><br />Nume: Rimetea, Hartă: Geomil 25000, Limbă: Limba română</description><Point><coordinates>23.567647,46.453433,0</coordinates></Point></Placemark>
<Placemark><name>Pădurea Remeteag</name><description>Nume: Pădurea Remeteag, Tip: remeteag, Nivel: 3, Județ: Arad, Formă: Pădure, ID: 5644 <br /><b>Variante</b><br />Nume: Pădurea Remeteag, Hartă: PDT, Limbă: Limba română</description><Point><coordinates>21.031509,46.154263,0</coordinates></Point></Placemark>
<Placemark><name>Pădurea Remetu</name><description>Nume: Pădurea Remetu, Tip: remetea, Nivel: 2, Județ: Bihor, Formă: Pădure, ID: 4178 <br /><b>Variante</b><br />Nume: Pădurea Remetu, Hartă: Geomil 25000, Limbă: Limba română</description><Point><coordinates>22.351887,47.186442,0</coordinates></Point></Placemark>
<Placemark><name>Remetea</name><description>Nume: Remetea, Tip: remetea, Nivel: 2, Județ: Bihor, Formă: Localitate, ID: 6989 <br /><b>Variante</b><br />Nume: Remetea, Hartă: Geomil 25000, Limbă: Limba română</description><Point><coordinates>22.348939,46.739063,0</coordinates></Point></Placemark>
<Placemark><name>Remeți</name><description>Nume: Remeți, Tip: remeți, Nivel: 3, Județ: Bihor, Formă: Localitate, ID: 5917 <br /><b>Variante</b><br />Nume: Remeți, Hartă: Geomil 25000, Limbă: Limba română</description><Point><coordinates>22.655973,46.846938,0</coordinates></Point></Placemark>
<Placemark><name>Valea Rimeților</name><description>Nume: Valea Rimeților, Tip: remeți, Nivel: 3, Județ: Bihor, Formă: Vale, ID: 10277 <br /><b>Variante</b><br />Nume: Valea Rimeților, Hartă: PDT, Limbă: Limba română</description><Point><coordinates>22.372748,46.955441,0</coordinates></Point></Placemark>
<Placemark><name>Valea Remetea</name><description>Nume: Valea Remetea, Tip: remetea, Nivel: 2, Județ: Bistrita Nasaud, Formă: Vale, ID: 9865 <br /><b>Variante</b><br />Nume: Valea Remetea, Hartă: Geomil 25000, Limbă: Limba română</description><Point><coordinates>24.630628,47.321885,0</coordinates></Point></Placemark>
<Placemark><name>Rimeti</name><description>Nume: Rimeti, Tip: rimețe, Nivel: 3, Județ: Bistrita Nasaud, Formă: Înălțime, ID: 10495 <br /><b>Variante</b><br />Nume: Rimeti, Hartă: Transilvania (1869-1870), Limbă: Limba română</description><Point><coordinates>24.246571,46.843036,0</coordinates></Point></Placemark>
<Placemark><name>Dealul Remetea</name><description>Nume: Dealul Remetea, Tip: remetea, Nivel: 2, Județ: Brasov, Formă: Deal, ID: 6816 <br /><b>Variante</b><br />Nume: Dealul Remetea, Hartă: Geomil 25000, Limbă: Limba română</description><Point><coordinates>25.343072,45.766746,0</coordinates></Point></Placemark>
<Placemark><name>Remetea</name><description>Nume: Remetea, Tip: remetea, Nivel: 2, Județ: Brasov, Formă: Altele, ID: 11777 <br /><b>Variante</b><br />Nume: Remetea, Hartă: Geomil 25000, Limbă: Limba română</description><Point><coordinates>24.794524,45.804000,0</coordinates></Point></Placemark>
<Placemark><name>Valea Remetea</name><description>Nume: Valea Remetea, Tip: remetea, Nivel: 2, Județ: Brasov, Formă: Vale, ID: 2738 <br /><b>Variante</b><br />Nume: Valea Remetea, Hartă: Geomil 25000, Limbă: Limba română</description><Point><coordinates>25.485066,45.975020,0</coordinates></Point></Placemark>
<Placemark><name>Vârful Remecioara</name><description>Nume: Vârful Remecioara, Tip: remecioara, Nivel: 3, Județ: Caras Severin, Formă: Înălțime, ID: 13234 <br /><b>Variante</b><br />Nume: Vârful Remecioara, Hartă: Imperiul Habsburgic (1887), Limbă: Limba română<br />Nume: Vurfu Remetu, Hartă: Transilvania (1769-1773), Limbă: Limba română</description><Point><coordinates>22.640890,45.520665,0</coordinates></Point></Placemark>
<Placemark><name>Valea Remetei</name><description>Nume: Valea Remetei, Tip: remetea, Nivel: 2, Județ: Caras Severin, Formă: Vale, ID: 5684 <br /><b>Variante</b><br />Nume: Valea Remetei, Hartă: Geomil 25000, Limbă: Limba română<br />Nume: Valea Remetea, Hartă: PDT, Limbă: Limba română</description><Point><coordinates>21.895292,45.504266,0</coordinates></Point></Placemark>
<Placemark><name>Remete</name><description>Nume: Remete, Tip: remete, Nivel: 3, Județ: Cluj, Formă: Înălțime, ID: 7016 <br /><b>Variante</b><br />Nume: Remete, Hartă: Geomil 25000, Limbă: Limba română</description><Point><coordinates>23.017364,46.873699,0</coordinates></Point></Placemark>
<Placemark><name>Remete</name><description>Nume: Remete, Tip: remete, Nivel: 3, Județ: Cluj, Formă: Localitate, ID: 10429 <br /><b>Variante</b><br />Nume: Remete, Hartă: PDT, Limbă: Limba română<br />Nume: Remete, Hartă: Transilvania (1869-1870), Limbă: Limba română</description><Point><coordinates>22.917906,46.881278,0</coordinates></Point></Placemark>
<Placemark><name>La Rimețe</name><description>Nume: La Rimețe, Tip: rimețe, Nivel: 3, Județ: Cluj, Formă: Altele, ID: 7049 <br /><b>Variante</b><br />Nume: La Rimețe, Hartă: Geomil 25000, Limbă: Limba română</description><Point><coordinates>23.772475,47.092806,0</coordinates></Point></Placemark>
<Placemark><name>Pădurea Rimetea</name><description>Nume: Pădurea Rimetea, Tip: rimetea, Nivel: 3, Județ: Cluj, Formă: Pădure, ID: 11419 <br /><b>Variante</b><br />Nume: Pădurea Rimetea, Hartă: Geomil 25000, Limbă: Limba română</description><Point><coordinates>23.489937,46.909623,0</coordinates></Point></Placemark>
<Placemark><name>Remete</name><description>Nume: Remete, Tip: remete, Nivel: 3, Județ: Covasna, Formă: Altele, ID: 10877 <br /><b>Variante</b><br />Nume: Remete, Hartă: Imperiul Habsburgic (1887), Limbă: Limba română</description><Point><coordinates>25.799955,45.765030,0</coordinates></Point></Placemark>
<Placemark><name>Câmpia Remetea</name><description>Nume: Câmpia Remetea, Tip: remetea, Nivel: 2, Județ: Covasna, Formă: Câmp, ID: 6055 <br /><b>Variante</b><br />Nume: Câmpia Remetea, Hartă: Geomil 25000, Limbă: Limba română</description><Point><coordinates>25.845512,45.890040,0</coordinates></Point></Placemark>
<Placemark><name>Remete</name><description>Nume: Remete, Tip: remete, Nivel: 3, Județ: Harghita, Formă: Localitate, ID: 12556 <br /><b>Variante</b><br />Nume: Remete, Hartă: Transilvania (1769-1773), Limbă: Limba română<br />Nume: Remete, Hartă: Imperiul Habsburgic (1887), Limbă: Limba română</description><Point><coordinates>25.399375,46.292285,0</coordinates></Point></Placemark>
<Placemark><name>Pădurea Remetea</name><description>Nume: Pădurea Remetea, Tip: remetea, Nivel: 2, Județ: Harghita, Formă: Pădure, ID: 5417 <br /><b>Variante</b><br />Nume: Pădurea Remetea, Hartă: Geomil 25000, Limbă: Limba română</description><Point><coordinates>25.522266,46.983219,0</coordinates></Point></Placemark>
<Placemark><name>Remetea</name><description>Nume: Remetea, Tip: remetea, Nivel: 2, Județ: Harghita, Formă: Localitate, ID: 10036 <br /><b>Variante</b><br />Nume: Remetea, Hartă: Geomil 25000, Limbă: Limba română</description><Point><coordinates>25.451850,46.794471,0</coordinates></Point></Placemark>
<Placemark><name>La Remetea</name><description>Nume: La Remetea, Tip: remetea, Nivel: 2, Județ: Hunedoara, Formă: Altele, ID: 6253 <br /><b>Variante</b><br />Nume: La Remetea, Hartă: Geomil 25000, Limbă: Limba română</description><Point><coordinates>22.903822,46.159684,0</coordinates></Point></Placemark>
<Placemark><name>Remetya</name><description>Nume: Remetya, Tip: remetea, Nivel: 2, Județ: Hunedoara, Formă: Altele, ID: 15624 <br /><b>Variante</b><br />Nume: Remetya, Hartă: Transilvania (1869-1870), Limbă: Limba maghiară</description><Point><coordinates>23.031389,45.798239,0</coordinates></Point></Placemark>
<Placemark><name>Remetea Chiorului</name><description>Nume: Remetea Chiorului, Tip: remetea, Nivel: 2, Județ: Maramures, Formă: Localitate, ID: 10560 <br /><b>Variante</b><br />Nume: Remetea Chiorului, Hartă: PDT, Limbă: Limba română<br />Nume: Remete, Hartă: Imperiul Habsburgic (1887), Limbă: Limba română</description><Point><coordinates>23.545285,47.527861,0</coordinates></Point></Placemark>
<Placemark><name>Remeți</name><description>Nume: Remeți, Tip: remeți, Nivel: 3, Județ: Maramures, Formă: Localitate, ID: 7225 <br /><b>Variante</b><br />Nume: Remeți, Hartă: PDT, Limbă: Limba română<br />Nume: Remeți, Hartă: Geomil 25000, Limbă: Limba română</description><Point><coordinates>23.638285,47.990018,0</coordinates></Point></Placemark>
<Placemark><name>Remeți</name><description>Nume: Remeți, Tip: remeți, Nivel: 3, Județ: Maramures, Formă: Localitate, ID: 10562 <br /><b>Variante</b><br />Nume: Remeți, Hartă: PDT, Limbă: Limba română</description><Point><coordinates>23.334999,47.480038,0</coordinates></Point></Placemark>
<Placemark><name>Remete</name><description>Nume: Remete, Tip: remete, Nivel: 3, Județ: Mures, Formă: Localitate, ID: 12813 <br /><b>Variante</b><br />Nume: Remete, Hartă: Transilvania (1769-1773), Limbă: Limba română</description><Point><coordinates>24.923606,46.661035,0</coordinates></Point></Placemark>
<Placemark><name>Remetea</name><description>Nume: Remetea, Tip: remetea, Nivel: 2, Județ: Mures, Formă: Altele, ID: 5444 <br /><b>Variante</b><br />Nume: Remetea, Hartă: PDT, Limbă: Limba română<br />Nume: Remetea, Hartă: Geomil 25000, Limbă: Limba română</description><Point><coordinates>24.844961,46.986913,0</coordinates></Point></Placemark>
<Placemark><name>Remetea</name><description>Nume: Remetea, Tip: remetea, Nivel: 2, Județ: Mures, Formă: Localitate, ID: 7332 <br /><b>Variante</b><br />Nume: Remetea, Hartă: Geomil 25000, Limbă: Limba română</description><Point><coordinates>24.520332,46.572576,0</coordinates></Point></Placemark>
<Placemark><name>Valea Rimeți</name><description>Nume: Valea Rimeți, Tip: rimețe, Nivel: 3, Județ: Mures, Formă: Vale, ID: 10654 <br /><b>Variante</b><br />Nume: Valea Rimeți, Hartă: PDT, Limbă: Limba română</description><Point><coordinates>24.199378,46.763777,0</coordinates></Point></Placemark>
<Placemark><name>Remeți</name><description>Nume: Remeți, Tip: remeți, Nivel: 3, Județ: Salaj, Formă: Altele, ID: 6925 <br /><b>Variante</b><br />Nume: Remeți, Hartă: Geomil 25000, Limbă: Limba română</description><Point><coordinates>23.457116,47.055145,0</coordinates></Point></Placemark>
<Placemark><name>Valea Remeți</name><description>Nume: Valea Remeți, Tip: remeți, Nivel: 3, Județ: Salaj, Formă: Vale, ID: 2617 <br /><b>Variante</b><br />Nume: Valea Remeți, Hartă: Geomil 25000, Limbă: Limba română</description><Point><coordinates>22.843999,47.380042,0</coordinates></Point></Placemark>
<Placemark><name>Valea Remeți</name><description>Nume: Valea Remeți, Tip: remeți, Nivel: 3, Județ: Salaj, Formă: Vale, ID: 5943 <br /><b>Variante</b><br />Nume: Valea Remeți, Hartă: Geomil 25000, Limbă: Limba română</description><Point><coordinates>22.828214,47.404835,0</coordinates></Point></Placemark>
<Placemark><name>Remeteu</name><description>Nume: Remeteu, Tip: remete, Nivel: 3, Județ: Satu Mare, Formă: Localitate, ID: 10317 <br /><b>Variante</b><br />Nume: Remeteu, Hartă: Ungară 1869, Limbă: Limba română</description><Point><coordinates>23.306397,47.700489,0</coordinates></Point></Placemark>
<Placemark><name>Pădurea Remetea Oașului</name><description>Nume: Pădurea Remetea Oașului, Tip: remetea, Nivel: 2, Județ: Satu Mare, Formă: Pădure, ID: 5969 <br /><b>Variante</b><br />Nume: Pădurea Remetea Oașului, Hartă: Geomil 25000, Limbă: Limba română</description><Point><coordinates>23.298701,47.885259,0</coordinates></Point></Placemark>
<Placemark><name>Pe Remetea</name><description>Nume: Pe Remetea, Tip: remetea, Nivel: 2, Județ: Sibiu, Formă: Altele, ID: 7995 <br /><b>Variante</b><br />Nume: Pe Remetea, Hartă: PDT, Limbă: Limba română</description><Point><coordinates>24.233861,45.798530,0</coordinates></Point></Placemark>
<Placemark><name>Rimetea</name><description>Nume: Rimetea, Tip: rimetea, Nivel: 3, Județ: Sibiu, Formă: Altele, ID: 11838 <br /><b>Variante</b><br />Nume: Rimetea, Hartă: Imperiul Habsburgic (1887), Limbă: Limba română<br />Nume: Remetea, Hartă: Geomil 25000, Limbă: Limba română</description><Point><coordinates>23.861305,45.817702,0</coordinates></Point></Placemark>
<Placemark><name>Remetea Mare</name><description>Nume: Remetea Mare, Tip: remetea, Nivel: 2, Județ: Timis, Formă: Localitate, ID: 7640 <br /><b>Variante</b><br />Nume: Remetea Mare, Hartă: Geomil 25000, Limbă: Limba română</description><Point><coordinates>21.376529,45.781643,0</coordinates></Point></Placemark>
<Placemark><name>Remetea Mică</name><description>Nume: Remetea Mică, Tip: remetea, Nivel: 2, Județ: Timis, Formă: Localitate, ID: 10355 <br /><b>Variante</b><br />Nume: Remetea Mică, Hartă: Geomil 25000, Limbă: Limba română</description><Point><coordinates>21.477847,45.965447,0</coordinates></Point></Placemark></Document></kml>