<?xml version="1.0" encoding="UTF-8"?><kml xmlns="http://www.opengis.net/kml/2.2"><Document><Placemark><name>Chicera</name><description>Nume: Chicera, Tip: chicera, Nivel: 3, Județ: Alba, Formă: Înălțime, ID: 13053 <br /><b>Variante</b><br />Nume: Chicera, Hartă: Geomil 25000, Limbă: Limba română</description><Point><coordinates>22.876204,46.525208,0</coordinates></Point></Placemark>
<Placemark><name>Chicera Boldului</name><description>Nume: Chicera Boldului, Tip: chicera, Nivel: 3, Județ: Alba, Formă: Înălțime, ID: 13076 <br /><b>Variante</b><br />Nume: Chicera Boldului, Hartă: Geomil 25000, Limbă: Limba română</description><Point><coordinates>22.774849,46.511011,0</coordinates></Point></Placemark>
<Placemark><name>Chicera Patruci</name><description>Nume: Chicera Patruci, Tip: chicera, Nivel: 3, Județ: Alba, Formă: Înălțime, ID: 14040 <br /><b>Variante</b><br />Nume: Chicera Patruci, Hartă: Transilvania (1869-1870), Limbă: Limba română</description><Point><coordinates>23.109072,46.364242,0</coordinates></Point></Placemark>
<Placemark><name>Dealu Chicera</name><description>Nume: Dealu Chicera, Tip: chicera, Nivel: 3, Județ: Alba, Formă: Deal, ID: 13055 <br /><b>Variante</b><br />Nume: Dealu Chicera, Hartă: Geomil 25000, Limbă: Limba română</description><Point><coordinates>22.782536,46.525363,0</coordinates></Point></Placemark>
<Placemark><name>Dealu Chicera</name><description>Nume: Dealu Chicera, Tip: chicera, Nivel: 3, Județ: Alba, Formă: Deal, ID: 13959 <br /><b>Variante</b><br />Nume: Dealu Chicera, Hartă: Geomil 25000, Limbă: Limba română<br />Nume: Chicera, Hartă: Imperiul Habsburgic (1887), Limbă: Limba română</description><Point><coordinates>23.008177,46.326492,0</coordinates></Point></Placemark>
<Placemark><name>Pădurea Chicerei</name><description>Nume: Pădurea Chicerei, Tip: chicera, Nivel: 3, Județ: Alba, Formă: Pădure, ID: 14803 <br /><b>Variante</b><br />Nume: Pădurea Chicerei, Hartă: PDT, Limbă: Limba română</description><Point><coordinates>23.774585,45.924782,0</coordinates></Point></Placemark>
<Placemark><name>Vârfu Chicera</name><description>Nume: Vârfu Chicera, Tip: chicera, Nivel: 3, Județ: Alba, Formă: Înălțime, ID: 13056 <br /><b>Variante</b><br />Nume: Vârfu Chicera, Hartă: Geomil 25000, Limbă: Limba română</description><Point><coordinates>22.744716,46.546808,0</coordinates></Point></Placemark>
<Placemark><name>Vârfu Chicerii</name><description>Nume: Vârfu Chicerii, Tip: chicera, Nivel: 3, Județ: Alba, Formă: Înălțime, ID: 13059 <br /><b>Variante</b><br />Nume: Vârfu Chicerii, Hartă: Geomil 25000, Limbă: Limba română</description><Point><coordinates>23.421574,46.288456,0</coordinates></Point></Placemark>
<Placemark><name>Tycsera B</name><description>Nume: Tycsera B, Tip: ticera, Nivel: 4, Județ: Alba, Formă: Deal, ID: 14044 <br /><b>Variante</b><br />Nume: Tycsera B, Hartă: Transilvania (1769-1773), Limbă: Limba română</description><Point><coordinates>23.099530,46.392294,0</coordinates></Point></Placemark>
<Placemark><name>Chicera</name><description>Nume: Chicera, Tip: chicera, Nivel: 3, Județ: Arad, Formă: Înălțime, ID: 14139 <br /><b>Variante</b><br />Nume: Chicera, Hartă: Geomil 25000, Limbă: Limba română</description><Point><coordinates>22.408940,46.302651,0</coordinates></Point></Placemark>
<Placemark><name>Chicera Pleșoaia</name><description>Nume: Chicera Pleșoaia, Tip: chicera, Nivel: 3, Județ: Arad, Formă: Înălțime, ID: 13819 <br /><b>Variante</b><br />Nume: Chicera Pleșoaia, Hartă: Geomil 25000, Limbă: Limba română</description><Point><coordinates>22.688987,46.338354,0</coordinates></Point></Placemark>
<Placemark><name>Cicera</name><description>Nume: Cicera, Tip: chicera, Nivel: 3, Județ: Arad, Formă: Altele, ID: 13365 <br /><b>Variante</b><br />Nume: Cicera, Hartă: Ungară 1869, Limbă: Limba română<br />Nume: Dealul Chicera, Hartă: PDT, Limbă: Limba română</description><Point><coordinates>22.131551,46.554466,0</coordinates></Point></Placemark>
<Placemark><name>Dealul Chicera</name><description>Nume: Dealul Chicera, Tip: chicera, Nivel: 3, Județ: Arad, Formă: Deal, ID: 13506 <br /><b>Variante</b><br />Nume: Dealul Chicera, Hartă: PDT, Limbă: Limba română<br />Nume: Dealul Chicera, Hartă: Geomil 25000, Limbă: Limba română</description><Point><coordinates>22.265085,46.428044,0</coordinates></Point></Placemark>
<Placemark><name>Dealul Chicera</name><description>Nume: Dealul Chicera, Tip: chicera, Nivel: 3, Județ: Arad, Formă: Deal, ID: 14431 <br /><b>Variante</b><br />Nume: Dealul Chicera, Hartă: ANCPI, Limbă: Limba română</description><Point><coordinates>22.453038,46.281707,0</coordinates></Point></Placemark>
<Placemark><name>Dosu Chicerii</name><description>Nume: Dosu Chicerii, Tip: chicera, Nivel: 3, Județ: Arad, Formă: Înălțime, ID: 13217 <br /><b>Variante</b><br />Nume: Dosu Chicerii, Hartă: Geomil 25000, Limbă: Limba română</description><Point><coordinates>22.425883,46.363644,0</coordinates></Point></Placemark>
<Placemark><name>Valea Chicera</name><description>Nume: Valea Chicera, Tip: chicera, Nivel: 3, Județ: Arad, Formă: Vale, ID: 13955 <br /><b>Variante</b><br />Nume: Valea Chicera, Hartă: PDT, Limbă: Limba română</description><Point><coordinates>21.675033,46.110750,0</coordinates></Point></Placemark>
<Placemark><name>Vârfu Chicera</name><description>Nume: Vârfu Chicera, Tip: chicera, Nivel: 3, Județ: Arad, Formă: Înălțime, ID: 13218 <br /><b>Variante</b><br />Nume: Vârfu Chicera, Hartă: Geomil 25000, Limbă: Limba română</description><Point><coordinates>22.526820,46.353335,0</coordinates></Point></Placemark>
<Placemark><name>Vârfu Chicera</name><description>Nume: Vârfu Chicera, Tip: chicera, Nivel: 3, Județ: Arad, Formă: Înălțime, ID: 13507 <br /><b>Variante</b><br />Nume: Vârfu Chicera, Hartă: Geomil 25000, Limbă: Limba română<br />Nume: Vârful Chicera, Hartă: PDT, Limbă: Limba română</description><Point><coordinates>22.131753,46.521583,0</coordinates></Point></Placemark>
<Placemark><name>Pârâul Chicerca</name><description>Nume: Pârâul Chicerca, Tip: chicerca, Nivel: 4, Județ: Arad, Formă: Vale, ID: 13922 <br /><b>Variante</b><br />Nume: Pârâul Chicerca, Hartă: PDT, Limbă: Limba română</description><Point><coordinates>22.290117,46.339585,0</coordinates></Point></Placemark>
<Placemark><name>Vârful Chicereului</name><description>Nume: Vârful Chicereului, Tip: chicereu, Nivel: 4, Județ: Arad, Formă: Înălțime, ID: 13938 <br /><b>Variante</b><br />Nume: Vârful Chicereului, Hartă: PDT, Limbă: Limba română<br />Nume: Vârfu Chișereu, Hartă: Geomil 25000, Limbă: Limba română</description><Point><coordinates>22.371117,46.388996,0</coordinates></Point></Placemark>
<Placemark><name>Vârfu Chiceruța</name><description>Nume: Vârfu Chiceruța, Tip: chiceruța, Nivel: 4, Județ: Arad, Formă: Înălțime, ID: 13937 <br /><b>Variante</b><br />Nume: Vârfu Chiceruța, Hartă: Geomil 25000, Limbă: Limba română<br />Nume: Chiceruța, Hartă: PDT, Limbă: Limba română</description><Point><coordinates>22.380494,46.418389,0</coordinates></Point></Placemark>
<Placemark><name>Chicera</name><description>Nume: Chicera, Tip: chicera, Nivel: 3, Județ: Bacau, Formă: Înălțime, ID: 14596 <br /><b>Variante</b><br />Nume: Chicera, Hartă: PDT, Limbă: Limba română</description><Point><coordinates>27.338875,46.354331,0</coordinates></Point></Placemark>
<Placemark><name>Chicera Mare</name><description>Nume: Chicera Mare, Tip: chicera, Nivel: 3, Județ: Bacau, Formă: Înălțime, ID: 13548 <br /><b>Variante</b><br />Nume: Chicera Mare, Hartă: Geomil 25000, Limbă: Limba română</description><Point><coordinates>26.768478,46.629951,0</coordinates></Point></Placemark>
<Placemark><name>Dealul Chicera</name><description>Nume: Dealul Chicera, Tip: chicera, Nivel: 3, Județ: Bacau, Formă: Deal, ID: 13859 <br /><b>Variante</b><br />Nume: Dealul Chicera, Hartă: Moldova (1892-1898), Limbă: Limba română</description><Point><coordinates>26.701889,46.399573,0</coordinates></Point></Placemark>
<Placemark><name>Dealul Chicerei</name><description>Nume: Dealul Chicerei, Tip: chicera, Nivel: 3, Județ: Bacau, Formă: Deal, ID: 13601 <br /><b>Variante</b><br />Nume: Dealul Chicerei, Hartă: Geomil 25000, Limbă: Limba română</description><Point><coordinates>26.660232,46.230429,0</coordinates></Point></Placemark>
<Placemark><name>Poiana Chicerei</name><description>Nume: Poiana Chicerei, Tip: chicera, Nivel: 3, Județ: Bacau, Formă: Poiană, ID: 13549, ID Părinte: 13548 <br /><b>Variante</b><br />Nume: Poiana Chicerei, Hartă: Geomil 25000, Limbă: Limba română</description><Point><coordinates>26.758631,46.627343,0</coordinates></Point></Placemark>
<Placemark><LineString id="13549_13548"><tessellate>1</tessellate><coordinates>26.758631,46.627343,0.
26.768478,46.629951,0</coordinates></LineString><Style><LineStyle><width>3</width></LineStyle></Style></Placemark>
<Placemark><name>Valea Chicerei</name><description>Nume: Valea Chicerei, Tip: chicera, Nivel: 3, Județ: Bacau, Formă: Vale, ID: 13557 <br /><b>Variante</b><br />Nume: Valea Chicerei, Hartă: Geomil 25000, Limbă: Limba română</description><Point><coordinates>26.664468,46.337791,0</coordinates></Point></Placemark>
<Placemark><name>Chicerea</name><description>Nume: Chicerea, Tip: chicerea, Nivel: 4, Județ: Bacau, Formă: Localitate, ID: 13547 <br /><b>Variante</b><br />Nume: Chicerea, Hartă: Geomil 25000, Limbă: Limba română</description><Point><coordinates>27.412144,46.307286,0</coordinates></Point></Placemark>
<Placemark><name>Chciera Buglei</name><description>Nume: Chciera Buglei, Tip: chicera, Nivel: 3, Județ: Bihor, Formă: Înălțime, ID: 13720 <br /><b>Variante</b><br />Nume: Chciera Buglei, Hartă: Geomil 25000, Limbă: Limba română<br />Nume: Kulme Kicera, Hartă: Ungară 1869, Limbă: Limba română</description><Point><coordinates>22.455197,46.883510,0</coordinates></Point></Placemark>
<Placemark><name>Chicera</name><description>Nume: Chicera, Tip: chicera, Nivel: 3, Județ: Bihor, Formă: Înălțime, ID: 13185 <br /><b>Variante</b><br />Nume: Chicera, Hartă: Geomil 25000, Limbă: Limba română</description><Point><coordinates>22.555087,46.444425,0</coordinates></Point></Placemark>
<Placemark><name>Chicera</name><description>Nume: Chicera, Tip: chicera, Nivel: 3, Județ: Bihor, Formă: Înălțime, ID: 13370 <br /><b>Variante</b><br />Nume: Chicera, Hartă: Imperiul Habsburgic (1887), Limbă: Limba română</description><Point><coordinates>22.519040,47.061394,0</coordinates></Point></Placemark>
<Placemark><name>Chicera</name><description>Nume: Chicera, Tip: chicera, Nivel: 3, Județ: Bihor, Formă: Înălțime, ID: 13371 <br /><b>Variante</b><br />Nume: Chicera, Hartă: Imperiul Habsburgic (1887), Limbă: Limba română<br />Nume: Kicera, Hartă: Ungară 1869, Limbă: Limba română</description><Point><coordinates>22.661879,46.994057,0</coordinates></Point></Placemark>
<Placemark><name>Chicera</name><description>Nume: Chicera, Tip: chicera, Nivel: 3, Județ: Bihor, Formă: Altele, ID: 13382 <br /><b>Variante</b><br />Nume: Chicera, Hartă: Imperiul Habsburgic (1887), Limbă: Limba română</description><Point><coordinates>22.408742,47.185162,0</coordinates></Point></Placemark>
<Placemark><name>Chicera</name><description>Nume: Chicera, Tip: chicera, Nivel: 3, Județ: Bihor, Formă: Înălțime, ID: 13721 <br /><b>Variante</b><br />Nume: Chicera, Hartă: Geomil 25000, Limbă: Limba română<br />Nume: Kicera, Hartă: Ungară 1869, Limbă: Limba română</description><Point><coordinates>22.563426,46.979652,0</coordinates></Point></Placemark>
<Placemark><name>Chicera</name><description>Nume: Chicera, Tip: chicera, Nivel: 3, Județ: Bihor, Formă: Înălțime, ID: 14209 <br /><b>Variante</b><br />Nume: Chicera, Hartă: Geomil 25000, Limbă: Limba română</description><Point><coordinates>22.524175,46.625221,0</coordinates></Point></Placemark>
<Placemark><name>Chicera cu Corni</name><description>Nume: Chicera cu Corni, Tip: chicera, Nivel: 3, Județ: Bihor, Formă: Înălțime, ID: 14812 <br /><b>Variante</b><br />Nume: Chicera cu Corni, Hartă: PDT, Limbă: Limba română</description><Point><coordinates>22.443720,46.456887,0</coordinates></Point></Placemark>
<Placemark><name>Chicera de Topa</name><description>Nume: Chicera de Topa, Tip: chicera, Nivel: 3, Județ: Bihor, Formă: Localitate, ID: 12981, ID Părinte: 12980 <br /><b>Variante</b><br />Nume: Chicera de Topa, Hartă: Geomil 25000, Limbă: Limba română</description><Point><coordinates>22.266838,46.859402,0</coordinates></Point></Placemark>
<Placemark><LineString id="12981_12980"><tessellate>1</tessellate><coordinates>22.266838,46.859402,0.
22.273147,46.866165,0</coordinates></LineString><Style><LineStyle><width>3</width></LineStyle></Style></Placemark>
<Placemark><name>Chicera Mare</name><description>Nume: Chicera Mare, Tip: chicera, Nivel: 3, Județ: Bihor, Formă: Înălțime, ID: 13188 <br /><b>Variante</b><br />Nume: Chicera Mare, Hartă: Geomil 25000, Limbă: Limba română</description><Point><coordinates>22.440606,46.460998,0</coordinates></Point></Placemark>
<Placemark><name>Chicera Țiganilor</name><description>Nume: Chicera Țiganilor, Tip: chicera, Nivel: 3, Județ: Bihor, Formă: Înălțime, ID: 14809 <br /><b>Variante</b><br />Nume: Chicera Țiganilor, Hartă: PDT, Limbă: Limba română</description><Point><coordinates>22.469931,46.413450,0</coordinates></Point></Placemark>
<Placemark><name>Culmea Chicerii</name><description>Nume: Culmea Chicerii, Tip: chicera, Nivel: 3, Județ: Bihor, Formă: Înălțime, ID: 13104 <br /><b>Variante</b><br />Nume: Culmea Chicerii, Hartă: Geomil 25000, Limbă: Limba română</description><Point><coordinates>22.339050,47.134075,0</coordinates></Point></Placemark>
<Placemark><name>Dâmbu Chiceri</name><description>Nume: Dâmbu Chiceri, Tip: chicera, Nivel: 3, Județ: Bihor, Formă: Înălțime, ID: 13369 <br /><b>Variante</b><br />Nume: Dâmbu Chiceri, Hartă: Imperiul Habsburgic (1887), Limbă: Limba română</description><Point><coordinates>22.518779,47.083101,0</coordinates></Point></Placemark>
<Placemark><name>Dealu Chicera</name><description>Nume: Dealu Chicera, Tip: chicera, Nivel: 3, Județ: Bihor, Formă: Deal, ID: 12983 <br /><b>Variante</b><br />Nume: Dealu Chicera, Hartă: Geomil 25000, Limbă: Limba română</description><Point><coordinates>22.435215,46.746991,0</coordinates></Point></Placemark>
<Placemark><name>Dealu Chicera</name><description>Nume: Dealu Chicera, Tip: chicera, Nivel: 3, Județ: Bihor, Formă: Deal, ID: 13072 <br /><b>Variante</b><br />Nume: Dealu Chicera, Hartă: Geomil 25000, Limbă: Limba română</description><Point><coordinates>22.387219,46.821579,0</coordinates></Point></Placemark>
<Placemark><name>Dealu Chicera</name><description>Nume: Dealu Chicera, Tip: chicera, Nivel: 3, Județ: Bihor, Formă: Deal, ID: 13232 <br /><b>Variante</b><br />Nume: Dealu Chicera, Hartă: Geomil 25000, Limbă: Limba română</description><Point><coordinates>22.260215,46.718552,0</coordinates></Point></Placemark>
<Placemark><name>Dealu Chicera Ciungilor</name><description>Nume: Dealu Chicera Ciungilor, Tip: chicera, Nivel: 3, Județ: Bihor, Formă: Deal, ID: 13196 <br /><b>Variante</b><br />Nume: Dealu Chicera Ciungilor, Hartă: Geomil 25000, Limbă: Limba română</description><Point><coordinates>22.614499,46.401778,0</coordinates></Point></Placemark>
<Placemark><name>Dealu Chicera de Topa</name><description>Nume: Dealu Chicera de Topa, Tip: chicera, Nivel: 3, Județ: Bihor, Formă: Deal, ID: 12980 <br /><b>Variante</b><br />Nume: Dealu Chicera de Topa, Hartă: Geomil 25000, Limbă: Limba română</description><Point><coordinates>22.273147,46.866165,0</coordinates></Point></Placemark>
<Placemark><name>Dealu Chicera Mihocești</name><description>Nume: Dealu Chicera Mihocești, Tip: chicera, Nivel: 3, Județ: Bihor, Formă: Deal, ID: 13195 <br /><b>Variante</b><br />Nume: Dealu Chicera Mihocești, Hartă: Geomil 25000, Limbă: Limba română</description><Point><coordinates>22.586559,46.412797,0</coordinates></Point></Placemark>
<Placemark><name>Dealu Chicera Ulmului</name><description>Nume: Dealu Chicera Ulmului, Tip: chicera, Nivel: 3, Județ: Bihor, Formă: Deal, ID: 13816 <br /><b>Variante</b><br />Nume: Dealu Chicera Ulmului, Hartă: Geomil 25000, Limbă: Limba română</description><Point><coordinates>22.597564,46.402761,0</coordinates></Point></Placemark>
<Placemark><name>Dealul Chicera-Domnească</name><description>Nume: Dealul Chicera-Domnească, Tip: chicera, Nivel: 3, Județ: Bihor, Formă: Deal, ID: 13930 <br /><b>Variante</b><br />Nume: Dealul Chicera-Domnească, Hartă: PDT, Limbă: Limba română</description><Point><coordinates>22.243085,46.519027,0</coordinates></Point></Placemark>
<Placemark><name>Dealul Chicerii</name><description>Nume: Dealul Chicerii, Tip: chicera, Nivel: 3, Județ: Bihor, Formă: Deal, ID: 13418 <br /><b>Variante</b><br />Nume: Dealul Chicerii, Hartă: Imperiul Habsburgic (1887), Limbă: Limba română</description><Point><coordinates>22.339785,46.766450,0</coordinates></Point></Placemark>
<Placemark><name>Dîmbu Kiceri B.</name><description>Nume: Dîmbu Kiceri B., Tip: chicera, Nivel: 3, Județ: Bihor, Formă: Deal, ID: 13372 <br /><b>Variante</b><br />Nume: Dîmbu Kiceri B., Hartă: Ungară 1869, Limbă: Limba română</description><Point><coordinates>22.669855,47.002487,0</coordinates></Point></Placemark>
<Placemark><name>Vârfu Chicera</name><description>Nume: Vârfu Chicera, Tip: chicera, Nivel: 3, Județ: Bihor, Formă: Înălțime, ID: 12982 <br /><b>Variante</b><br />Nume: Vârfu Chicera, Hartă: Geomil 25000, Limbă: Limba română</description><Point><coordinates>22.287940,46.820099,0</coordinates></Point></Placemark>
<Placemark><name>Vârfu Chicera</name><description>Nume: Vârfu Chicera, Tip: chicera, Nivel: 3, Județ: Bihor, Formă: Înălțime, ID: 13189 <br /><b>Variante</b><br />Nume: Vârfu Chicera, Hartă: Geomil 25000, Limbă: Limba română</description><Point><coordinates>22.421656,46.430160,0</coordinates></Point></Placemark>
<Placemark><name>Vârfu Chicera</name><description>Nume: Vârfu Chicera, Tip: chicera, Nivel: 3, Județ: Bihor, Formă: Înălțime, ID: 13191 <br /><b>Variante</b><br />Nume: Vârfu Chicera, Hartă: Geomil 25000, Limbă: Limba română</description><Point><coordinates>22.353553,46.475127,0</coordinates></Point></Placemark>
<Placemark><name>Vârfu Chicera</name><description>Nume: Vârfu Chicera, Tip: chicera, Nivel: 3, Județ: Bihor, Formă: Înălțime, ID: 14210 <br /><b>Variante</b><br />Nume: Vârfu Chicera, Hartă: Geomil 25000, Limbă: Limba română</description><Point><coordinates>22.208687,46.868619,0</coordinates></Point></Placemark>
<Placemark><name>Vârful Chicerei</name><description>Nume: Vârful Chicerei, Tip: chicera, Nivel: 3, Județ: Bihor, Formă: Înălțime, ID: 14811 <br /><b>Variante</b><br />Nume: Vârful Chicerei, Hartă: PDT, Limbă: Limba română</description><Point><coordinates>22.509142,46.437596,0</coordinates></Point></Placemark>
<Placemark><name>Valea Chicerilor</name><description>Nume: Valea Chicerilor, Tip: chiceri, Nivel: 4, Județ: Bihor, Formă: Vale, ID: 12985 <br /><b>Variante</b><br />Nume: Valea Chicerilor, Hartă: Geomil 25000, Limbă: Limba română</description><Point><coordinates>22.544035,46.651439,0</coordinates></Point></Placemark>
<Placemark><name>Dealul Chiceroii</name><description>Nume: Dealul Chiceroii, Tip: chiceroaia, Nivel: 4, Județ: Bihor, Formă: Deal, ID: 14707 <br /><b>Variante</b><br />Nume: Dealul Chiceroii, Hartă: ANCPI, Limbă: Limba română</description><Point><coordinates>22.416912,46.974445,0</coordinates></Point></Placemark>
<Placemark><name>Dealu Chiceruța</name><description>Nume: Dealu Chiceruța, Tip: chiceruța, Nivel: 4, Județ: Bihor, Formă: Deal, ID: 13927 <br /><b>Variante</b><br />Nume: Dealu Chiceruța, Hartă: Geomil 25000, Limbă: Limba română</description><Point><coordinates>22.232190,46.549913,0</coordinates></Point></Placemark>
<Placemark><name>Buza Chicerei</name><description>Nume: Buza Chicerei, Tip: chicera, Nivel: 3, Județ: Bistrita Nasaud, Formă: Înălțime, ID: 13911 <br /><b>Variante</b><br />Nume: Buza Chicerei, Hartă: Geomil 25000, Limbă: Limba română<br />Nume: Vârful Buza Chicerei, Hartă: PDT, Limbă: Limba română</description><Point><coordinates>24.602878,47.387273,0</coordinates></Point></Placemark>
<Placemark><name>Chicera</name><description>Nume: Chicera, Tip: chicera, Nivel: 3, Județ: Bistrita Nasaud, Formă: Altele, ID: 13389 <br /><b>Variante</b><br />Nume: Chicera, Hartă: Geomil 25000, Limbă: Limba română<br />Nume: Cicera, Hartă: Imperiul Habsburgic (1887), Limbă: Limba română</description><Point><coordinates>24.405543,47.296950,0</coordinates></Point></Placemark>
<Placemark><name>Chicera Conciului</name><description>Nume: Chicera Conciului, Tip: chicera, Nivel: 3, Județ: Bistrita Nasaud, Formă: Înălțime, ID: 13758 <br /><b>Variante</b><br />Nume: Chicera Conciului, Hartă: Geomil 25000, Limbă: Limba română<br />Nume: Cicera Conciului, Hartă: Transilvania (1869-1870), Limbă: Limba română<br />Nume: Cicera Canciului, Hartă: PDT, Limbă: Limba română</description><Point><coordinates>25.007178,47.210965,0</coordinates></Point></Placemark>
<Placemark><name>Chicera Drăgani</name><description>Nume: Chicera Drăgani, Tip: chicera, Nivel: 3, Județ: Bistrita Nasaud, Formă: Înălțime, ID: 14308 <br /><b>Variante</b><br />Nume: Chicera Drăgani, Hartă: ANCPI, Limbă: Limba română</description><Point><coordinates>24.973373,47.300626,0</coordinates></Point></Placemark>
<Placemark><name>Chicera Hornescilor</name><description>Nume: Chicera Hornescilor, Tip: chicera, Nivel: 3, Județ: Bistrita Nasaud, Formă: Înălțime, ID: 13391 <br /><b>Variante</b><br />Nume: Chicera Hornescilor, Hartă: Imperiul Habsburgic (1887), Limbă: Limba română</description><Point><coordinates>24.907780,47.229158,0</coordinates></Point></Placemark>
<Placemark><name>Valea Chicerei</name><description>Nume: Valea Chicerei, Tip: chicera, Nivel: 3, Județ: Bistrita Nasaud, Formă: Vale, ID: 13157 <br /><b>Variante</b><br />Nume: Valea Chicerei, Hartă: Geomil 25000, Limbă: Limba română</description><Point><coordinates>24.911264,47.404402,0</coordinates></Point></Placemark>
<Placemark><name>Vârful Chicerei</name><description>Nume: Vârful Chicerei, Tip: chicera, Nivel: 3, Județ: Bistrita Nasaud, Formă: Înălțime, ID: 13388 <br /><b>Variante</b><br />Nume: Vârful Ciceri, Hartă: Imperiul Habsburgic (1887), Limbă: Limba română<br />Nume: Vârful Chicerei, Hartă: Geomil 25000, Limbă: Limba română</description><Point><coordinates>24.366838,47.274715,0</coordinates></Point></Placemark>
<Placemark><name>Vârful Chicerei</name><description>Nume: Vârful Chicerei, Tip: chicera, Nivel: 3, Județ: Bistrita Nasaud, Formă: Înălțime, ID: 14447 <br /><b>Variante</b><br />Nume: Vârful Chicerei, Hartă: ANCPI, Limbă: Limba română</description><Point><coordinates>24.412174,47.481648,0</coordinates></Point></Placemark>
<Placemark><name>Valea Chicera</name><description>Nume: Valea Chicera, Tip: chicera, Nivel: 3, Județ: Brasov, Formă: Vale, ID: 14258 <br /><b>Variante</b><br />Nume: Valea Chicera, Hartă: Geomil 25000, Limbă: Limba română</description><Point><coordinates>25.260487,45.575792,0</coordinates></Point></Placemark>
<Placemark><name>Chicera Mică</name><description>Nume: Chicera Mică, Tip: chicera, Nivel: 3, Județ: Caras Severin, Formă: Înălțime, ID: 13820 <br /><b>Variante</b><br />Nume: Chicera Mică, Hartă: Geomil 25000, Limbă: Limba română</description><Point><coordinates>21.927323,45.227186,0</coordinates></Point></Placemark>
<Placemark><name>Drumul Chicerei</name><description>Nume: Drumul Chicerei, Tip: chicera, Nivel: 3, Județ: Caras Severin, Formă: Drum, ID: 14349 <br /><b>Variante</b><br />Nume: Drumul Chicerei, Hartă: PDT, Limbă: Limba română</description><Point><coordinates>22.238777,45.251630,0</coordinates></Point></Placemark>
<Placemark><name>Chicera</name><description>Nume: Chicera, Tip: chicera, Nivel: 3, Județ: Cluj, Formă: Înălțime, ID: 13097 <br /><b>Variante</b><br />Nume: Chicera, Hartă: Geomil 25000, Limbă: Limba română</description><Point><coordinates>23.973222,46.997034,0</coordinates></Point></Placemark>
<Placemark><name>Chicera</name><description>Nume: Chicera, Tip: chicera, Nivel: 3, Județ: Cluj, Formă: Înălțime, ID: 13312 <br /><b>Variante</b><br />Nume: Chicera, Hartă: Transilvania (1869-1870), Limbă: Limba română</description><Point><coordinates>23.765770,47.100659,0</coordinates></Point></Placemark>
<Placemark><name>Chicera Comorii</name><description>Nume: Chicera Comorii, Tip: chicera, Nivel: 3, Județ: Cluj, Formă: Înălțime, ID: 13715 <br /><b>Variante</b><br />Nume: Chicera Comorii, Hartă: Geomil 25000, Limbă: Limba română</description><Point><coordinates>23.089240,46.609057,0</coordinates></Point></Placemark>
<Placemark><name>Chicera cu Colac</name><description>Nume: Chicera cu Colac, Tip: chicera, Nivel: 3, Județ: Cluj, Formă: Înălțime, ID: 12986 <br /><b>Variante</b><br />Nume: Chicera cu Colac, Hartă: Geomil 25000, Limbă: Limba română</description><Point><coordinates>22.796918,46.649689,0</coordinates></Point></Placemark>
<Placemark><name>Chicera lui Matei</name><description>Nume: Chicera lui Matei, Tip: chicera, Nivel: 3, Județ: Cluj, Formă: Înălțime, ID: 13817 <br /><b>Variante</b><br />Nume: Chicera lui Matei, Hartă: Geomil 25000, Limbă: Limba română</description><Point><coordinates>23.223732,46.631016,0</coordinates></Point></Placemark>
<Placemark><name>Dealu Chicera</name><description>Nume: Dealu Chicera, Tip: chicera, Nivel: 3, Județ: Cluj, Formă: Deal, ID: 13096 <br /><b>Variante</b><br />Nume: Dealu Chicera, Hartă: Geomil 25000, Limbă: Limba română<br />Nume: Chicera, Hartă: Transilvania (1869-1870), Limbă: Limba română</description><Point><coordinates>23.770317,47.136141,0</coordinates></Point></Placemark>
<Placemark><name>Dealu Chicera Orzașcilor</name><description>Nume: Dealu Chicera Orzașcilor, Tip: chicera, Nivel: 3, Județ: Cluj, Formă: Deal, ID: 13818 <br /><b>Variante</b><br />Nume: Dealu Chicera Orzașcilor, Hartă: Geomil 25000, Limbă: Limba română</description><Point><coordinates>22.837048,46.775040,0</coordinates></Point></Placemark>
<Placemark><name>Vârfu Chicera</name><description>Nume: Vârfu Chicera, Tip: chicera, Nivel: 3, Județ: Cluj, Formă: Înălțime, ID: 13070 <br /><b>Variante</b><br />Nume: Vârfu Chicera, Hartă: Geomil 25000, Limbă: Limba română</description><Point><coordinates>22.915133,46.779480,0</coordinates></Point></Placemark>
<Placemark><name>Ticera Nitulii</name><description>Nume: Ticera Nitulii, Tip: ticera, Nivel: 4, Județ: Cluj, Formă: Înălțime, ID: 13708 <br /><b>Variante</b><br />Nume: Ticera Nitulii, Hartă: PDT, Limbă: Limba română</description><Point><coordinates>23.380796,46.631825,0</coordinates></Point></Placemark>
<Placemark><name>Titcera lui German</name><description>Nume: Titcera lui German, Tip: ticera, Nivel: 4, Județ: Cluj, Formă: Înălțime, ID: 14492 <br /><b>Variante</b><br />Nume: Titcera lui German, Hartă: Transilvania (1769-1773), Limbă: Limba română</description><Point><coordinates>23.398987,46.650314,0</coordinates></Point></Placemark>
<Placemark><name>Munte Ticerau</name><description>Nume: Munte Ticerau, Tip: ticerau, Nivel: 5, Județ: Cluj, Formă: Înălțime, ID: 13711 <br /><b>Variante</b><br />Nume: Munte Ticerau, Hartă: Transilvania (1869-1870), Limbă: Limba română</description><Point><coordinates>23.421233,46.633336,0</coordinates></Point></Placemark>
<Placemark><name>Tiscera cruci</name><description>Nume: Tiscera cruci, Tip: tiscera, Nivel: 4, Județ: Cluj, Formă: Înălțime, ID: 13706 <br /><b>Variante</b><br />Nume: Tiscera cruci, Hartă: Transilvania (1869-1870), Limbă: Limba română</description><Point><coordinates>23.242322,46.620925,0</coordinates></Point></Placemark>
<Placemark><name>Tiscera Hidrenilor</name><description>Nume: Tiscera Hidrenilor, Tip: tiscera, Nivel: 4, Județ: Cluj, Formă: Înălțime, ID: 13705 <br /><b>Variante</b><br />Nume: Tiscera Hidrenilor, Hartă: Imperiul Habsburgic (1887), Limbă: Limba română</description><Point><coordinates>23.238599,46.638495,0</coordinates></Point></Placemark>
<Placemark><name>Vurvu Tiscera</name><description>Nume: Vurvu Tiscera, Tip: tiscera, Nivel: 4, Județ: Cluj, Formă: Înălțime, ID: 13704 <br /><b>Variante</b><br />Nume: Vurvu Tiscera, Hartă: Transilvania (1869-1870), Limbă: Limba română</description><Point><coordinates>23.303075,46.635461,0</coordinates></Point></Placemark>
<Placemark><name>Chicera Scurți</name><description>Nume: Chicera Scurți, Tip: chicera, Nivel: 3, Județ: Galati, Formă: Înălțime, ID: 14145 <br /><b>Variante</b><br />Nume: Chicera Scurți, Hartă: Geomil 25000, Limbă: Limba română</description><Point><coordinates>27.523716,45.837397,0</coordinates></Point></Placemark>
<Placemark><name>Dealul Chicera</name><description>Nume: Dealul Chicera, Tip: chicera, Nivel: 3, Județ: Galati, Formă: Deal, ID: 13551 <br /><b>Variante</b><br />Nume: Dealul Chicera, Hartă: Geomil 25000, Limbă: Limba română</description><Point><coordinates>27.526197,45.827707,0</coordinates></Point></Placemark>
<Placemark><name>Chicera Târbanu</name><description>Nume: Chicera Târbanu, Tip: chicera, Nivel: 3, Județ: Gorj, Formă: Înălțime, ID: 13684 <br /><b>Variante</b><br />Nume: Chicera Târbanu, Hartă: Geomil 25000, Limbă: Limba română</description><Point><coordinates>23.097483,45.277326,0</coordinates></Point></Placemark>
<Placemark><name>Chicera</name><description>Nume: Chicera, Tip: chicera, Nivel: 3, Județ: Hunedoara, Formă: Înălțime, ID: 13220 <br /><b>Variante</b><br />Nume: Chicera, Hartă: Geomil 25000, Limbă: Limba română</description><Point><coordinates>22.815108,46.303228,0</coordinates></Point></Placemark>
<Placemark><name>Chicera</name><description>Nume: Chicera, Tip: chicera, Nivel: 3, Județ: Hunedoara, Formă: Înălțime, ID: 13432 <br /><b>Variante</b><br />Nume: Chicera, Hartă: Imperiul Habsburgic (1887), Limbă: Limba română</description><Point><coordinates>23.336043,45.423534,0</coordinates></Point></Placemark>
<Placemark><name>Chicera</name><description>Nume: Chicera, Tip: chicera, Nivel: 3, Județ: Hunedoara, Formă: Înălțime, ID: 13679 <br /><b>Variante</b><br />Nume: Chicera, Hartă: Geomil 25000, Limbă: Limba română</description><Point><coordinates>22.990335,45.942113,0</coordinates></Point></Placemark>
<Placemark><name>Chicera Crăciunești</name><description>Nume: Chicera Crăciunești, Tip: chicera, Nivel: 3, Județ: Hunedoara, Formă: Înălțime, ID: 14510 <br /><b>Variante</b><br />Nume: Chicera Crăciunești, Hartă: ANCPI, Limbă: Limba română</description><Point><coordinates>22.850621,46.008614,0</coordinates></Point></Placemark>
<Placemark><name>Chicera Izvorului</name><description>Nume: Chicera Izvorului, Tip: chicera, Nivel: 3, Județ: Hunedoara, Formă: Înălțime, ID: 13882 <br /><b>Variante</b><br />Nume: Chicera Izvorului, Hartă: Geomil 25000, Limbă: Limba română</description><Point><coordinates>23.213024,45.586645,0</coordinates></Point></Placemark>
<Placemark><name>Dealu Chicera</name><description>Nume: Dealu Chicera, Tip: chicera, Nivel: 3, Județ: Hunedoara, Formă: Deal, ID: 13678 <br /><b>Variante</b><br />Nume: Dealu Chicera, Hartă: Geomil 25000, Limbă: Limba română<br />Nume: V. Ticeri, Hartă: Transilvania (1869-1870), Limbă: Limba română</description><Point><coordinates>23.128185,45.991148,0</coordinates></Point></Placemark>
<Placemark><name>Dealul Chicera</name><description>Nume: Dealul Chicera, Tip: chicera, Nivel: 3, Județ: Hunedoara, Formă: Deal, ID: 13078 <br /><b>Variante</b><br />Nume: Dealul Chicera, Hartă: ANCPI, Limbă: Limba română</description><Point><coordinates>22.742406,46.204135,0</coordinates></Point></Placemark>
<Placemark><name>Dealul Chicera</name><description>Nume: Dealul Chicera, Tip: chicera, Nivel: 3, Județ: Hunedoara, Formă: Deal, ID: 14915 <br /><b>Variante</b><br />Nume: Dealul Chicera, Hartă: ANCPI, Limbă: Limba română</description><Point><coordinates>22.868134,46.211164,0</coordinates></Point></Placemark>
<Placemark><name>Kitsera B.</name><description>Nume: Kitsera B., Tip: chicera, Nivel: 3, Județ: Hunedoara, Formă: Deal, ID: 13230 <br /><b>Variante</b><br />Nume: Kitsera B., Hartă: Transilvania (1769-1773), Limbă: Limba română</description><Point><coordinates>23.040887,46.083074,0</coordinates></Point></Placemark>
<Placemark><name>Vârful Chicera</name><description>Nume: Vârful Chicera, Tip: chicera, Nivel: 3, Județ: Hunedoara, Formă: Înălțime, ID: 14325 <br /><b>Variante</b><br />Nume: Vârful Chicera, Hartă: ANCPI, Limbă: Limba română<br />Nume: Dealul Ciciorii, Hartă: PDT, Limbă: Limba română</description><Point><coordinates>23.130807,45.670928,0</coordinates></Point></Placemark>
<Placemark><name>Vârful Chicera Florii</name><description>Nume: Vârful Chicera Florii, Tip: chicera, Nivel: 3, Județ: Hunedoara, Formă: Înălțime, ID: 13165 <br /><b>Variante</b><br />Nume: Vârful Chicera Florii, Hartă: Geomil 25000, Limbă: Limba română</description><Point><coordinates>23.441931,45.490837,0</coordinates></Point></Placemark>
<Placemark><name>Ticera</name><description>Nume: Ticera, Tip: ticera, Nivel: 4, Județ: Hunedoara, Formă: Înălțime, ID: 14362 <br /><b>Variante</b><br />Nume: Ticera, Hartă: PDT, Limbă: Limba română<br />Nume: Chicera, Hartă: ANCPI, Limbă: Limba română</description><Point><coordinates>23.172786,45.513591,0</coordinates></Point></Placemark>
<Placemark><name>Ticera Pinului</name><description>Nume: Ticera Pinului, Tip: ticera, Nivel: 4, Județ: Hunedoara, Formă: Înălțime, ID: 13433 <br /><b>Variante</b><br />Nume: Ticera Pinului, Hartă: Geomil 25000, Limbă: Limba română</description><Point><coordinates>23.203342,45.514506,0</coordinates></Point></Placemark>
<Placemark><name>Ticera Rusesti</name><description>Nume: Ticera Rusesti, Tip: ticera, Nivel: 4, Județ: Hunedoara, Formă: Înălțime, ID: 14364 <br /><b>Variante</b><br />Nume: Ticera Rusesti, Hartă: PDT, Limbă: Limba română</description><Point><coordinates>23.253091,45.442125,0</coordinates></Point></Placemark>
<Placemark><name>V. Ticera</name><description>Nume: V. Ticera, Tip: ticera, Nivel: 4, Județ: Hunedoara, Formă: Înălțime, ID: 13673 <br /><b>Variante</b><br />Nume: V. Ticera, Hartă: Ungară 1869, Limbă: Limba română</description><Point><coordinates>22.789537,46.298151,0</coordinates></Point></Placemark>
<Placemark><name>Vârful Chicera Răchiții</name><description>Nume: Vârful Chicera Răchiții, Tip: ticera, Nivel: 4, Județ: Hunedoara, Formă: Înălțime, ID: 14363 <br /><b>Variante</b><br />Nume: Chicera Răchiții, Hartă: ANCPI, Limbă: Limba română<br />Nume: Vârful Ticera Retița, Hartă: PDT, Limbă: Limba română</description><Point><coordinates>23.223385,45.446493,0</coordinates></Point></Placemark>
<Placemark><name>Dealul Chicera</name><description>Nume: Dealul Chicera, Tip: chicera, Nivel: 3, Județ: Iasi, Formă: Deal, ID: 13556 <br /><b>Variante</b><br />Nume: Dealul Chicera, Hartă: Geomil 25000, Limbă: Limba română</description><Point><coordinates>26.702519,47.179340,0</coordinates></Point></Placemark>
<Placemark><name>Dealul Chicerei</name><description>Nume: Dealul Chicerei, Tip: chicera, Nivel: 3, Județ: Iasi, Formă: Deal, ID: 13555 <br /><b>Variante</b><br />Nume: Dealul Chicerei, Hartă: Geomil 25000, Limbă: Limba română</description><Point><coordinates>27.485507,46.992908,0</coordinates></Point></Placemark>
<Placemark><name>Chicerea</name><description>Nume: Chicerea, Tip: chicerea, Nivel: 4, Județ: Iasi, Formă: Localitate, ID: 13552 <br /><b>Variante</b><br />Nume: Chicerea, Hartă: Geomil 25000, Limbă: Limba română</description><Point><coordinates>27.745303,47.105473,0</coordinates></Point></Placemark>
<Placemark><name>Chicerului</name><description>Nume: Chicerului, Tip: chicer, Nivel: 4, Județ: Maramures, Formă: Înălțime, ID: 13385 <br /><b>Variante</b><br />Nume: Chicerului, Hartă: Imperiul Habsburgic (1887), Limbă: Limba română</description><Point><coordinates>23.516804,47.389449,0</coordinates></Point></Placemark>
<Placemark><name>Chicera</name><description>Nume: Chicera, Tip: chicera, Nivel: 3, Județ: Maramures, Formă: Înălțime, ID: 13128 <br /><b>Variante</b><br />Nume: Chicera, Hartă: Geomil 25000, Limbă: Limba română</description><Point><coordinates>24.338835,47.812266,0</coordinates></Point></Placemark>
<Placemark><name>Chicera</name><description>Nume: Chicera, Tip: chicera, Nivel: 3, Județ: Maramures, Formă: Înălțime, ID: 14445 <br /><b>Variante</b><br />Nume: Chicera, Hartă: ANCPI, Limbă: Limba română</description><Point><coordinates>23.996085,47.731010,0</coordinates></Point></Placemark>
<Placemark><name>Chicera</name><description>Nume: Chicera, Tip: chicera, Nivel: 3, Județ: Maramures, Formă: Deal, ID: 14727 <br /><b>Variante</b><br />Nume: Chicera, Hartă: PDT, Limbă: Limba română<br />Nume: Dealul Chicerei, Hartă: ANCPI, Limbă: Limba română</description><Point><coordinates>24.216262,47.816544,0</coordinates></Point></Placemark>
<Placemark><name>Chicera Mare</name><description>Nume: Chicera Mare, Tip: chicera, Nivel: 3, Județ: Maramures, Formă: Înălțime, ID: 13003 <br /><b>Variante</b><br />Nume: Chicera Mare, Hartă: Geomil 25000, Limbă: Limba română<br />Nume: Chicera Mare, Hartă: PDT, Limbă: Limba română</description><Point><coordinates>23.636899,47.798373,0</coordinates></Point></Placemark>
<Placemark><name>Chicera mare</name><description>Nume: Chicera mare, Tip: chicera, Nivel: 3, Județ: Maramures, Formă: Înălțime, ID: 13746 <br /><b>Variante</b><br />Nume: Chicera mare, Hartă: Imperiul Habsburgic (1887), Limbă: Limba română<br />Nume: Chicera Mare, Hartă: PDT, Limbă: Limba română</description><Point><coordinates>23.597816,47.764738,0</coordinates></Point></Placemark>
<Placemark><name>Chicera Mică</name><description>Nume: Chicera Mică, Tip: chicera, Nivel: 3, Județ: Maramures, Formă: Înălțime, ID: 13002 <br /><b>Variante</b><br />Nume: Chicera Mică, Hartă: Geomil 25000, Limbă: Limba română</description><Point><coordinates>23.661998,47.793230,0</coordinates></Point></Placemark>
<Placemark><name>Chicera Mică</name><description>Nume: Chicera Mică, Tip: chicera, Nivel: 3, Județ: Maramures, Formă: Înălțime, ID: 13747 <br /><b>Variante</b><br />Nume: Chicera Mică, Hartă: PDT, Limbă: Limba română</description><Point><coordinates>23.631302,47.791889,0</coordinates></Point></Placemark>
<Placemark><name>Culmea Chicerei</name><description>Nume: Culmea Chicerei, Tip: chicera, Nivel: 3, Județ: Maramures, Formă: Înălțime, ID: 14440, ID Părinte: 14439 <br /><b>Variante</b><br />Nume: Culmea Chicerei, Hartă: ANCPI, Limbă: Limba română</description><Point><coordinates>24.421016,47.854190,0</coordinates></Point></Placemark>
<Placemark><LineString id="14440_14439"><tessellate>1</tessellate><coordinates>24.421016,47.854190,0.
24.422578,47.858516,0</coordinates></LineString><Style><LineStyle><width>3</width></LineStyle></Style></Placemark>
<Placemark><name>Dealu Chicera</name><description>Nume: Dealu Chicera, Tip: chicera, Nivel: 3, Județ: Maramures, Formă: Deal, ID: 13919 <br /><b>Variante</b><br />Nume: Dealu Chicera, Hartă: Geomil 25000, Limbă: Limba română</description><Point><coordinates>23.489654,47.433717,0</coordinates></Point></Placemark>
<Placemark><name>Dealul Chicerei</name><description>Nume: Dealul Chicerei, Tip: chicera, Nivel: 3, Județ: Maramures, Formă: Deal, ID: 13130, ID Părinte: 13128 <br /><b>Variante</b><br />Nume: Dealul Chicerei, Hartă: Geomil 25000, Limbă: Limba română</description><Point><coordinates>24.358832,47.816338,0</coordinates></Point></Placemark>
<Placemark><LineString id="13130_13128"><tessellate>1</tessellate><coordinates>24.358832,47.816338,0.
24.338835,47.812266,0</coordinates></LineString><Style><LineStyle><width>3</width></LineStyle></Style></Placemark>
<Placemark><name>Gitzera</name><description>Nume: Gitzera, Tip: chicera, Nivel: 3, Județ: Maramures, Formă: Înălțime, ID: 14449 <br /><b>Variante</b><br />Nume: Gitzera, Hartă: Ungară 1869, Limbă: Limba română</description><Point><coordinates>23.726873,47.771978,0</coordinates></Point></Placemark>
<Placemark><name>Valea Chicerei</name><description>Nume: Valea Chicerei, Tip: chicera, Nivel: 3, Județ: Maramures, Formă: Vale, ID: 13129, ID Părinte: 13128 <br /><b>Variante</b><br />Nume: Valea Chicerei, Hartă: Geomil 25000, Limbă: Limba română</description><Point><coordinates>24.354312,47.809760,0</coordinates></Point></Placemark>
<Placemark><LineString id="13129_13128"><tessellate>1</tessellate><coordinates>24.354312,47.809760,0.
24.338835,47.812266,0</coordinates></LineString><Style><LineStyle><width>3</width></LineStyle></Style></Placemark>
<Placemark><name>Vârful Chicerei</name><description>Nume: Vârful Chicerei, Tip: chicera, Nivel: 3, Județ: Maramures, Formă: Înălțime, ID: 14439 <br /><b>Variante</b><br />Nume: Vârful Chicerei, Hartă: ANCPI, Limbă: Limba română</description><Point><coordinates>24.422578,47.858516,0</coordinates></Point></Placemark>
<Placemark><name>Vr. Kitsera</name><description>Nume: Vr. Kitsera, Tip: chicera, Nivel: 3, Județ: Maramures, Formă: Înălțime, ID: 14437 <br /><b>Variante</b><br />Nume: Vr. Kitsera, Hartă: Ungară 1869, Limbă: Limba română</description><Point><coordinates>24.089424,47.875809,0</coordinates></Point></Placemark>
<Placemark><name>Chiceruța</name><description>Nume: Chiceruța, Tip: chiceruța, Nivel: 4, Județ: Maramures, Formă: Înălțime, ID: 14446 <br /><b>Variante</b><br />Nume: Chiceruța, Hartă: ANCPI, Limbă: Limba română</description><Point><coordinates>23.968927,47.722443,0</coordinates></Point></Placemark>
<Placemark><name>Vârful Ticera</name><description>Nume: Vârful Ticera, Tip: ticera, Nivel: 4, Județ: Maramures, Formă: Înălțime, ID: 14443 <br /><b>Variante</b><br />Nume: Vârful Ticera, Hartă: ANCPI, Limbă: Limba română</description><Point><coordinates>24.084244,47.682209,0</coordinates></Point></Placemark>
<Placemark><name>Vârful Ticerii</name><description>Nume: Vârful Ticerii, Tip: ticera, Nivel: 4, Județ: Maramures, Formă: Înălțime, ID: 14448 <br /><b>Variante</b><br />Nume: Vârful Ticerii, Hartă: ANCPI, Limbă: Limba română<br />Nume: Vr. Ticsere, Hartă: Ungară 1869, Limbă: Limba română</description><Point><coordinates>23.799176,47.779694,0</coordinates></Point></Placemark>
<Placemark><name>Chicera lui Pasăre</name><description>Nume: Chicera lui Pasăre, Tip: chicera, Nivel: 3, Județ: Mures, Formă: Înălțime, ID: 13158 <br /><b>Variante</b><br />Nume: Chicera lui Pasăre, Hartă: Geomil 25000, Limbă: Limba română</description><Point><coordinates>24.985688,47.119112,0</coordinates></Point></Placemark>
<Placemark><name>Chicera</name><description>Nume: Chicera, Tip: chicera, Nivel: 3, Județ: Neamt, Formă: Înălțime, ID: 13155 <br /><b>Variante</b><br />Nume: Chicera, Hartă: Geomil 25000, Limbă: Limba română</description><Point><coordinates>26.668862,46.992159,0</coordinates></Point></Placemark>
<Placemark><name>Chicera</name><description>Nume: Chicera, Tip: chicera, Nivel: 3, Județ: Neamt, Formă: Înălțime, ID: 13212 <br /><b>Variante</b><br />Nume: Chicera, Hartă: Geomil 25000, Limbă: Limba română</description><Point><coordinates>25.839784,46.924242,0</coordinates></Point></Placemark>
<Placemark><name>Dealul Chicerei</name><description>Nume: Dealul Chicerei, Tip: chicera, Nivel: 3, Județ: Neamt, Formă: Deal, ID: 13545 <br /><b>Variante</b><br />Nume: Dealul Chicerei, Hartă: Geomil 25000, Limbă: Limba română</description><Point><coordinates>26.655236,47.068745,0</coordinates></Point></Placemark>
<Placemark><name>Dialu Kiscera</name><description>Nume: Dialu Kiscera, Tip: chicera, Nivel: 3, Județ: Neamt, Formă: Deal, ID: 14129 <br /><b>Variante</b><br />Nume: Dialu Kiscera, Hartă: Moldova (1788-1790), Limbă: Limba română</description><Point><coordinates>26.391090,47.090219,0</coordinates></Point></Placemark>
<Placemark><name>Pârâul Chicerii</name><description>Nume: Pârâul Chicerii, Tip: chicera, Nivel: 3, Județ: Neamt, Formă: Vale, ID: 13652, ID Părinte: 13212 <br /><b>Variante</b><br />Nume: Pârâul Chicerii, Hartă: Imperiul Habsburgic (1887), Limbă: Limba română</description><Point><coordinates>25.839214,46.933623,0</coordinates></Point></Placemark>
<Placemark><LineString id="13652_13212"><tessellate>1</tessellate><coordinates>25.839214,46.933623,0.
25.839784,46.924242,0</coordinates></LineString><Style><LineStyle><width>3</width></LineStyle></Style></Placemark>
<Placemark><name>Chicerea</name><description>Nume: Chicerea, Tip: chicerea, Nivel: 4, Județ: Neamt, Formă: Localitate, ID: 13544 <br /><b>Variante</b><br />Nume: Chicerea, Hartă: Geomil 25000, Limbă: Limba română</description><Point><coordinates>27.130296,46.976410,0</coordinates></Point></Placemark>
<Placemark><name>Dealul Chicerea</name><description>Nume: Dealul Chicerea, Tip: chicerea, Nivel: 4, Județ: Neamt, Formă: Deal, ID: 13550 <br /><b>Variante</b><br />Nume: Dealul Chicerea, Hartă: Moldova (1892-1898), Limbă: Limba română</description><Point><coordinates>27.162058,46.897137,0</coordinates></Point></Placemark>
<Placemark><name>Plaiul Chicera</name><description>Nume: Plaiul Chicera, Tip: chicera, Nivel: 3, Județ: Prahova, Formă: Înălțime, ID: 13151 <br /><b>Variante</b><br />Nume: Plaiul Chicera, Hartă: Geomil 25000, Limbă: Limba română</description><Point><coordinates>25.900845,45.114090,0</coordinates></Point></Placemark>
<Placemark><name>Valea Chicerei Seci</name><description>Nume: Valea Chicerei Seci, Tip: chicera, Nivel: 3, Județ: Prahova, Formă: Vale, ID: 14435 <br /><b>Variante</b><br />Nume: Valea Chicerei Seci, Hartă: ANCPI, Limbă: Limba română</description><Point><coordinates>23.559961,47.016389,0</coordinates></Point></Placemark>
<Placemark><name>Chicera</name><description>Nume: Chicera, Tip: chicera, Nivel: 3, Județ: Salaj, Formă: Înălțime, ID: 13167 <br /><b>Variante</b><br />Nume: Chicera, Hartă: Geomil 25000, Limbă: Limba română</description><Point><coordinates>23.225154,47.266257,0</coordinates></Point></Placemark>
<Placemark><name>Chicera Mare</name><description>Nume: Chicera Mare, Tip: chicera, Nivel: 3, Județ: Salaj, Formă: Înălțime, ID: 13109 <br /><b>Variante</b><br />Nume: Chicera Mare, Hartă: Geomil 25000, Limbă: Limba română</description><Point><coordinates>23.473518,47.395200,0</coordinates></Point></Placemark>
<Placemark><name>Chicera Tusa</name><description>Nume: Chicera Tusa, Tip: chicera, Nivel: 3, Județ: Salaj, Formă: Înălțime, ID: 13373 <br /><b>Variante</b><br />Nume: Chicera Tusa, Hartă: Geomil 25000, Limbă: Limba română<br />Nume: D. Chicera, Hartă: Ungară 1869, Limbă: Limba română</description><Point><coordinates>22.798142,47.026258,0</coordinates></Point></Placemark>
<Placemark><name>Dealul Chicera</name><description>Nume: Dealul Chicera, Tip: chicera, Nivel: 3, Județ: Salaj, Formă: Deal, ID: 14030 <br /><b>Variante</b><br />Nume: Dealul Chicera, Hartă: PDT, Limbă: Limba română</description><Point><coordinates>23.697746,47.299771,0</coordinates></Point></Placemark>
<Placemark><name>Dealul Chicerii</name><description>Nume: Dealul Chicerii, Tip: chicera, Nivel: 3, Județ: Salaj, Formă: Deal, ID: 13108 <br /><b>Variante</b><br />Nume: Dealul Chicerii, Hartă: Geomil 25000, Limbă: Limba română<br />Nume: Dealu ciceri, Hartă: Ungară 1869, Limbă: Limba română</description><Point><coordinates>23.613771,47.375469,0</coordinates></Point></Placemark>
<Placemark><name>Vârfu Chicera</name><description>Nume: Vârfu Chicera, Tip: chicera, Nivel: 3, Județ: Salaj, Formă: Înălțime, ID: 13169 <br /><b>Variante</b><br />Nume: Vârfu Chicera, Hartă: Geomil 25000, Limbă: Limba română</description><Point><coordinates>23.440491,47.293961,0</coordinates></Point></Placemark>
<Placemark><name>D. Chiceri</name><description>Nume: D. Chiceri, Tip: chiceri, Nivel: 4, Județ: Salaj, Formă: Deal, ID: 13374 <br /><b>Variante</b><br />Nume: D. Chiceri, Hartă: Imperiul Habsburgic (1887), Limbă: Limba română</description><Point><coordinates>22.654451,47.105510,0</coordinates></Point></Placemark>
<Placemark><name>Chicera Mare</name><description>Nume: Chicera Mare, Tip: chicera, Nivel: 3, Județ: Satu Mare, Formă: Înălțime, ID: 13379 <br /><b>Variante</b><br />Nume: Chicera Mare, Hartă: Geomil 25000, Limbă: Limba română</description><Point><coordinates>23.231473,48.011555,0</coordinates></Point></Placemark>
<Placemark><name>Chicera Mică</name><description>Nume: Chicera Mică, Tip: chicera, Nivel: 3, Județ: Satu Mare, Formă: Înălțime, ID: 13380 <br /><b>Variante</b><br />Nume: Chicera Mică, Hartă: Geomil 25000, Limbă: Limba română</description><Point><coordinates>23.232671,48.005784,0</coordinates></Point></Placemark>
<Placemark><name>Valea Chicera</name><description>Nume: Valea Chicera, Tip: chicera, Nivel: 3, Județ: Satu Mare, Formă: Vale, ID: 13381 <br /><b>Variante</b><br />Nume: Valea Chicera, Hartă: Geomil 25000, Limbă: Limba română</description><Point><coordinates>23.232718,48.079540,0</coordinates></Point></Placemark>
<Placemark><name>Chicera</name><description>Nume: Chicera, Tip: chicera, Nivel: 3, Județ: Sibiu, Formă: Înălțime, ID: 13161 <br /><b>Variante</b><br />Nume: Chicerei, Hartă: Geomil 25000, Limbă: Limba română</description><Point><coordinates>24.085882,46.040432,0</coordinates></Point></Placemark>
<Placemark><name>Chicera</name><description>Nume: Chicera, Tip: chicera, Nivel: 3, Județ: Sibiu, Formă: Înălțime, ID: 14632 <br /><b>Variante</b><br />Nume: Chicera, Hartă: PDT, Limbă: Limba română<br />Nume: Kitsera, Hartă: Transilvania (1869-1870), Limbă: Limba română</description><Point><coordinates>24.623939,45.802564,0</coordinates></Point></Placemark>
<Placemark><name>Chicera Amnaș</name><description>Nume: Chicera Amnaș, Tip: chicera, Nivel: 3, Județ: Sibiu, Formă: Înălțime, ID: 13204 <br /><b>Variante</b><br />Nume: Chicera Amnaș, Hartă: Geomil 25000, Limbă: Limba română</description><Point><coordinates>23.924706,45.868497,0</coordinates></Point></Placemark>
<Placemark><name>Chicera Veștem</name><description>Nume: Chicera Veștem, Tip: chicera, Nivel: 3, Județ: Sibiu, Formă: Înălțime, ID: 13814 <br /><b>Variante</b><br />Nume: Chicera Veștem, Hartă: Geomil 25000, Limbă: Limba română</description><Point><coordinates>24.288630,45.692177,0</coordinates></Point></Placemark>
<Placemark><name>Culmea Chicerii</name><description>Nume: Culmea Chicerii, Tip: chicera, Nivel: 3, Județ: Sibiu, Formă: Înălțime, ID: 13207 <br /><b>Variante</b><br />Nume: Culmea Chicerii, Hartă: Geomil 25000, Limbă: Limba română</description><Point><coordinates>24.222485,45.556634,0</coordinates></Point></Placemark>
<Placemark><name>Dealul Chicera Bradului</name><description>Nume: Dealul Chicera Bradului, Tip: chicera, Nivel: 3, Județ: Sibiu, Formă: Deal, ID: 13815 <br /><b>Variante</b><br />Nume: Dealul Chicera Bradului, Hartă: Geomil 25000, Limbă: Limba română</description><Point><coordinates>24.290227,45.697621,0</coordinates></Point></Placemark>
<Placemark><name>Dealul Chicerei</name><description>Nume: Dealul Chicerei, Tip: chicera, Nivel: 3, Județ: Sibiu, Formă: Deal, ID: 13162, ID Părinte: 13161 <br /><b>Variante</b><br />Nume: Dealul Chicerei, Hartă: Geomil 25000, Limbă: Limba română</description><Point><coordinates>24.086618,46.045081,0</coordinates></Point></Placemark>
<Placemark><LineString id="13162_13161"><tessellate>1</tessellate><coordinates>24.086618,46.045081,0.
24.085882,46.040432,0</coordinates></LineString><Style><LineStyle><width>3</width></LineStyle></Style></Placemark>
<Placemark><name>Dealul Chicerii</name><description>Nume: Dealul Chicerii, Tip: chicera, Nivel: 3, Județ: Sibiu, Formă: Deal, ID: 13803 <br /><b>Variante</b><br />Nume: Dealul Chicerii, Hartă: Geomil 25000, Limbă: Limba română</description><Point><coordinates>24.505916,45.908097,0</coordinates></Point></Placemark>
<Placemark><name>Kitsero</name><description>Nume: Kitsero, Tip: chicera, Nivel: 3, Județ: Sibiu, Formă: Înălțime, ID: 14631 <br /><b>Variante</b><br />Nume: Kitsero, Hartă: Transilvania (1869-1870), Limbă: Limba română</description><Point><coordinates>24.485817,45.805526,0</coordinates></Point></Placemark>
<Placemark><name>Pădurea Chicerei</name><description>Nume: Pădurea Chicerei, Tip: chicera, Nivel: 3, Județ: Sibiu, Formă: Pădure, ID: 13160, ID Părinte: 13161 <br /><b>Variante</b><br />Nume: Pădurea Chicerei, Hartă: Geomil 25000, Limbă: Limba română</description><Point><coordinates>24.088437,46.050577,0</coordinates></Point></Placemark>
<Placemark><LineString id="13160_13161"><tessellate>1</tessellate><coordinates>24.088437,46.050577,0.
24.085882,46.040432,0</coordinates></LineString><Style><LineStyle><width>3</width></LineStyle></Style></Placemark>
<Placemark><name>Poeana Checera</name><description>Nume: Poeana Checera, Tip: checera, Nivel: 4, Județ: Suceava, Formă: Poiană, ID: 13416 <br /><b>Variante</b><br />Nume: Poeana Checera, Hartă: Imperiul Habsburgic (1887), Limbă: Limba română</description><Point><coordinates>25.675502,47.398629,0</coordinates></Point></Placemark>
<Placemark><name>Chicera</name><description>Nume: Chicera, Tip: chicera, Nivel: 3, Județ: Suceava, Formă: Vale, ID: 13028, ID Părinte: 13027 <br /><b>Variante</b><br />Nume: Chicera, Hartă: Geomil 25000, Limbă: Limba română</description><Point><coordinates>25.351332,47.732003,0</coordinates></Point></Placemark>
<Placemark><LineString id="13028_13027"><tessellate>1</tessellate><coordinates>25.351332,47.732003,0.
25.338644,47.741276,0</coordinates></LineString><Style><LineStyle><width>3</width></LineStyle></Style></Placemark>
<Placemark><name>Chicera</name><description>Nume: Chicera, Tip: chicera, Nivel: 3, Județ: Suceava, Formă: Înălțime, ID: 13900 <br /><b>Variante</b><br />Nume: Chicera, Hartă: Geomil 25000, Limbă: Limba română</description><Point><coordinates>25.191156,47.810472,0</coordinates></Point></Placemark>
<Placemark><name>Chicera</name><description>Nume: Chicera, Tip: chicera, Nivel: 3, Județ: Suceava, Formă: Înălțime, ID: 14298 <br /><b>Variante</b><br />Nume: Chicera, Hartă: ANCPI, Limbă: Limba română</description><Point><coordinates>25.510300,47.708673,0</coordinates></Point></Placemark>
<Placemark><name>Chicera Mare</name><description>Nume: Chicera Mare, Tip: chicera, Nivel: 3, Județ: Suceava, Formă: Înălțime, ID: 13027 <br /><b>Variante</b><br />Nume: Chicera Mare, Hartă: Geomil 25000, Limbă: Limba română</description><Point><coordinates>25.338644,47.741276,0</coordinates></Point></Placemark>
<Placemark><name>Chicera Mică</name><description>Nume: Chicera Mică, Tip: chicera, Nivel: 3, Județ: Suceava, Formă: Înălțime, ID: 13026 <br /><b>Variante</b><br />Nume: Chicera Mică, Hartă: Geomil 25000, Limbă: Limba română</description><Point><coordinates>25.332267,47.735290,0</coordinates></Point></Placemark>
<Placemark><name>Chicera Neagră</name><description>Nume: Chicera Neagră, Tip: chicera, Nivel: 3, Județ: Suceava, Formă: Înălțime, ID: 14301 <br /><b>Variante</b><br />Nume: Chicera Neagră, Hartă: ANCPI, Limbă: Limba română</description><Point><coordinates>25.466712,47.744740,0</coordinates></Point></Placemark>
<Placemark><name>Dealul Chicerei</name><description>Nume: Dealul Chicerei, Tip: chicera, Nivel: 3, Județ: Suceava, Formă: Deal, ID: 14299, ID Părinte: 14298 <br /><b>Variante</b><br />Nume: Dealul Chicerei, Hartă: ANCPI, Limbă: Limba română</description><Point><coordinates>25.502743,47.714359,0</coordinates></Point></Placemark>
<Placemark><LineString id="14299_14298"><tessellate>1</tessellate><coordinates>25.502743,47.714359,0.
25.510300,47.708673,0</coordinates></LineString><Style><LineStyle><width>3</width></LineStyle></Style></Placemark>
<Placemark><name>Muntele Chicerei</name><description>Nume: Muntele Chicerei, Tip: chicera, Nivel: 3, Județ: Suceava, Formă: Înălțime, ID: 13029 <br /><b>Variante</b><br />Nume: Muntele Chicerei, Hartă: Geomil 25000, Limbă: Limba română</description><Point><coordinates>25.290402,47.847864,0</coordinates></Point></Placemark>
<Placemark><name>Poiana Chicerei</name><description>Nume: Poiana Chicerei, Tip: chicera, Nivel: 3, Județ: Suceava, Formă: Înălțime, ID: 13030, ID Părinte: 13029 <br /><b>Variante</b><br />Nume: Poiana Chicerei, Hartă: Geomil 25000, Limbă: Limba română</description><Point><coordinates>25.297067,47.849775,0</coordinates></Point></Placemark>
<Placemark><LineString id="13030_13029"><tessellate>1</tessellate><coordinates>25.297067,47.849775,0.
25.290402,47.847864,0</coordinates></LineString><Style><LineStyle><width>3</width></LineStyle></Style></Placemark>
<Placemark><name>Poiana Chicerii</name><description>Nume: Poiana Chicerii, Tip: chicera, Nivel: 3, Județ: Suceava, Formă: Poiană, ID: 13821 <br /><b>Variante</b><br />Nume: Poiana Chicerii, Hartă: Geomil 25000, Limbă: Limba română</description><Point><coordinates>25.597471,47.762082,0</coordinates></Point></Placemark>
<Placemark><name>Chicerca-mare</name><description>Nume: Chicerca-mare, Tip: chicerca, Nivel: 4, Județ: Suceava, Formă: Înălțime, ID: 13414 <br /><b>Variante</b><br />Nume: Chicerca-mare, Hartă: Imperiul Habsburgic (1887), Limbă: Limba română</description><Point><coordinates>25.769026,47.378516,0</coordinates></Point></Placemark>
<Placemark><name>Chicerca-mică</name><description>Nume: Chicerca-mică, Tip: chicerca, Nivel: 4, Județ: Suceava, Formă: Înălțime, ID: 13415 <br /><b>Variante</b><br />Nume: Chicerca-mică, Hartă: Imperiul Habsburgic (1887), Limbă: Limba română</description><Point><coordinates>25.763430,47.382778,0</coordinates></Point></Placemark>
<Placemark><name>Dealul Chicerca</name><description>Nume: Dealul Chicerca, Tip: chicerca, Nivel: 4, Județ: Suceava, Formă: Deal, ID: 13901 <br /><b>Variante</b><br />Nume: Dealul Chicerca, Hartă: Geomil 25000, Limbă: Limba română</description><Point><coordinates>25.181116,47.795613,0</coordinates></Point></Placemark>
<Placemark><name>Chicera</name><description>Nume: Chicera, Tip: chicera, Nivel: 3, Județ: Timis, Formă: Altele, ID: 13353 <br /><b>Variante</b><br />Nume: Chicera, Hartă: Geomil 25000, Limbă: Limba română</description><Point><coordinates>22.379094,45.880670,0</coordinates></Point></Placemark>
<Placemark><name>Vârfu Chicera</name><description>Nume: Vârfu Chicera, Tip: chicera, Nivel: 3, Județ: Timis, Formă: Înălțime, ID: 13354 <br /><b>Variante</b><br />Nume: Vârfu Chicera, Hartă: Geomil 25000, Limbă: Limba română</description><Point><coordinates>22.472935,45.733467,0</coordinates></Point></Placemark>
<Placemark><name>Chicera</name><description>Nume: Chicera, Tip: chicera, Nivel: 3, Județ: Vaslui, Formă: Înălțime, ID: 14119 <br /><b>Variante</b><br />Nume: Chicera, Hartă: Geomil 25000, Limbă: Limba română</description><Point><coordinates>27.429261,46.487655,0</coordinates></Point></Placemark>
<Placemark><name>Dealul Chicera</name><description>Nume: Dealul Chicera, Tip: chicera, Nivel: 3, Județ: Vaslui, Formă: Deal, ID: 14557 <br /><b>Variante</b><br />Nume: Dealul Chicera, Hartă: ANCPI, Limbă: Limba română</description><Point><coordinates>27.911700,46.682059,0</coordinates></Point></Placemark>
<Placemark><name>Dealul Chicerei</name><description>Nume: Dealul Chicerei, Tip: chicera, Nivel: 3, Județ: Vaslui, Formă: Deal, ID: 14120 <br /><b>Variante</b><br />Nume: Dealul Chicerei, Hartă: Geomil 25000, Limbă: Limba română</description><Point><coordinates>27.585986,46.350350,0</coordinates></Point></Placemark>
<Placemark><name>Chicerla</name><description>Nume: Chicerla, Tip: chicerla, Nivel: 4, Județ: Vaslui, Formă: Înălțime, ID: 13559 <br /><b>Variante</b><br />Nume: Chicerla, Hartă: Geomil 25000, Limbă: Limba română</description><Point><coordinates>27.533050,46.316932,0</coordinates></Point></Placemark>
<Placemark><name>Coasta Chișirei</name><description>Nume: Coasta Chișirei, Tip: chișira, Nivel: 4, Județ: Vaslui, Formă: Înălțime, ID: 13944 <br /><b>Variante</b><br />Nume: Coasta Chișirei, Hartă: Moldova (1892-1898), Limbă: Limba română</description><Point><coordinates>27.774457,46.273807,0</coordinates></Point></Placemark>
<Placemark><name>Chicera</name><description>Nume: Chicera, Tip: chicera, Nivel: 3, Județ: Vrancea, Formă: Înălțime, ID: 13334 <br /><b>Variante</b><br />Nume: Chicera, Hartă: Geomil 25000, Limbă: Limba română</description><Point><coordinates>27.078984,45.934062,0</coordinates></Point></Placemark>
<Placemark><name>Dealul Chicera</name><description>Nume: Dealul Chicera, Tip: chicera, Nivel: 3, Județ: Vrancea, Formă: Deal, ID: 13337 <br /><b>Variante</b><br />Nume: Dealul Chicera, Hartă: Geomil 25000, Limbă: Limba română</description><Point><coordinates>26.865912,45.784202,0</coordinates></Point></Placemark>
<Placemark><name>Dealul Chicerei</name><description>Nume: Dealul Chicerei, Tip: chicera, Nivel: 3, Județ: Vrancea, Formă: Deal, ID: 13336 <br /><b>Variante</b><br />Nume: Dealul Chicerei, Hartă: Geomil 25000, Limbă: Limba română</description><Point><coordinates>26.858302,45.776024,0</coordinates></Point></Placemark></Document></kml>