<?xml version="1.0" encoding="UTF-8"?><kml xmlns="http://www.opengis.net/kml/2.2"><Document><Placemark><name>Tătărăști</name><description>Nume: Tătărăști, Tip: tătărăști, Nivel: 3, Județ: Bacau, Formă: Localitate, ID: 7845 <br /><b>Variante</b><br />Nume: Tătărăști, Hartă: Geomil 25000, Limbă: Limba română</description><Point><coordinates>27.201590,46.219180,0</coordinates></Point></Placemark>
<Placemark><name>Pârâu Tătărăști</name><description>Nume: Pârâu Tătărăști, Tip: tătărăști, Nivel: 3, Județ: Hunedoara, Formă: Vale, ID: 6273, ID Părinte: 6264 <br /><b>Variante</b><br />Nume: Pârâu Tătărăști, Hartă: Geomil 25000, Limbă: Limba română</description><Point><coordinates>22.606215,46.150237,0</coordinates></Point></Placemark>
<Placemark><LineString id="6273_6264"><tessellate>1</tessellate><coordinates>22.606215,46.150237,0.
22.614030,46.162799,0</coordinates></LineString><Style><LineStyle><width>3</width></LineStyle></Style></Placemark>
<Placemark><name>Tătărăști</name><description>Nume: Tătărăști, Tip: tătărăști, Nivel: 3, Județ: Hunedoara, Formă: Localitate, ID: 10876 <br /><b>Variante</b><br />Nume: Tătărăști, Hartă: Geomil 25000, Limbă: Limba română</description><Point><coordinates>22.510654,45.950352,0</coordinates></Point></Placemark>
<Placemark><name>Tătărăștii de Criș</name><description>Nume: Tătărăștii de Criș, Tip: tătărăști, Nivel: 3, Județ: Hunedoara, Formă: Localitate, ID: 6264 <br /><b>Variante</b><br />Nume: Tătărăștii de Criș, Hartă: PDT, Limbă: Limba română<br />Nume: Tătărăștii de Criș, Hartă: Geomil 25000, Limbă: Limba română</description><Point><coordinates>22.614030,46.162799,0</coordinates></Point></Placemark>
<Placemark><name>Dealul Tătărăști</name><description>Nume: Dealul Tătărăști, Tip: tătărăști, Nivel: 3, Județ: Mehedinti, Formă: Deal, ID: 5196, ID Părinte: 5195 <br /><b>Variante</b><br />Nume: Dealul Tătărăști, Hartă: Geomil 25000, Limbă: Limba română</description><Point><coordinates>22.909077,44.426597,0</coordinates></Point></Placemark>
<Placemark><LineString id="5196_5195"><tessellate>1</tessellate><coordinates>22.909077,44.426597,0.
22.910554,44.428181,0</coordinates></LineString><Style><LineStyle><width>3</width></LineStyle></Style></Placemark>
<Placemark><name>Valea Tătărăști</name><description>Nume: Valea Tătărăști, Tip: tătărăști, Nivel: 3, Județ: Mehedinti, Formă: Vale, ID: 5195 <br /><b>Variante</b><br />Nume: Valea Tătărăști, Hartă: Geomil 25000, Limbă: Limba română</description><Point><coordinates>22.910554,44.428181,0</coordinates></Point></Placemark>
<Placemark><name>Dealu Tătărăștilor</name><description>Nume: Dealu Tătărăștilor, Tip: tătărăști, Nivel: 3, Județ: Satu Mare, Formă: Deal, ID: 6962, ID Părinte: 4472 <br /><b>Variante</b><br />Nume: Dealu Tătărăștilor, Hartă: Geomil 25000, Limbă: Limba română</description><Point><coordinates>22.961468,47.677380,0</coordinates></Point></Placemark>
<Placemark><LineString id="6962_4472"><tessellate>1</tessellate><coordinates>22.961468,47.677380,0.
22.998231,47.673430,0</coordinates></LineString><Style><LineStyle><width>3</width></LineStyle></Style></Placemark>
<Placemark><name>Tătăreștii de Jos</name><description>Nume: Tătăreștii de Jos, Tip: tătărăști, Nivel: 3, Județ: Teleorman, Formă: Localitate, ID: 9034, ID Părinte: 9035 <br /><b>Variante</b><br />Nume: Tătăreștii de Jos, Hartă: PDT, Limbă: Limba română</description><Point><coordinates>25.180195,44.372256,0</coordinates></Point></Placemark>
<Placemark><LineString id="9034_9035"><tessellate>1</tessellate><coordinates>25.180195,44.372256,0.
25.124250,44.407209,0</coordinates></LineString><Style><LineStyle><width>3</width></LineStyle></Style></Placemark>
<Placemark><name>Tătăreștii de Sus</name><description>Nume: Tătăreștii de Sus, Tip: tătărăști, Nivel: 3, Județ: Teleorman, Formă: Localitate, ID: 9035 <br /><b>Variante</b><br />Nume: Tătăreștii de Sus, Hartă: PDT, Limbă: Limba română</description><Point><coordinates>25.124250,44.407209,0</coordinates></Point></Placemark></Document></kml>