<?xml version="1.0" encoding="UTF-8"?><kml xmlns="http://www.opengis.net/kml/2.2"><Document><Placemark><name>Muntele Pițigoiului</name><description>Nume: Muntele Pițigoiului, Tip: pițigoi, Nivel: 2, Județ: Bacau, Formă: Înălțime, ID: 4602 <br /><b>Variante</b><br />Nume: Muntele Pițigoiului, Hartă: Geomil 25000, Limbă: Limba română</description><Point><coordinates>26.462778,46.589746,0</coordinates></Point></Placemark>
<Placemark><name>Culmea Pițigoi</name><description>Nume: Culmea Pițigoi, Tip: pițigoi, Nivel: 2, Județ: Bihor, Formă: Înălțime, ID: 10378 <br /><b>Variante</b><br />Nume: Culmea Pițigoi, Hartă: PDT, Limbă: Limba română</description><Point><coordinates>22.262045,47.101591,0</coordinates></Point></Placemark>
<Placemark><name>Dealul Pițigoiului</name><description>Nume: Dealul Pițigoiului, Tip: pițigoi, Nivel: 2, Județ: Buzau, Formă: Deal, ID: 9650 <br /><b>Variante</b><br />Nume: Dealul Pițigoiului, Hartă: Geomil 25000, Limbă: Limba română</description><Point><coordinates>26.382229,45.258789,0</coordinates></Point></Placemark>
<Placemark><name>La Pițigoi</name><description>Nume: La Pițigoi, Tip: pițigoi, Nivel: 2, Județ: Buzau, Formă: Altele, ID: 6029 <br /><b>Variante</b><br />Nume: La Pițigoi, Hartă: Geomil 25000, Limbă: Limba română</description><Point><coordinates>26.521802,45.158479,0</coordinates></Point></Placemark>
<Placemark><name>Vârful Pițigoiului</name><description>Nume: Vârful Pițigoiului, Tip: pițigoi, Nivel: 2, Județ: Buzau, Formă: Înălțime, ID: 12987 <br /><b>Variante</b><br />Nume: Vârful Pițigoiului, Hartă: Geomil 25000, Limbă: Limba română</description><Point><coordinates>26.599999,45.469041,0</coordinates></Point></Placemark>
<Placemark><name>Furca Pițigoiului</name><description>Nume: Furca Pițigoiului, Tip: pițigoi, Nivel: 2, Județ: Mehedinti, Formă: Altele, ID: 8695 <br /><b>Variante</b><br />Nume: Furca Pițigoiului, Hartă: PDT, Limbă: Limba română</description><Point><coordinates>22.355019,44.776126,0</coordinates></Point></Placemark>
<Placemark><name>Pârâul Pițigoiul</name><description>Nume: Pârâul Pițigoiul, Tip: pițigoi, Nivel: 2, Județ: Neamt, Formă: Vale, ID: 13655 <br /><b>Variante</b><br />Nume: Pârâul Pițigoiul, Hartă: PDT, Limbă: Limba română</description><Point><coordinates>26.002765,46.859312,0</coordinates></Point></Placemark>
<Placemark><name>Valea Pițigoiului</name><description>Nume: Valea Pițigoiului, Tip: pițigoi, Nivel: 2, Județ: Prahova, Formă: Vale, ID: 12879 <br /><b>Variante</b><br />Nume: Valea Pițigoiului, Hartă: Geomil 25000, Limbă: Limba română</description><Point><coordinates>26.071500,45.224115,0</coordinates></Point></Placemark>
<Placemark><name>Ocolul Pițigoiului</name><description>Nume: Ocolul Pițigoiului, Tip: pițigoi, Nivel: 2, Județ: Teleorman, Formă: Altele, ID: 9474, ID Părinte: 8010 <br /><b>Variante</b><br />Nume: Ocolul Pițigoiului, Hartă: PDT, Limbă: Limba română</description><Point><coordinates>24.778128,43.793908,0</coordinates></Point></Placemark>
<Placemark><LineString id="9474_8010"><tessellate>1</tessellate><coordinates>24.778128,43.793908,0.
24.779512,43.804072,0</coordinates></LineString><Style><LineStyle><width>3</width></LineStyle></Style></Placemark>
<Placemark><name>Pădurea Pițigoiu</name><description>Nume: Pădurea Pițigoiu, Tip: pițigoi, Nivel: 2, Județ: Teleorman, Formă: Pădure, ID: 8010 <br /><b>Variante</b><br />Nume: Pădurea Pițigoiu, Hartă: Geomil 25000, Limbă: Limba română</description><Point><coordinates>24.779512,43.804072,0</coordinates></Point></Placemark>
<Placemark><name>Dealul Pițigoiu</name><description>Nume: Dealul Pițigoiu, Tip: pițigoi, Nivel: 2, Județ: Vrancea, Formă: Deal, ID: 9532 <br /><b>Variante</b><br />Nume: Dealul Pițigoiu, Hartă: Moldova (1892-1898), Limbă: Limba română</description><Point><coordinates>27.036580,45.801279,0</coordinates></Point></Placemark></Document></kml>