<?xml version="1.0" encoding="UTF-8"?><kml xmlns="http://www.opengis.net/kml/2.2"><Document><Placemark><name>Dealu Porcului</name><description>Nume: Dealu Porcului, Tip: porc, Nivel: 2, Județ: Alba, Formă: Deal, ID: 1150 <br /><b>Variante</b><br />Nume: Dealu Porcului, Hartă: Geomil 25000, Limbă: Limba română</description><Point><coordinates>23.595416,45.899715,0</coordinates></Point></Placemark>
<Placemark><name>Troaca Porcilor</name><description>Nume: Troaca Porcilor, Tip: porc, Nivel: 2, Județ: Alba, Formă: Altele, ID: 13994 <br /><b>Variante</b><br />Nume: Troaca Porcilor, Hartă: PDT, Limbă: Limba română</description><Point><coordinates>24.030941,46.320475,0</coordinates></Point></Placemark>
<Placemark><name>Valea Porcilor</name><description>Nume: Valea Porcilor, Tip: porc, Nivel: 2, Județ: Alba, Formă: Vale, ID: 2574 <br /><b>Variante</b><br />Nume: Valea Porcilor, Hartă: Geomil 25000, Limbă: Limba română</description><Point><coordinates>23.394287,46.071333,0</coordinates></Point></Placemark>
<Placemark><name>Dealu Porcului</name><description>Nume: Dealu Porcului, Tip: porc, Nivel: 2, Județ: Arad, Formă: Deal, ID: 10363 <br /><b>Variante</b><br />Nume: Dealu Porcului, Hartă: Geomil 25000, Limbă: Limba română</description><Point><coordinates>22.289995,46.179181,0</coordinates></Point></Placemark>
<Placemark><name>Fântâna Porcilor</name><description>Nume: Fântâna Porcilor, Tip: porc, Nivel: 2, Județ: Arad, Formă: Altele, ID: 7592 <br /><b>Variante</b><br />Nume: Fântâna Porcilor, Hartă: PDT, Limbă: Limba română</description><Point><coordinates>21.770259,46.615767,0</coordinates></Point></Placemark>
<Placemark><name>Fântâna Porcilor</name><description>Nume: Fântâna Porcilor, Tip: porc, Nivel: 2, Județ: Arad, Formă: Altele, ID: 8029 <br /><b>Variante</b><br />Nume: Fântâna Porcilor, Hartă: PDT, Limbă: Limba română</description><Point><coordinates>21.589948,46.525884,0</coordinates></Point></Placemark>
<Placemark><name>Imașu Porcilor</name><description>Nume: Imașu Porcilor, Tip: porc, Nivel: 2, Județ: Arad, Formă: Altele, ID: 11683 <br /><b>Variante</b><br />Nume: Imașu Porcilor, Hartă: Geomil 25000, Limbă: Limba română</description><Point><coordinates>21.243582,46.337215,0</coordinates></Point></Placemark>
<Placemark><name>Pârâul Porcului</name><description>Nume: Pârâul Porcului, Tip: porc, Nivel: 2, Județ: Arad, Formă: Vale, ID: 13497 <br /><b>Variante</b><br />Nume: Pârâul Porcului, Hartă: PDT, Limbă: Limba română</description><Point><coordinates>22.189667,46.076429,0</coordinates></Point></Placemark>
<Placemark><name>Valea Porcului</name><description>Nume: Valea Porcului, Tip: porc, Nivel: 2, Județ: Arad, Formă: Vale, ID: 9409 <br /><b>Variante</b><br />Nume: Valea Porcului, Hartă: Geomil 25000, Limbă: Limba română</description><Point><coordinates>21.978141,46.244771,0</coordinates></Point></Placemark>
<Placemark><name>Valea Mistrețului</name><description>Nume: Valea Mistrețului, Tip: mistreț, Nivel: 3, Județ: Arges, Formă: Vale, ID: 4996 <br /><b>Variante</b><br />Nume: Valea Mistrețului, Hartă: Geomil 25000, Limbă: Limba română</description><Point><coordinates>24.900999,45.382104,0</coordinates></Point></Placemark>
<Placemark><name>Culmea Porcului</name><description>Nume: Culmea Porcului, Tip: porc, Nivel: 2, Județ: Arges, Formă: Înălțime, ID: 624 <br /><b>Variante</b><br />Nume: Culmea Porcului, Hartă: Geomil 25000, Limbă: Limba română</description><Point><coordinates>24.921754,45.495727,0</coordinates></Point></Placemark>
<Placemark><name>Eleșteul Porcului</name><description>Nume: Eleșteul Porcului, Tip: porc, Nivel: 2, Județ: Arges, Formă: Apă-deal-câmpie, ID: 3720 <br /><b>Variante</b><br />Nume: Eleșteul Porcului, Hartă: PDT, Limbă: Limba română</description><Point><coordinates>25.015978,44.646708,0</coordinates></Point></Placemark>
<Placemark><name>Piscul Porcului</name><description>Nume: Piscul Porcului, Tip: porc, Nivel: 2, Județ: Arges, Formă: Înălțime, ID: 563 <br /><b>Variante</b><br />Nume: Piscul Porcului, Hartă: Geomil 25000, Limbă: Limba română</description><Point><coordinates>24.936856,45.185846,0</coordinates></Point></Placemark>
<Placemark><name>Piscul Porcului</name><description>Nume: Piscul Porcului, Tip: porc, Nivel: 2, Județ: Arges, Formă: Înălțime, ID: 6893 <br /><b>Variante</b><br />Nume: Piscul Porcului, Hartă: Geomil 25000, Limbă: Limba română</description><Point><coordinates>24.824044,45.009951,0</coordinates></Point></Placemark>
<Placemark><name>Valea Porcului</name><description>Nume: Valea Porcului, Tip: porc, Nivel: 2, Județ: Arges, Formă: Vale, ID: 5027 <br /><b>Variante</b><br />Nume: Valea Porcului, Hartă: Geomil 25000, Limbă: Limba română<br />Nume: Valea Porcului, Hartă: PDT, Limbă: Limba română</description><Point><coordinates>25.112083,45.443474,0</coordinates></Point></Placemark>
<Placemark><name>Culmea Scroafei</name><description>Nume: Culmea Scroafei, Tip: scroafă, Nivel: 3, Județ: Arges, Formă: Înălțime, ID: 11203 <br /><b>Variante</b><br />Nume: Culmea Scroafei, Hartă: ANCPI, Limbă: Limba română</description><Point><coordinates>24.684067,45.455817,0</coordinates></Point></Placemark>
<Placemark><name>Dealul Scroafa</name><description>Nume: Dealul Scroafa, Tip: scroafă, Nivel: 3, Județ: Arges, Formă: Deal, ID: 85 <br /><b>Variante</b><br />Nume: Дялу-Скроафа (Dealul Scroafa), Hartă: Sovietică, Limbă: Limba română<br />Nume: Dealul Scroafa, Hartă: Geomil 25000, Limbă: Limba română<br />Nume: Dealul Scrofa, Hartă: PDT, Limbă: Limba română</description><Point><coordinates>24.679704,44.893945,0</coordinates></Point></Placemark>
<Placemark><name>Valea Scroafa</name><description>Nume: Valea Scroafa, Tip: scroafă, Nivel: 3, Județ: Arges, Formă: Vale, ID: 4782 <br /><b>Variante</b><br />Nume: Valea Scroafa, Hartă: PDT, Limbă: Limba română</description><Point><coordinates>24.795779,44.751912,0</coordinates></Point></Placemark>
<Placemark><name>Valea Scroafei</name><description>Nume: Valea Scroafei, Tip: scroafă, Nivel: 3, Județ: Arges, Formă: Vale, ID: 11190 <br /><b>Variante</b><br />Nume: Valea Scroafei, Hartă: ANCPI, Limbă: Limba română</description><Point><coordinates>24.906630,44.670785,0</coordinates></Point></Placemark>
<Placemark><name>Mistrețul</name><description>Nume: Mistrețul, Tip: mistreț, Nivel: 3, Județ: Bacau, Formă: Vale, ID: 9963 <br /><b>Variante</b><br />Nume: Mistrețul, Hartă: Geomil 25000, Limbă: Limba română</description><Point><coordinates>26.340057,46.290578,0</coordinates></Point></Placemark>
<Placemark><name>Coama Porcului</name><description>Nume: Coama Porcului, Tip: porc, Nivel: 2, Județ: Bacau, Formă: Înălțime, ID: 9955 <br /><b>Variante</b><br />Nume: Coama Porcului, Hartă: Moldova (1892-1898), Limbă: Limba română</description><Point><coordinates>26.401358,46.581848,0</coordinates></Point></Placemark>
<Placemark><name>Dealul Porcului</name><description>Nume: Dealul Porcului, Tip: porc, Nivel: 2, Județ: Bacau, Formă: Deal, ID: 4593 <br /><b>Variante</b><br />Nume: Dealul Porcului, Hartă: PDT, Limbă: Limba română</description><Point><coordinates>26.222800,46.490989,0</coordinates></Point></Placemark>
<Placemark><name>Dealul Porcului</name><description>Nume: Dealul Porcului, Tip: porc, Nivel: 2, Județ: Bacau, Formă: Deal, ID: 7858 <br /><b>Variante</b><br />Nume: Dealul Porcului, Hartă: Geomil 25000, Limbă: Limba română<br />Nume: Dealul Porcului, Hartă: PDT, Limbă: Limba română</description><Point><coordinates>27.216412,46.574297,0</coordinates></Point></Placemark>
<Placemark><name>Dealul Porcului</name><description>Nume: Dealul Porcului, Tip: porc, Nivel: 2, Județ: Bacau, Formă: Deal, ID: 7878 <br /><b>Variante</b><br />Nume: Dealul Porcului, Hartă: Geomil 25000, Limbă: Limba română</description><Point><coordinates>26.236879,46.504911,0</coordinates></Point></Placemark>
<Placemark><name>Lacul Porcului</name><description>Nume: Lacul Porcului, Tip: porc, Nivel: 2, Județ: Bacau, Formă: Lac, ID: 15338 <br /><b>Variante</b><br />Nume: Lacul Porcului, Hartă: Moldova (1892-1898), Limbă: Limba română</description><Point><coordinates>27.233343,46.453725,0</coordinates></Point></Placemark>
<Placemark><name>Pârâul Porcului</name><description>Nume: Pârâul Porcului, Tip: porc, Nivel: 2, Județ: Bacau, Formă: Vale, ID: 4591 <br /><b>Variante</b><br />Nume: Pârâul Porcului, Hartă: PDT, Limbă: Limba română</description><Point><coordinates>26.266641,46.399781,0</coordinates></Point></Placemark>
<Placemark><name>Pârâul Porcului</name><description>Nume: Pârâul Porcului, Tip: porc, Nivel: 2, Județ: Bacau, Formă: Vale, ID: 5302 <br /><b>Variante</b><br />Nume: Pârâul Porcului, Hartă: PDT, Limbă: Limba română</description><Point><coordinates>26.741918,46.119970,0</coordinates></Point></Placemark>
<Placemark><name>Pârâul Porcului</name><description>Nume: Pârâul Porcului, Tip: porc, Nivel: 2, Județ: Bacau, Formă: Vale, ID: 12394 <br /><b>Variante</b><br />Nume: Pârâul Porcului, Hartă: PDT, Limbă: Limba română</description><Point><coordinates>26.450229,46.192303,0</coordinates></Point></Placemark>
<Placemark><name>Pârâul Porcului</name><description>Nume: Pârâul Porcului, Tip: porc, Nivel: 2, Județ: Bacau, Formă: Vale, ID: 13596 <br /><b>Variante</b><br />Nume: Pârâul Porcului, Hartă: PDT, Limbă: Limba română</description><Point><coordinates>26.822922,46.146431,0</coordinates></Point></Placemark>
<Placemark><name>Piciorul Coama Porcului</name><description>Nume: Piciorul Coama Porcului, Tip: porc, Nivel: 2, Județ: Bacau, Formă: Înălțime, ID: 9158 <br /><b>Variante</b><br />Nume: Piciorul Coama Porcului, Hartă: PDT, Limbă: Limba română</description><Point><coordinates>26.352544,46.634921,0</coordinates></Point></Placemark>
<Placemark><name>Piciorul Porcului</name><description>Nume: Piciorul Porcului, Tip: porc, Nivel: 2, Județ: Bacau, Formă: Înălțime, ID: 687 <br /><b>Variante</b><br />Nume: Piciorul Porcului, Hartă: Geomil 25000, Limbă: Limba română</description><Point><coordinates>26.467623,46.257376,0</coordinates></Point></Placemark>
<Placemark><name>Piciorul Porcului</name><description>Nume: Piciorul Porcului, Tip: porc, Nivel: 2, Județ: Bacau, Formă: Înălțime, ID: 9162 <br /><b>Variante</b><br />Nume: Piciorul Porcului, Hartă: PDT, Limbă: Limba română</description><Point><coordinates>26.275939,46.567230,0</coordinates></Point></Placemark>
<Placemark><name>Piciorul Porcului</name><description>Nume: Piciorul Porcului, Tip: porc, Nivel: 2, Județ: Bacau, Formă: Înălțime, ID: 13602 <br /><b>Variante</b><br />Nume: Piciorul Porcului, Hartă: PDT, Limbă: Limba română</description><Point><coordinates>26.575650,46.245894,0</coordinates></Point></Placemark>
<Placemark><name>Poiana Porcului</name><description>Nume: Poiana Porcului, Tip: porc, Nivel: 2, Județ: Bacau, Formă: Poiană, ID: 10883 <br /><b>Variante</b><br />Nume: Poiana Porcului, Hartă: Moldova (1892-1898), Limbă: Limba română</description><Point><coordinates>26.770054,46.109093,0</coordinates></Point></Placemark>
<Placemark><name>Fântâna Porcilor</name><description>Nume: Fântâna Porcilor, Tip: porc, Nivel: 2, Județ: Bihor, Formă: Înălțime, ID: 6976 <br /><b>Variante</b><br />Nume: Fântâna Porcilor, Hartă: Geomil 25000, Limbă: Limba română</description><Point><coordinates>21.690447,46.975593,0</coordinates></Point></Placemark>
<Placemark><name>Fântâna Porcilor</name><description>Nume: Fântâna Porcilor, Tip: porc, Nivel: 2, Județ: Bihor, Formă: Altele, ID: 7674 <br /><b>Variante</b><br />Nume: Fântâna Porcilor, Hartă: PDT, Limbă: Limba română</description><Point><coordinates>21.982074,47.160097,0</coordinates></Point></Placemark>
<Placemark><name>Fântâna Porcilor</name><description>Nume: Fântâna Porcilor, Tip: porc, Nivel: 2, Județ: Bihor, Formă: Altele, ID: 11863 <br /><b>Variante</b><br />Nume: Fântâna Porcilor, Hartă: PDT, Limbă: Limba română</description><Point><coordinates>21.834068,47.173811,0</coordinates></Point></Placemark>
<Placemark><name>Gruiu Porcului</name><description>Nume: Gruiu Porcului, Tip: porc, Nivel: 2, Județ: Bihor, Formă: Înălțime, ID: 9937 <br /><b>Variante</b><br />Nume: Gruiu Porcului, Hartă: Geomil 25000, Limbă: Limba română</description><Point><coordinates>22.139863,46.977870,0</coordinates></Point></Placemark>
<Placemark><name>Gruiul Porcului</name><description>Nume: Gruiul Porcului, Tip: porc, Nivel: 2, Județ: Bihor, Formă: Altele, ID: 12358 <br /><b>Variante</b><br />Nume: Gruiul Porcului, Hartă: PDT, Limbă: Limba română</description><Point><coordinates>22.146632,46.964722,0</coordinates></Point></Placemark>
<Placemark><name>Heruga Porcilor</name><description>Nume: Heruga Porcilor, Tip: porc, Nivel: 2, Județ: Bihor, Formă: Altele, ID: 6977 <br /><b>Variante</b><br />Nume: Heruga Porcilor, Hartă: Geomil 25000, Limbă: Limba română</description><Point><coordinates>21.616302,46.932244,0</coordinates></Point></Placemark>
<Placemark><name>Pășunea Porcului</name><description>Nume: Pășunea Porcului, Tip: porc, Nivel: 2, Județ: Bihor, Formă: Altele, ID: 11873 <br /><b>Variante</b><br />Nume: Pășunea Porcului, Hartă: Geomil 25000, Limbă: Limba română</description><Point><coordinates>22.102638,47.535551,0</coordinates></Point></Placemark>
<Placemark><name>Picioru Porcului</name><description>Nume: Picioru Porcului, Tip: porc, Nivel: 2, Județ: Bihor, Formă: Înălțime, ID: 1121 <br /><b>Variante</b><br />Nume: Picioru Porcului, Hartă: Geomil 25000, Limbă: Limba română</description><Point><coordinates>22.532883,46.781268,0</coordinates></Point></Placemark>
<Placemark><name>Valea Porcului</name><description>Nume: Valea Porcului, Tip: porc, Nivel: 2, Județ: Bihor, Formă: Vale, ID: 7006 <br /><b>Variante</b><br />Nume: Valea Porcului, Hartă: Geomil 25000, Limbă: Limba română</description><Point><coordinates>22.763348,46.627275,0</coordinates></Point></Placemark>
<Placemark><name>Măgura Porcului</name><description>Nume: Măgura Porcului, Tip: porc, Nivel: 2, Județ: Bistrita Nasaud, Formă: Înălțime, ID: 4487 <br /><b>Variante</b><br />Nume: Măgura Porcului, Hartă: Geomil 25000, Limbă: Limba română</description><Point><coordinates>24.374840,47.559996,0</coordinates></Point></Placemark>
<Placemark><name>Măgura Porcului</name><description>Nume: Măgura Porcului, Tip: porc, Nivel: 2, Județ: Bistrita Nasaud, Formă: Înălțime, ID: 6360 <br /><b>Variante</b><br />Nume: Măgura Porcului, Hartă: Geomil 25000, Limbă: Limba română</description><Point><coordinates>24.714554,47.410316,0</coordinates></Point></Placemark>
<Placemark><name>Porcul</name><description>Nume: Porcul, Tip: porc, Nivel: 2, Județ: Bistrita Nasaud, Formă: Vale, ID: 9910 <br /><b>Variante</b><br />Nume: Porcul, Hartă: Geomil 25000, Limbă: Limba română</description><Point><coordinates>24.999793,47.270049,0</coordinates></Point></Placemark>
<Placemark><name>Valea Pășunea Porcilor</name><description>Nume: Valea Pășunea Porcilor, Tip: porc, Nivel: 2, Județ: Bistrita Nasaud, Formă: Vale, ID: 13738 <br /><b>Variante</b><br />Nume: Valea Pășunea Porcilor, Hartă: PDT, Limbă: Limba română</description><Point><coordinates>24.427235,46.862633,0</coordinates></Point></Placemark>
<Placemark><name>Valea Porcului</name><description>Nume: Valea Porcului, Tip: porc, Nivel: 2, Județ: Bistrita Nasaud, Formă: Vale, ID: 4494 <br /><b>Variante</b><br />Nume: Valea Porcului, Hartă: Geomil 25000, Limbă: Limba română</description><Point><coordinates>24.449375,47.369725,0</coordinates></Point></Placemark>
<Placemark><name>Valea Porcului</name><description>Nume: Valea Porcului, Tip: porc, Nivel: 2, Județ: Bistrita Nasaud, Formă: Vale, ID: 7092 <br /><b>Variante</b><br />Nume: Valea Porcului, Hartă: Geomil 25000, Limbă: Limba română</description><Point><coordinates>24.205667,47.474150,0</coordinates></Point></Placemark>
<Placemark><name>Dealul Coama Porcului</name><description>Nume: Dealul Coama Porcului, Tip: porc, Nivel: 2, Județ: Botosani, Formă: Deal, ID: 1755 <br /><b>Variante</b><br />Nume: Dealul Coama Porcului, Hartă: Geomil 25000, Limbă: Limba română</description><Point><coordinates>26.789897,47.568004,0</coordinates></Point></Placemark>
<Placemark><name>Movila Porcului</name><description>Nume: Movila Porcului, Tip: porc, Nivel: 2, Județ: Botosani, Formă: Înălțime, ID: 2329 <br /><b>Variante</b><br />Nume: Movila Porcului, Hartă: Geomil 25000, Limbă: Limba română</description><Point><coordinates>26.494142,48.173746,0</coordinates></Point></Placemark>
<Placemark><name>Odaia Porcilor</name><description>Nume: Odaia Porcilor, Tip: porc, Nivel: 2, Județ: Botosani, Formă: Altele, ID: 14604 <br /><b>Variante</b><br />Nume: Odaia Porcilor, Hartă: PDT, Limbă: Limba română</description><Point><coordinates>26.789280,47.978680,0</coordinates></Point></Placemark>
<Placemark><name>Odaia Porciloru</name><description>Nume: Odaia Porciloru, Tip: porc, Nivel: 2, Județ: Botosani, Formă: Altele, ID: 3577 <br /><b>Variante</b><br />Nume: Odaia Porciloru, Hartă: PDT, Limbă: Limba română</description><Point><coordinates>26.691341,48.021658,0</coordinates></Point></Placemark>
<Placemark><name>Valea Porcului</name><description>Nume: Valea Porcului, Tip: porc, Nivel: 2, Județ: Botosani, Formă: Vale, ID: 14070 <br /><b>Variante</b><br />Nume: Valea Porcului, Hartă: Geomil 25000, Limbă: Limba română</description><Point><coordinates>26.717711,47.677069,0</coordinates></Point></Placemark>
<Placemark><name>Grindul Porcului</name><description>Nume: Grindul Porcului, Tip: porc, Nivel: 2, Județ: Braila, Formă: Apă-deal-câmpie, ID: 7680 <br /><b>Variante</b><br />Nume: Grindul Porcului, Hartă: PDT, Limbă: Limba română</description><Point><coordinates>28.063246,45.192166,0</coordinates></Point></Placemark>
<Placemark><name>Japșa Porcului</name><description>Nume: Japșa Porcului, Tip: porc, Nivel: 2, Județ: Braila, Formă: Apă-deal-câmpie, ID: 3486 <br /><b>Variante</b><br />Nume: Japșa Porcului, Hartă: PDT, Limbă: Limba română</description><Point><coordinates>28.058795,44.857024,0</coordinates></Point></Placemark>
<Placemark><name>Scroafa</name><description>Nume: Scroafa, Tip: scroafă, Nivel: 3, Județ: Braila, Formă: Apă-deal-câmpie, ID: 6705 <br /><b>Variante</b><br />Nume: Scroafa, Hartă: PDT, Limbă: Limba română</description><Point><coordinates>28.088614,44.960636,0</coordinates></Point></Placemark>
<Placemark><name>Culmea Părul Porcului</name><description>Nume: Culmea Părul Porcului, Tip: porc, Nivel: 2, Județ: Brasov, Formă: Înălțime, ID: 4955 <br /><b>Variante</b><br />Nume: Culmea Părul Porcului, Hartă: Geomil 25000, Limbă: Limba română</description><Point><coordinates>24.696143,45.672689,0</coordinates></Point></Placemark>
<Placemark><name>Culmea Porcilor</name><description>Nume: Culmea Porcilor, Tip: porc, Nivel: 2, Județ: Brasov, Formă: Înălțime, ID: 611 <br /><b>Variante</b><br />Nume: Culmea Porcilor, Hartă: Geomil 25000, Limbă: Limba română</description><Point><coordinates>25.148252,45.591162,0</coordinates></Point></Placemark>
<Placemark><name>Dealul Porcilor</name><description>Nume: Dealul Porcilor, Tip: porc, Nivel: 2, Județ: Brasov, Formă: Deal, ID: 11247 <br /><b>Variante</b><br />Nume: Dealul Porcilor, Hartă: Geomil 25000, Limbă: Limba română</description><Point><coordinates>24.823175,45.928863,0</coordinates></Point></Placemark>
<Placemark><name>Dealul Porcilor</name><description>Nume: Dealul Porcilor, Tip: porc, Nivel: 2, Județ: Brasov, Formă: Deal, ID: 14733 <br /><b>Variante</b><br />Nume: Dealul Porcilor, Hartă: PDT, Limbă: Limba română</description><Point><coordinates>24.911195,45.932942,0</coordinates></Point></Placemark>
<Placemark><name>Groapa Porcilor</name><description>Nume: Groapa Porcilor, Tip: porc, Nivel: 2, Județ: Brasov, Formă: Altele, ID: 2484 <br /><b>Variante</b><br />Nume: Groapa Porcilor, Hartă: Geomil 25000, Limbă: Limba română</description><Point><coordinates>25.002801,46.072929,0</coordinates></Point></Placemark>
<Placemark><name>La Fântîna Porcului</name><description>Nume: La Fântîna Porcului, Tip: porc, Nivel: 2, Județ: Brasov, Formă: Altele, ID: 2686 <br /><b>Variante</b><br />Nume: La Fântîna Porcului, Hartă: Geomil 25000, Limbă: Limba română</description><Point><coordinates>25.109966,45.938352,0</coordinates></Point></Placemark>
<Placemark><name>La Păru Porcului</name><description>Nume: La Păru Porcului, Tip: porc, Nivel: 2, Județ: Brasov, Formă: Altele, ID: 15107 <br /><b>Variante</b><br />Nume: La Păru Porcului, Hartă: Munții noștri, Limbă: Limba română</description><Point><coordinates>24.730751,45.658778,0</coordinates></Point></Placemark>
<Placemark><name>Livada Porcilor</name><description>Nume: Livada Porcilor, Tip: porc, Nivel: 2, Județ: Brasov, Formă: Altele, ID: 6836 <br /><b>Variante</b><br />Nume: Livada Porcilor, Hartă: PDT, Limbă: Limba română</description><Point><coordinates>25.527379,45.669089,0</coordinates></Point></Placemark>
<Placemark><name>Păr. Porcului</name><description>Nume: Păr. Porcului, Tip: porc, Nivel: 2, Județ: Brasov, Formă: Vale, ID: 10528 <br /><b>Variante</b><br />Nume: Păr. Porcului, Hartă: Imperiul Habsburgic (1887), Limbă: Limba română</description><Point><coordinates>24.942807,45.647616,0</coordinates></Point></Placemark>
<Placemark><name>Pârâul Porcior</name><description>Nume: Pârâul Porcior, Tip: porc, Nivel: 2, Județ: Brasov, Formă: Vale, ID: 12886 <br /><b>Variante</b><br />Nume: Pârâul Porcior, Hartă: Imperiul Habsburgic (1887), Limbă: Limba română</description><Point><coordinates>25.191674,45.724943,0</coordinates></Point></Placemark>
<Placemark><name>Porcul</name><description>Nume: Porcul, Tip: porc, Nivel: 2, Județ: Brasov, Formă: Vale, ID: 12671 <br /><b>Variante</b><br />Nume: Porcul, Hartă: Geomil 25000, Limbă: Limba română</description><Point><coordinates>25.342540,45.810923,0</coordinates></Point></Placemark>
<Placemark><name>Porcul</name><description>Nume: Porcul, Tip: porc, Nivel: 2, Județ: Brasov, Formă: Vale, ID: 13342 <br /><b>Variante</b><br />Nume: Porcul, Hartă: Geomil 25000, Limbă: Limba română</description><Point><coordinates>25.948962,45.571405,0</coordinates></Point></Placemark>
<Placemark><name>Valea Scroafei</name><description>Nume: Valea Scroafei, Tip: scroafă, Nivel: 3, Județ: Brasov, Formă: Vale, ID: 7947 <br /><b>Variante</b><br />Nume: Valea Scroafei, Hartă: PDT, Limbă: Limba română</description><Point><coordinates>25.139665,46.121162,0</coordinates></Point></Placemark>
<Placemark><name>Pârâul Porcului</name><description>Nume: Pârâul Porcului, Tip: porc, Nivel: 2, Județ: Buzau, Formă: Vale, ID: 7918 <br /><b>Variante</b><br />Nume: Pârâul Porcului, Hartă: Geomil 25000, Limbă: Limba română</description><Point><coordinates>26.378931,45.618442,0</coordinates></Point></Placemark>
<Placemark><name>Podul Porcului</name><description>Nume: Podul Porcului, Tip: porc, Nivel: 2, Județ: Buzau, Formă: Altele, ID: 2813 <br /><b>Variante</b><br />Nume: Podul Porcului, Hartă: Geomil 25000, Limbă: Limba română</description><Point><coordinates>26.381181,45.461941,0</coordinates></Point></Placemark>
<Placemark><name>Valea Porcului</name><description>Nume: Valea Porcului, Tip: porc, Nivel: 2, Județ: Buzau, Formă: Vale, ID: 11199 <br /><b>Variante</b><br />Nume: Valea Porcului, Hartă: ANCPI, Limbă: Limba română</description><Point><coordinates>26.653696,45.479491,0</coordinates></Point></Placemark>
<Placemark><name>Grindu Porcului</name><description>Nume: Grindu Porcului, Tip: porc, Nivel: 2, Județ: Calarasi, Formă: Apă-deal-câmpie, ID: 3290 <br /><b>Variante</b><br />Nume: Grindu Porcului, Hartă: PDT, Limbă: Limba română</description><Point><coordinates>27.175169,44.135287,0</coordinates></Point></Placemark>
<Placemark><name>Groapa Porcului</name><description>Nume: Groapa Porcului, Tip: porc, Nivel: 2, Județ: Calarasi, Formă: Altele, ID: 3043 <br /><b>Variante</b><br />Nume: Groapa Porcului, Hartă: Geomil 25000, Limbă: Limba română<br />Nume: Groapa Porcului, Hartă: PDT, Limbă: Limba română</description><Point><coordinates>26.437842,44.196077,0</coordinates></Point></Placemark>
<Placemark><name>Groapa Porcului</name><description>Nume: Groapa Porcului, Tip: porc, Nivel: 2, Județ: Calarasi, Formă: Altele, ID: 3232 <br /><b>Variante</b><br />Nume: Groapa Porcului, Hartă: PDT, Limbă: Limba română</description><Point><coordinates>27.116739,44.158697,0</coordinates></Point></Placemark>
<Placemark><name>Grindul Purcelului</name><description>Nume: Grindul Purcelului, Tip: purcel, Nivel: 3, Județ: Calarasi, Formă: Apă-deal-câmpie, ID: 3297 <br /><b>Variante</b><br />Nume: Grindul Purcelului, Hartă: PDT, Limbă: Limba română</description><Point><coordinates>27.474936,44.186506,0</coordinates></Point></Placemark>
<Placemark><name>Grindul Purcelului</name><description>Nume: Grindul Purcelului, Tip: purcel, Nivel: 3, Județ: Calarasi, Formă: Apă-deal-câmpie, ID: 9983 <br /><b>Variante</b><br />Nume: Grindul Purcelului, Hartă: PDT, Limbă: Limba română</description><Point><coordinates>27.239135,44.233879,0</coordinates></Point></Placemark>
<Placemark><name>Cracu Porcului</name><description>Nume: Cracu Porcului, Tip: porc, Nivel: 2, Județ: Caras Severin, Formă: Altele, ID: 3317 <br /><b>Variante</b><br />Nume: Cracu Porcului, Hartă: Geomil 25000, Limbă: Limba română</description><Point><coordinates>21.807528,44.858393,0</coordinates></Point></Placemark>
<Placemark><name>Cracu Porcului</name><description>Nume: Cracu Porcului, Tip: porc, Nivel: 2, Județ: Caras Severin, Formă: Vale, ID: 6123 <br /><b>Variante</b><br />Nume: Cracu Porcului, Hartă: Geomil 25000, Limbă: Limba română</description><Point><coordinates>22.258406,45.260636,0</coordinates></Point></Placemark>
<Placemark><name>Cracu Porcului</name><description>Nume: Cracu Porcului, Tip: porc, Nivel: 2, Județ: Caras Severin, Formă: Înălțime, ID: 6135 <br /><b>Variante</b><br />Nume: Cracu Porcului, Hartă: Geomil 25000, Limbă: Limba română</description><Point><coordinates>22.357716,45.172932,0</coordinates></Point></Placemark>
<Placemark><name>Cracu Porcului</name><description>Nume: Cracu Porcului, Tip: porc, Nivel: 2, Județ: Caras Severin, Formă: Înălțime, ID: 11496 <br /><b>Variante</b><br />Nume: Cracu Porcului, Hartă: Geomil 25000, Limbă: Limba română</description><Point><coordinates>22.146728,45.062583,0</coordinates></Point></Placemark>
<Placemark><name>Dealul Hunca Porcului</name><description>Nume: Dealul Hunca Porcului, Tip: porc, Nivel: 2, Județ: Caras Severin, Formă: Deal, ID: 10252 <br /><b>Variante</b><br />Nume: Dealul Hunca Porcului, Hartă: Geomil 25000, Limbă: Limba română</description><Point><coordinates>21.942699,45.092175,0</coordinates></Point></Placemark>
<Placemark><name>Dealul Porcului</name><description>Nume: Dealul Porcului, Tip: porc, Nivel: 2, Județ: Caras Severin, Formă: Deal, ID: 14353 <br /><b>Variante</b><br />Nume: Dealul Porcului, Hartă: PDT, Limbă: Limba română</description><Point><coordinates>21.822459,45.076962,0</coordinates></Point></Placemark>
<Placemark><name>Gruiu Porcilor</name><description>Nume: Gruiu Porcilor, Tip: porc, Nivel: 2, Județ: Caras Severin, Formă: Înălțime, ID: 1243 <br /><b>Variante</b><br />Nume: Gruiu Porcilor, Hartă: Geomil 25000, Limbă: Limba română</description><Point><coordinates>21.770047,45.538128,0</coordinates></Point></Placemark>
<Placemark><name>La Porcu</name><description>Nume: La Porcu, Tip: porc, Nivel: 2, Județ: Caras Severin, Formă: Altele, ID: 4311 <br /><b>Variante</b><br />Nume: La Porcu, Hartă: Geomil 25000, Limbă: Limba română</description><Point><coordinates>21.926258,45.369202,0</coordinates></Point></Placemark>
<Placemark><name>Ogașul Porcului</name><description>Nume: Ogașul Porcului, Tip: porc, Nivel: 2, Județ: Caras Severin, Formă: Vale, ID: 8512 <br /><b>Variante</b><br />Nume: Ogașul Porcului, Hartă: PDT, Limbă: Limba română</description><Point><coordinates>21.790690,44.856765,0</coordinates></Point></Placemark>
<Placemark><name>Pârâu Porcului</name><description>Nume: Pârâu Porcului, Tip: porc, Nivel: 2, Județ: Caras Severin, Formă: Vale, ID: 863 <br /><b>Variante</b><br />Nume: Pârâu Porcului, Hartă: Geomil 25000, Limbă: Limba română</description><Point><coordinates>22.416045,45.603628,0</coordinates></Point></Placemark>
<Placemark><name>Poiana Colul Porcului</name><description>Nume: Poiana Colul Porcului, Tip: porc, Nivel: 2, Județ: Caras Severin, Formă: Poiană, ID: 12162 <br /><b>Variante</b><br />Nume: Poiana Colul Porcului, Hartă: PDT, Limbă: Limba română</description><Point><coordinates>21.826023,45.011613,0</coordinates></Point></Placemark>
<Placemark><name>Porcul</name><description>Nume: Porcul, Tip: porc, Nivel: 2, Județ: Caras Severin, Formă: Vale, ID: 15166 <br /><b>Variante</b><br />Nume: Porcul, Hartă: Munții noștri, Limbă: Limba română</description><Point><coordinates>22.388893,45.283853,0</coordinates></Point></Placemark>
<Placemark><name>Pusta Porcului</name><description>Nume: Pusta Porcului, Tip: porc, Nivel: 2, Județ: Caras Severin, Formă: Câmp, ID: 15035 <br /><b>Variante</b><br />Nume: Pusta Porcului, Hartă: PDT, Limbă: Limba română</description><Point><coordinates>21.412044,44.992146,0</coordinates></Point></Placemark>
<Placemark><name>Ogașul Scroafa</name><description>Nume: Ogașul Scroafa, Tip: scroafă, Nivel: 3, Județ: Caras Severin, Formă: Vale, ID: 14614 <br /><b>Variante</b><br />Nume: Ogașul Scroafa, Hartă: PDT, Limbă: Limba română</description><Point><coordinates>22.368563,45.181198,0</coordinates></Point></Placemark>
<Placemark><name>Dealu Porcului</name><description>Nume: Dealu Porcului, Tip: porc, Nivel: 2, Județ: Cluj, Formă: Deal, ID: 5896 <br /><b>Variante</b><br />Nume: Dealu Porcului, Hartă: Geomil 25000, Limbă: Limba română</description><Point><coordinates>23.188572,46.682281,0</coordinates></Point></Placemark>
<Placemark><name>Dealu Porcului</name><description>Nume: Dealu Porcului, Tip: porc, Nivel: 2, Județ: Cluj, Formă: Deal, ID: 7036 <br /><b>Variante</b><br />Nume: Dealu Porcului, Hartă: Geomil 25000, Limbă: Limba română</description><Point><coordinates>23.336228,46.783353,0</coordinates></Point></Placemark>
<Placemark><name>Dealul Porcului</name><description>Nume: Dealul Porcului, Tip: porc, Nivel: 2, Județ: Cluj, Formă: Deal, ID: 10665 <br /><b>Variante</b><br />Nume: Dealul Porcului, Hartă: Imperiul Habsburgic (1887), Limbă: Limba română</description><Point><coordinates>23.549703,46.901583,0</coordinates></Point></Placemark>
<Placemark><name>Picioru Porcului</name><description>Nume: Picioru Porcului, Tip: porc, Nivel: 2, Județ: Cluj, Formă: Înălțime, ID: 11537 <br /><b>Variante</b><br />Nume: Picioru Porcului, Hartă: Geomil 25000, Limbă: Limba română</description><Point><coordinates>22.764384,46.817753,0</coordinates></Point></Placemark>
<Placemark><name>Șesu Porcului</name><description>Nume: Șesu Porcului, Tip: porc, Nivel: 2, Județ: Cluj, Formă: Altele, ID: 12729 <br /><b>Variante</b><br />Nume: Șesu Porcului, Hartă: Geomil 25000, Limbă: Limba română</description><Point><coordinates>23.184066,46.522608,0</coordinates></Point></Placemark>
<Placemark><name>Valea Porcilor</name><description>Nume: Valea Porcilor, Tip: porc, Nivel: 2, Județ: Cluj, Formă: Vale, ID: 5879 <br /><b>Variante</b><br />Nume: Valea Porcilor, Hartă: Geomil 25000, Limbă: Limba română</description><Point><coordinates>23.820631,46.577189,0</coordinates></Point></Placemark>
<Placemark><name>Valea Porcului</name><description>Nume: Valea Porcului, Tip: porc, Nivel: 2, Județ: Cluj, Formă: Vale, ID: 4208 <br /><b>Variante</b><br />Nume: Valea Porcului, Hartă: PDT, Limbă: Limba română<br />Nume: Pârâu Porcului, Hartă: Geomil 25000, Limbă: Limba română<br />Nume: Vale Porcului, Hartă: Ungară 1869, Limbă: Limba română</description><Point><coordinates>22.175393,46.364649,0</coordinates></Point></Placemark>
<Placemark><name>Valea Porcului</name><description>Nume: Valea Porcului, Tip: porc, Nivel: 2, Județ: Cluj, Formă: Vale, ID: 7047 <br /><b>Variante</b><br />Nume: Valea Porcului, Hartă: Geomil 25000, Limbă: Limba română<br />Nume: Valea Porcului, Hartă: PDT, Limbă: Limba română</description><Point><coordinates>23.681869,47.229759,0</coordinates></Point></Placemark>
<Placemark><name>Valea Porcului</name><description>Nume: Valea Porcului, Tip: porc, Nivel: 2, Județ: Cluj, Formă: Vale, ID: 14276 <br /><b>Variante</b><br />Nume: Valea Porcului, Hartă: ANCPI, Limbă: Limba română</description><Point><coordinates>23.642284,46.453491,0</coordinates></Point></Placemark>
<Placemark><name>Dealu Scroafelor</name><description>Nume: Dealu Scroafelor, Tip: scroafă, Nivel: 3, Județ: Cluj, Formă: Deal, ID: 14027 <br /><b>Variante</b><br />Nume: Dealu Scroafelor, Hartă: Geomil 25000, Limbă: Limba română</description><Point><coordinates>23.502714,47.061250,0</coordinates></Point></Placemark>
<Placemark><name>Valea Scroafei</name><description>Nume: Valea Scroafei, Tip: scroafă, Nivel: 3, Județ: Cluj, Formă: Vale, ID: 10289 <br /><b>Variante</b><br />Nume: Valea Scroafei, Hartă: PDT, Limbă: Limba română</description><Point><coordinates>22.711249,46.508048,0</coordinates></Point></Placemark>
<Placemark><name>Valea Scrofii</name><description>Nume: Valea Scrofii, Tip: scroafă, Nivel: 3, Județ: Cluj, Formă: Vale, ID: 10661 <br /><b>Variante</b><br />Nume: Valea Scrofii, Hartă: Imperiul Habsburgic (1887), Limbă: Limba română</description><Point><coordinates>23.959457,46.592076,0</coordinates></Point></Placemark>
<Placemark><name>Valea Porcilor</name><description>Nume: Valea Porcilor, Tip: porc, Nivel: 2, Județ: Constanta, Formă: Vale, ID: 2848 <br /><b>Variante</b><br />Nume: Valea Porcilor, Hartă: Geomil 25000, Limbă: Limba română</description><Point><coordinates>27.778355,44.073814,0</coordinates></Point></Placemark>
<Placemark><name>Valea Porcilor</name><description>Nume: Valea Porcilor, Tip: porc, Nivel: 2, Județ: Constanta, Formă: Vale, ID: 13640 <br /><b>Variante</b><br />Nume: Valea Porcilor, Hartă: Geomil 25000, Limbă: Limba română</description><Point><coordinates>28.138901,43.983949,0</coordinates></Point></Placemark>
<Placemark><name>Culmea Porcilor</name><description>Nume: Culmea Porcilor, Tip: porc, Nivel: 2, Județ: Covasna, Formă: Înălțime, ID: 5318 <br /><b>Variante</b><br />Nume: Culmea Porcilor, Hartă: Geomil 25000, Limbă: Limba română</description><Point><coordinates>26.274464,46.174644,0</coordinates></Point></Placemark>
<Placemark><name>Dealul Porcului</name><description>Nume: Dealul Porcului, Tip: porc, Nivel: 2, Județ: Covasna, Formă: Deal, ID: 11315 <br /><b>Variante</b><br />Nume: Dealul Porcului, Hartă: Geomil 25000, Limbă: Limba română</description><Point><coordinates>26.066574,45.547479,0</coordinates></Point></Placemark>
<Placemark><name>Pădurea Baia Porcului</name><description>Nume: Pădurea Baia Porcului, Tip: porc, Nivel: 2, Județ: Covasna, Formă: Pădure, ID: 4373 <br /><b>Variante</b><br />Nume: Pădurea Baia Porcului, Hartă: PDT, Limbă: Limba română</description><Point><coordinates>25.868129,46.117474,0</coordinates></Point></Placemark>
<Placemark><name>Piscul Porcilor</name><description>Nume: Piscul Porcilor, Tip: porc, Nivel: 2, Județ: Covasna, Formă: Înălțime, ID: 5316 <br /><b>Variante</b><br />Nume: Piscul Porcilor, Hartă: Geomil 25000, Limbă: Limba română</description><Point><coordinates>26.352685,46.104087,0</coordinates></Point></Placemark>
<Placemark><name>Valea Porcilor</name><description>Nume: Valea Porcilor, Tip: porc, Nivel: 2, Județ: Covasna, Formă: Vale, ID: 4376 <br /><b>Variante</b><br />Nume: Valea Porcilor, Hartă: PDT, Limbă: Limba română</description><Point><coordinates>25.908328,46.090245,0</coordinates></Point></Placemark>
<Placemark><name>Dealul Porcului</name><description>Nume: Dealul Porcului, Tip: porc, Nivel: 2, Județ: Dambovita, Formă: Deal, ID: 10122 <br /><b>Variante</b><br />Nume: Dealul Porcului, Hartă: PDT, Limbă: Limba română</description><Point><coordinates>25.266820,44.813803,0</coordinates></Point></Placemark>
<Placemark><name>La Lacul Porcului</name><description>Nume: La Lacul Porcului, Tip: porc, Nivel: 2, Județ: Dambovita, Formă: Lac, ID: 3704 <br /><b>Variante</b><br />Nume: La Lacul Porcului, Hartă: PDT, Limbă: Limba română</description><Point><coordinates>25.628432,44.775276,0</coordinates></Point></Placemark>
<Placemark><name>La Lacul Porcului</name><description>Nume: La Lacul Porcului, Tip: porc, Nivel: 2, Județ: Dambovita, Formă: Lac, ID: 11145 <br /><b>Variante</b><br />Nume: La Lacul Porcului, Hartă: PDT, Limbă: Limba română</description><Point><coordinates>25.617825,44.855279,0</coordinates></Point></Placemark>
<Placemark><name>Lacul Porcului</name><description>Nume: Lacul Porcului, Tip: porc, Nivel: 2, Județ: Dambovita, Formă: Lac, ID: 10151 <br /><b>Variante</b><br />Nume: Lacul Porcului, Hartă: PDT, Limbă: Limba română</description><Point><coordinates>25.311630,44.764606,0</coordinates></Point></Placemark>
<Placemark><name>Pârâul Porcului</name><description>Nume: Pârâul Porcului, Tip: porc, Nivel: 2, Județ: Dambovita, Formă: Vale, ID: 15458 <br /><b>Variante</b><br />Nume: Pârâul Porcului, Hartă: Munții noștri, Limbă: Limba română</description><Point><coordinates>25.423907,45.281626,0</coordinates></Point></Placemark>
<Placemark><name>Wale Porkului</name><description>Nume: Wale Porkului, Tip: porc, Nivel: 2, Județ: Dambovita, Formă: Vale, ID: 12227 <br /><b>Variante</b><br />Nume: Wale Porkului, Hartă: Oltenia-Muntenia (1790), Limbă: Limba română</description><Point><coordinates>25.779707,44.546435,0</coordinates></Point></Placemark>
<Placemark><name>Dealul Porcului</name><description>Nume: Dealul Porcului, Tip: porc, Nivel: 2, Județ: Dolj, Formă: Deal, ID: 139 <br /><b>Variante</b><br />Nume: Dealul Porcului, Hartă: Geomil 25000, Limbă: Limba română</description><Point><coordinates>23.191165,44.331571,0</coordinates></Point></Placemark>
<Placemark><name>Grindul Porcului</name><description>Nume: Grindul Porcului, Tip: porc, Nivel: 2, Județ: Dolj, Formă: Apă-deal-câmpie, ID: 4681 <br /><b>Variante</b><br />Nume: Grindul Porcului, Hartă: PDT, Limbă: Limba română</description><Point><coordinates>23.634261,43.824934,0</coordinates></Point></Placemark>
<Placemark><name>Lacul Porcului</name><description>Nume: Lacul Porcului, Tip: porc, Nivel: 2, Județ: Dolj, Formă: Lac, ID: 7699 <br /><b>Variante</b><br />Nume: Lacul Porcului, Hartă: PDT, Limbă: Limba română</description><Point><coordinates>23.831162,44.129221,0</coordinates></Point></Placemark>
<Placemark><name>Lacul Porcului</name><description>Nume: Lacul Porcului, Tip: porc, Nivel: 2, Județ: Dolj, Formă: Lac, ID: 7726 <br /><b>Variante</b><br />Nume: Lacul Porcului, Hartă: PDT, Limbă: Limba română</description><Point><coordinates>23.705775,44.209246,0</coordinates></Point></Placemark>
<Placemark><name>Lacul Porcului</name><description>Nume: Lacul Porcului, Tip: porc, Nivel: 2, Județ: Dolj, Formă: Lac, ID: 14373 <br /><b>Variante</b><br />Nume: Lacul Porcului, Hartă: PDT, Limbă: Limba română</description><Point><coordinates>23.790174,44.118825,0</coordinates></Point></Placemark>
<Placemark><name>Măgura Porcilor</name><description>Nume: Măgura Porcilor, Tip: porc, Nivel: 2, Județ: Dolj, Formă: Înălțime, ID: 8104 <br /><b>Variante</b><br />Nume: Măgura Porcilor, Hartă: PDT, Limbă: Limba română</description><Point><coordinates>23.584198,43.964988,0</coordinates></Point></Placemark>
<Placemark><name>Piscul Porcului</name><description>Nume: Piscul Porcului, Tip: porc, Nivel: 2, Județ: Dolj, Formă: Deal, ID: 121 <br /><b>Variante</b><br />Nume: Piscul Porcului, Hartă: Geomil 25000, Limbă: Limba română</description><Point><coordinates>23.236154,44.477462,0</coordinates></Point></Placemark>
<Placemark><name>Valea Lacul Porcilor</name><description>Nume: Valea Lacul Porcilor, Tip: porc, Nivel: 2, Județ: Dolj, Formă: Vale, ID: 12169 <br /><b>Variante</b><br />Nume: Valea Lacul Porcilor, Hartă: PDT, Limbă: Limba română</description><Point><coordinates>23.912798,44.200207,0</coordinates></Point></Placemark>
<Placemark><name>Valea cu Scroafa</name><description>Nume: Valea cu Scroafa, Tip: scroafă, Nivel: 3, Județ: Dolj, Formă: Vale, ID: 8281 <br /><b>Variante</b><br />Nume: Valea cu Scroafa, Hartă: PDT, Limbă: Limba română</description><Point><coordinates>23.676082,44.579099,0</coordinates></Point></Placemark>
<Placemark><name>Dealul Movila Porcului</name><description>Nume: Dealul Movila Porcului, Tip: porc, Nivel: 2, Județ: Galati, Formă: Deal, ID: 9495 <br /><b>Variante</b><br />Nume: Dealul Movila Porcului, Hartă: PDT, Limbă: Limba română</description><Point><coordinates>27.629051,46.060913,0</coordinates></Point></Placemark>
<Placemark><name>Dealul Piciorul Porcului</name><description>Nume: Dealul Piciorul Porcului, Tip: porc, Nivel: 2, Județ: Galati, Formă: Deal, ID: 2165 <br /><b>Variante</b><br />Nume: Dealul Piciorul Porcului, Hartă: Geomil 25000, Limbă: Limba română</description><Point><coordinates>27.259253,46.029296,0</coordinates></Point></Placemark>
<Placemark><name>Dealul Porcului</name><description>Nume: Dealul Porcului, Tip: porc, Nivel: 2, Județ: Galati, Formă: Deal, ID: 11290 <br /><b>Variante</b><br />Nume: Dealul Porcului, Hartă: Geomil 25000, Limbă: Limba română</description><Point><coordinates>27.892845,46.066116,0</coordinates></Point></Placemark>
<Placemark><name>Lacul Porcului</name><description>Nume: Lacul Porcului, Tip: porc, Nivel: 2, Județ: Galati, Formă: Lac, ID: 741 <br /><b>Variante</b><br />Nume: Lacul Porcului, Hartă: Geomil 25000, Limbă: Limba română</description><Point><coordinates>27.411786,45.867788,0</coordinates></Point></Placemark>
<Placemark><name>Piscul Porcului</name><description>Nume: Piscul Porcului, Tip: porc, Nivel: 2, Județ: Galati, Formă: Înălțime, ID: 11437 <br /><b>Variante</b><br />Nume: Piscul Porcului, Hartă: Geomil 25000, Limbă: Limba română</description><Point><coordinates>27.954690,45.952550,0</coordinates></Point></Placemark>
<Placemark><name>Dealul Piscu Scroafi</name><description>Nume: Dealul Piscu Scroafi, Tip: scroafă, Nivel: 3, Județ: Galati, Formă: Deal, ID: 9753 <br /><b>Variante</b><br />Nume: Dealul Piscu Scroafi, Hartă: Moldova (1892-1898), Limbă: Limba română</description><Point><coordinates>27.716665,46.041207,0</coordinates></Point></Placemark>
<Placemark><name>Dealul Scroafei</name><description>Nume: Dealul Scroafei, Tip: scroafă, Nivel: 3, Județ: Galati, Formă: Deal, ID: 9746 <br /><b>Variante</b><br />Nume: Dealul Scroafei, Hartă: Geomil 25000, Limbă: Limba română</description><Point><coordinates>27.909390,45.985464,0</coordinates></Point></Placemark>
<Placemark><name>Valea Scroafei</name><description>Nume: Valea Scroafei, Tip: scroafă, Nivel: 3, Județ: Galati, Formă: Vale, ID: 14987 <br /><b>Variante</b><br />Nume: Valea Scroafei, Hartă: PDT, Limbă: Limba română</description><Point><coordinates>27.710041,46.085291,0</coordinates></Point></Placemark>
<Placemark><name>Dealul Crângul Porcului</name><description>Nume: Dealul Crângul Porcului, Tip: porc, Nivel: 2, Județ: Giurgiu, Formă: Deal, ID: 3776 <br /><b>Variante</b><br />Nume: Dealul Crângul Porcului, Hartă: PDT, Limbă: Limba română</description><Point><coordinates>25.967417,43.982618,0</coordinates></Point></Placemark>
<Placemark><name>Grindu Porcului</name><description>Nume: Grindu Porcului, Tip: porc, Nivel: 2, Județ: Giurgiu, Formă: Apă-deal-câmpie, ID: 462 <br /><b>Variante</b><br />Nume: Grindu Porcului, Hartă: Geomil 25000, Limbă: Limba română</description><Point><coordinates>26.066331,44.164884,0</coordinates></Point></Placemark>
<Placemark><name>Valea Porcilor</name><description>Nume: Valea Porcilor, Tip: porc, Nivel: 2, Județ: Giurgiu, Formă: Vale, ID: 14229 <br /><b>Variante</b><br />Nume: Valea Porcilor, Hartă: PDT, Limbă: Limba română</description><Point><coordinates>25.745689,44.235906,0</coordinates></Point></Placemark>
<Placemark><name>Valea Porcului</name><description>Nume: Valea Porcului, Tip: porc, Nivel: 2, Județ: Giurgiu, Formă: Vale, ID: 3778 <br /><b>Variante</b><br />Nume: Valea Porcului, Hartă: PDT, Limbă: Limba română</description><Point><coordinates>25.817743,43.985339,0</coordinates></Point></Placemark>
<Placemark><name>Dealu Porcului</name><description>Nume: Dealu Porcului, Tip: porc, Nivel: 2, Județ: Gorj, Formă: Deal, ID: 5126 <br /><b>Variante</b><br />Nume: Dealu Porcului, Hartă: Geomil 25000, Limbă: Limba română</description><Point><coordinates>22.811972,45.146481,0</coordinates></Point></Placemark>
<Placemark><name>Dealul Porcului</name><description>Nume: Dealul Porcului, Tip: porc, Nivel: 2, Județ: Gorj, Formă: Deal, ID: 5096 <br /><b>Variante</b><br />Nume: Dealul Porcului, Hartă: Austriacă, Limbă: Limba română</description><Point><coordinates>23.734781,44.963319,0</coordinates></Point></Placemark>
<Placemark><name>Dealul Porcului</name><description>Nume: Dealul Porcului, Tip: porc, Nivel: 2, Județ: Gorj, Formă: Deal, ID: 5148 <br /><b>Variante</b><br />Nume: Dealul Porcului, Hartă: Geomil 25000, Limbă: Limba română</description><Point><coordinates>23.660801,44.721490,0</coordinates></Point></Placemark>
<Placemark><name>Dealul Porcului</name><description>Nume: Dealul Porcului, Tip: porc, Nivel: 2, Județ: Gorj, Formă: Deal, ID: 15446 <br /><b>Variante</b><br />Nume: Dealul Porcului, Hartă: PDT, Limbă: Limba română</description><Point><coordinates>23.673220,44.700674,0</coordinates></Point></Placemark>
<Placemark><name>Pârâul Porcului</name><description>Nume: Pârâul Porcului, Tip: porc, Nivel: 2, Județ: Gorj, Formă: Vale, ID: 235 <br /><b>Variante</b><br />Nume: Pârâul Porcului, Hartă: Geomil 25000, Limbă: Limba română</description><Point><coordinates>23.350690,45.192764,0</coordinates></Point></Placemark>
<Placemark><name>Valea Porcului</name><description>Nume: Valea Porcului, Tip: porc, Nivel: 2, Județ: Gorj, Formă: Vale, ID: 3676 <br /><b>Variante</b><br />Nume: Valea Porcului, Hartă: PDT, Limbă: Limba română</description><Point><coordinates>22.953333,44.832168,0</coordinates></Point></Placemark>
<Placemark><name>Valea Scroafa</name><description>Nume: Valea Scroafa, Tip: scroafă, Nivel: 3, Județ: Gorj, Formă: Vale, ID: 12684 <br /><b>Variante</b><br />Nume: Valea Scroafa, Hartă: PDT, Limbă: Limba română</description><Point><coordinates>23.718404,44.849886,0</coordinates></Point></Placemark>
<Placemark><name>Valea Scroafei</name><description>Nume: Valea Scroafei, Tip: scroafă, Nivel: 3, Județ: Gorj, Formă: Vale, ID: 3132 <br /><b>Variante</b><br />Nume: Valea Scroafei, Hartă: Geomil 25000, Limbă: Limba română</description><Point><coordinates>23.465821,44.913252,0</coordinates></Point></Placemark>
<Placemark><name>Purcelul</name><description>Nume: Purcelul, Tip: purcel, Nivel: 3, Județ: Harghita, Formă: Vale, ID: 13142 <br /><b>Variante</b><br />Nume: Purcelul, Hartă: Geomil 25000, Limbă: Limba română</description><Point><coordinates>25.333133,47.067951,0</coordinates></Point></Placemark>
<Placemark><name>Dealu Porcului</name><description>Nume: Dealu Porcului, Tip: porc, Nivel: 2, Județ: Hunedoara, Formă: Deal, ID: 6250 <br /><b>Variante</b><br />Nume: Dealu Porcului, Hartă: Geomil 25000, Limbă: Limba română</description><Point><coordinates>23.056677,46.192130,0</coordinates></Point></Placemark>
<Placemark><name>Dealu Porcului</name><description>Nume: Dealu Porcului, Tip: porc, Nivel: 2, Județ: Hunedoara, Formă: Deal, ID: 6265 <br /><b>Variante</b><br />Nume: Dealu Porcului, Hartă: Geomil 25000, Limbă: Limba română</description><Point><coordinates>22.597764,46.163171,0</coordinates></Point></Placemark>
<Placemark><name>Pârâu Porcu</name><description>Nume: Pârâu Porcu, Tip: porc, Nivel: 2, Județ: Hunedoara, Formă: Vale, ID: 5587 <br /><b>Variante</b><br />Nume: Pârâu Porcu, Hartă: Geomil 25000, Limbă: Limba română</description><Point><coordinates>22.875132,46.299651,0</coordinates></Point></Placemark>
<Placemark><name>Pârâu Porcului</name><description>Nume: Pârâu Porcului, Tip: porc, Nivel: 2, Județ: Hunedoara, Formă: Vale, ID: 6102 <br /><b>Variante</b><br />Nume: Pârâu Porcului, Hartă: Geomil 25000, Limbă: Limba română</description><Point><coordinates>22.640512,45.668836,0</coordinates></Point></Placemark>
<Placemark><name>Valea Porcului</name><description>Nume: Valea Porcului, Tip: porc, Nivel: 2, Județ: Hunedoara, Formă: Vale, ID: 6242 <br /><b>Variante</b><br />Nume: Valea Porcului, Hartă: Geomil 25000, Limbă: Limba română</description><Point><coordinates>23.021547,46.056747,0</coordinates></Point></Placemark>
<Placemark><name>Valea Porcului</name><description>Nume: Valea Porcului, Tip: porc, Nivel: 2, Județ: Hunedoara, Formă: Vale, ID: 9397 <br /><b>Variante</b><br />Nume: Valea Porcului, Hartă: PDT, Limbă: Limba română</description><Point><coordinates>22.981097,46.093075,0</coordinates></Point></Placemark>
<Placemark><name>Poiana Purcelului</name><description>Nume: Poiana Purcelului, Tip: purcel, Nivel: 3, Județ: Hunedoara, Formă: Poiană, ID: 6113 <br /><b>Variante</b><br />Nume: Poiana Purcelului, Hartă: Geomil 25000, Limbă: Limba română</description><Point><coordinates>22.911684,45.702625,0</coordinates></Point></Placemark>
<Placemark><name>Japșa Mistreața</name><description>Nume: Japșa Mistreața, Tip: mistreț, Nivel: 3, Județ: Ialomita, Formă: Apă-deal-câmpie, ID: 9976 <br /><b>Variante</b><br />Nume: Japșa Mistreața, Hartă: PDT, Limbă: Limba română</description><Point><coordinates>27.977229,44.403707,0</coordinates></Point></Placemark>
<Placemark><name>Lacul Porcului</name><description>Nume: Lacul Porcului, Tip: porc, Nivel: 2, Județ: Ialomita, Formă: Lac, ID: 12493 <br /><b>Variante</b><br />Nume: Lacul Porcului, Hartă: PDT, Limbă: Limba română</description><Point><coordinates>27.846207,44.703309,0</coordinates></Point></Placemark>
<Placemark><name>Lacul Porcului</name><description>Nume: Lacul Porcului, Tip: porc, Nivel: 2, Județ: Ialomita, Formă: Lac, ID: 12661 <br /><b>Variante</b><br />Nume: Lacul Porcului, Hartă: PDT, Limbă: Limba română</description><Point><coordinates>27.223380,44.558147,0</coordinates></Point></Placemark>
<Placemark><name>Dealul Porcului</name><description>Nume: Dealul Porcului, Tip: porc, Nivel: 2, Județ: Iasi, Formă: Deal, ID: 2236 <br /><b>Variante</b><br />Nume: Dealul Porcului, Hartă: Geomil 25000, Limbă: Limba română</description><Point><coordinates>27.109360,47.150088,0</coordinates></Point></Placemark>
<Placemark><name>Dealul Porcului</name><description>Nume: Dealul Porcului, Tip: porc, Nivel: 2, Județ: Iasi, Formă: Deal, ID: 6645 <br /><b>Variante</b><br />Nume: Dealul Porcului, Hartă: PDT, Limbă: Limba română</description><Point><coordinates>27.489436,47.379640,0</coordinates></Point></Placemark>
<Placemark><name>Dealul Porcului</name><description>Nume: Dealul Porcului, Tip: porc, Nivel: 2, Județ: Iasi, Formă: Deal, ID: 14577 <br /><b>Variante</b><br />Nume: Dealul Porcului, Hartă: PDT, Limbă: Limba română</description><Point><coordinates>26.739974,47.429556,0</coordinates></Point></Placemark>
<Placemark><name>Dealul Râtu Porcului</name><description>Nume: Dealul Râtu Porcului, Tip: porc, Nivel: 2, Județ: Iasi, Formă: Deal, ID: 6585 <br /><b>Variante</b><br />Nume: Dealul Râtu Porcului, Hartă: PDT, Limbă: Limba română</description><Point><coordinates>27.881392,46.976250,0</coordinates></Point></Placemark>
<Placemark><name>La Lacu Porcului</name><description>Nume: La Lacu Porcului, Tip: porc, Nivel: 2, Județ: Iasi, Formă: Lac, ID: 4869 <br /><b>Variante</b><br />Nume: La Lacu Porcului, Hartă: PDT, Limbă: Limba română</description><Point><coordinates>27.384695,47.448447,0</coordinates></Point></Placemark>
<Placemark><name>La Râtul Porcului</name><description>Nume: La Râtul Porcului, Tip: porc, Nivel: 2, Județ: Iasi, Formă: Altele, ID: 4836 <br /><b>Variante</b><br />Nume: La Râtul Porcului, Hartă: PDT, Limbă: Limba română</description><Point><coordinates>27.339526,47.243593,0</coordinates></Point></Placemark>
<Placemark><name>Râtul Porcului</name><description>Nume: Râtul Porcului, Tip: porc, Nivel: 2, Județ: Iasi, Formă: Altele, ID: 7800 <br /><b>Variante</b><br />Nume: Râtul Porcului, Hartă: PDT, Limbă: Limba română</description><Point><coordinates>27.340285,47.039543,0</coordinates></Point></Placemark>
<Placemark><name>Groapa Porkului</name><description>Nume: Groapa Porkului, Tip: porc, Nivel: 2, Județ: Ilfov, Formă: Altele, ID: 5771 <br /><b>Variante</b><br />Nume: Groapa Porkului, Hartă: Austriacă, Limbă: Limba română</description><Point><coordinates>26.203324,44.698886,0</coordinates></Point></Placemark>
<Placemark><name>Valea Mistrețu</name><description>Nume: Valea Mistrețu, Tip: mistreț, Nivel: 3, Județ: Maramures, Formă: Vale, ID: 4470 <br /><b>Variante</b><br />Nume: Valea Mistrețu, Hartă: Geomil 25000, Limbă: Limba română</description><Point><coordinates>23.726514,47.776535,0</coordinates></Point></Placemark>
<Placemark><name>Dealu Porcului</name><description>Nume: Dealu Porcului, Tip: porc, Nivel: 2, Județ: Maramures, Formă: Deal, ID: 4448 <br /><b>Variante</b><br />Nume: Dealu Porcului, Hartă: Geomil 25000, Limbă: Limba română</description><Point><coordinates>23.377200,47.718964,0</coordinates></Point></Placemark>
<Placemark><name>Dealul Porcului</name><description>Nume: Dealul Porcului, Tip: porc, Nivel: 2, Județ: Maramures, Formă: Deal, ID: 7186 <br /><b>Variante</b><br />Nume: Dealul Porcului, Hartă: PDT, Limbă: Limba română<br />Nume: Dealul Porcului, Hartă: Geomil 25000, Limbă: Limba română</description><Point><coordinates>24.363137,47.753221,0</coordinates></Point></Placemark>
<Placemark><name>Fântâna Porcului</name><description>Nume: Fântâna Porcului, Tip: porc, Nivel: 2, Județ: Maramures, Formă: Altele, ID: 8174 <br /><b>Variante</b><br />Nume: Fântâna Porcului, Hartă: PDT, Limbă: Limba română</description><Point><coordinates>23.375573,47.417530,0</coordinates></Point></Placemark>
<Placemark><name>Măgura Porcului</name><description>Nume: Măgura Porcului, Tip: porc, Nivel: 2, Județ: Maramures, Formă: Înălțime, ID: 1035 <br /><b>Variante</b><br />Nume: Măgura Porcului, Hartă: Geomil 25000, Limbă: Limba română</description><Point><coordinates>24.107448,47.594550,0</coordinates></Point></Placemark>
<Placemark><name>Pojana Porkului</name><description>Nume: Pojana Porkului, Tip: porc, Nivel: 2, Județ: Maramures, Formă: Localitate, ID: 13254 <br /><b>Variante</b><br />Nume: Pojana Porkului, Hartă: Transilvania (1769-1773), Limbă: Limba română</description><Point><coordinates>23.827529,47.412176,0</coordinates></Point></Placemark>
<Placemark><name>Valea Porcului</name><description>Nume: Valea Porcului, Tip: porc, Nivel: 2, Județ: Maramures, Formă: Vale, ID: 908 <br /><b>Variante</b><br />Nume: Valea Porcului, Hartă: Geomil 25000, Limbă: Limba română<br />Nume: Valea Porcului, Hartă: PDT, Limbă: Limba română</description><Point><coordinates>24.015389,47.870851,0</coordinates></Point></Placemark>
<Placemark><name>Valea Porcului</name><description>Nume: Valea Porcului, Tip: porc, Nivel: 2, Județ: Maramures, Formă: Vale, ID: 1042 <br /><b>Variante</b><br />Nume: Valea Porcului, Hartă: Geomil 25000, Limbă: Limba română</description><Point><coordinates>23.641690,47.585526,0</coordinates></Point></Placemark>
<Placemark><name>Valea Porcului</name><description>Nume: Valea Porcului, Tip: porc, Nivel: 2, Județ: Maramures, Formă: Vale, ID: 11415 <br /><b>Variante</b><br />Nume: Valea Porcului, Hartă: Geomil 25000, Limbă: Limba română</description><Point><coordinates>23.627555,47.493982,0</coordinates></Point></Placemark>
<Placemark><name>Valea Porcului</name><description>Nume: Valea Porcului, Tip: porc, Nivel: 2, Județ: Maramures, Formă: Vale, ID: 14891 <br /><b>Variante</b><br />Nume: Valea Porcului, Hartă: PDT, Limbă: Limba română</description><Point><coordinates>23.960106,47.880962,0</coordinates></Point></Placemark>
<Placemark><name>Valle Porculuy</name><description>Nume: Valle Porculuy, Tip: porc, Nivel: 2, Județ: Maramures, Formă: Vale, ID: 11993 <br /><b>Variante</b><br />Nume: Valle Porculuy, Hartă: Ungaria (1782–1785), Limbă: Limba română</description><Point><coordinates>24.053827,47.531608,0</coordinates></Point></Placemark>
<Placemark><name>Gâtu Porcului</name><description>Nume: Gâtu Porcului, Tip: porc, Nivel: 2, Județ: Mehedinti, Formă: Altele, ID: 6153 <br /><b>Variante</b><br />Nume: Gâtu Porcului, Hartă: Geomil 25000, Limbă: Limba română</description><Point><coordinates>22.545528,44.988104,0</coordinates></Point></Placemark>
<Placemark><name>Puțul Porcului</name><description>Nume: Puțul Porcului, Tip: porc, Nivel: 2, Județ: Mehedinti, Formă: Altele, ID: 8081 <br /><b>Variante</b><br />Nume: Puțul Porcului, Hartă: PDT, Limbă: Limba română</description><Point><coordinates>22.731088,44.437277,0</coordinates></Point></Placemark>
<Placemark><name>Valea Scroafei</name><description>Nume: Valea Scroafei, Tip: scroafă, Nivel: 3, Județ: Mehedinti, Formă: Vale, ID: 421 <br /><b>Variante</b><br />Nume: Valea Scroafei, Hartă: Geomil 25000, Limbă: Limba română</description><Point><coordinates>22.915422,44.746901,0</coordinates></Point></Placemark>
<Placemark><name>Dealul Mistrețului</name><description>Nume: Dealul Mistrețului, Tip: mistreț, Nivel: 3, Județ: Mures, Formă: Deal, ID: 10846 <br /><b>Variante</b><br />Nume: Dealul Mistrețului, Hartă: Geomil 25000, Limbă: Limba română</description><Point><coordinates>25.131277,46.675155,0</coordinates></Point></Placemark>
<Placemark><name>Dealul Porcului</name><description>Nume: Dealul Porcului, Tip: porc, Nivel: 2, Județ: Mures, Formă: Deal, ID: 2081 <br /><b>Variante</b><br />Nume: Dealul Porcului, Hartă: Geomil 25000, Limbă: Limba română</description><Point><coordinates>24.990257,46.992055,0</coordinates></Point></Placemark>
<Placemark><name>Dealul Porcului</name><description>Nume: Dealul Porcului, Tip: porc, Nivel: 2, Județ: Mures, Formă: Deal, ID: 7324 <br /><b>Variante</b><br />Nume: Dealul Porcului, Hartă: Geomil 25000, Limbă: Limba română</description><Point><coordinates>24.981157,47.012267,0</coordinates></Point></Placemark>
<Placemark><name>Gura Porcului</name><description>Nume: Gura Porcului, Tip: porc, Nivel: 2, Județ: Mures, Formă: Altele, ID: 10009 <br /><b>Variante</b><br />Nume: Gura Porcului, Hartă: PDT, Limbă: Limba română</description><Point><coordinates>24.995660,46.979711,0</coordinates></Point></Placemark>
<Placemark><name>Porcul</name><description>Nume: Porcul, Tip: porc, Nivel: 2, Județ: Mures, Formă: Vale, ID: 12809 <br /><b>Variante</b><br />Nume: Porcul, Hartă: Geomil 25000, Limbă: Limba română</description><Point><coordinates>25.040972,46.755216,0</coordinates></Point></Placemark>
<Placemark><name>Șesul Porcului</name><description>Nume: Șesul Porcului, Tip: porc, Nivel: 2, Județ: Mures, Formă: Câmp, ID: 5406 <br /><b>Variante</b><br />Nume: Șesul Porcului, Hartă: Geomil 25000, Limbă: Limba română</description><Point><coordinates>24.980486,47.044275,0</coordinates></Point></Placemark>
<Placemark><name>Unghia Porcilor</name><description>Nume: Unghia Porcilor, Tip: porc, Nivel: 2, Județ: Mures, Formă: Altele, ID: 10659 <br /><b>Variante</b><br />Nume: Unghia Porcilor, Hartă: Imperiul Habsburgic (1887), Limbă: Limba română</description><Point><coordinates>24.210174,46.453666,0</coordinates></Point></Placemark>
<Placemark><name>Unghiul Porcilor</name><description>Nume: Unghiul Porcilor, Tip: porc, Nivel: 2, Județ: Mures, Formă: Apă-deal-câmpie, ID: 14225 <br /><b>Variante</b><br />Nume: Unghiul Porcilor, Hartă: Geomil 25000, Limbă: Limba română</description><Point><coordinates>24.641014,46.228906,0</coordinates></Point></Placemark>
<Placemark><name>Valea Porcului</name><description>Nume: Valea Porcului, Tip: porc, Nivel: 2, Județ: Mures, Formă: Vale, ID: 5451 <br /><b>Variante</b><br />Nume: Valea Porcului, Hartă: Geomil 25000, Limbă: Limba română</description><Point><coordinates>24.755113,46.928781,0</coordinates></Point></Placemark>
<Placemark><name>Dealul Scroafei</name><description>Nume: Dealul Scroafei, Tip: scroafă, Nivel: 3, Județ: Mures, Formă: Înălțime, ID: 10845 <br /><b>Variante</b><br />Nume: Dealul Scroafei, Hartă: Geomil 25000, Limbă: Limba română</description><Point><coordinates>25.079812,46.660417,0</coordinates></Point></Placemark>
<Placemark><name>Valea Scroafei</name><description>Nume: Valea Scroafei, Tip: scroafă, Nivel: 3, Județ: Mures, Formă: Vale, ID: 2464 <br /><b>Variante</b><br />Nume: Valea Scroafei, Hartă: Geomil 25000, Limbă: Limba română</description><Point><coordinates>24.968772,46.180680,0</coordinates></Point></Placemark>
<Placemark><name>Valea Scroafei</name><description>Nume: Valea Scroafei, Tip: scroafă, Nivel: 3, Județ: Mures, Formă: Vale, ID: 6791 <br /><b>Variante</b><br />Nume: Valea Scroafei, Hartă: PDT, Limbă: Limba română</description><Point><coordinates>25.036353,46.111923,0</coordinates></Point></Placemark>
<Placemark><name>Coama Porcului</name><description>Nume: Coama Porcului, Tip: porc, Nivel: 2, Județ: Neamt, Formă: Înălțime, ID: 1632 <br /><b>Variante</b><br />Nume: Coama Porcului, Hartă: Geomil 25000, Limbă: Limba română</description><Point><coordinates>27.019056,46.914041,0</coordinates></Point></Placemark>
<Placemark><name>Piciorul Porcului</name><description>Nume: Piciorul Porcului, Tip: porc, Nivel: 2, Județ: Neamt, Formă: Înălțime, ID: 6519 <br /><b>Variante</b><br />Nume: Piciorul Porcului, Hartă: PDT, Limbă: Limba română<br />Nume: Piciorul Porcului, Hartă: Geomil 25000, Limbă: Limba română</description><Point><coordinates>26.161691,46.790845,0</coordinates></Point></Placemark>
<Placemark><name>Vârful Porcului</name><description>Nume: Vârful Porcului, Tip: porc, Nivel: 2, Județ: Neamt, Formă: Înălțime, ID: 2028 <br /><b>Variante</b><br />Nume: Vârful Porcului, Hartă: Geomil 25000, Limbă: Limba română</description><Point><coordinates>26.301667,46.778567,0</coordinates></Point></Placemark>
<Placemark><name>Dealu Porcului</name><description>Nume: Dealu Porcului, Tip: porc, Nivel: 2, Județ: Olt, Formă: Deal, ID: 277 <br /><b>Variante</b><br />Nume: Dealu Porcului, Hartă: Geomil 25000, Limbă: Limba română</description><Point><coordinates>24.175694,44.439549,0</coordinates></Point></Placemark>
<Placemark><name>La Lacul Porcului</name><description>Nume: La Lacul Porcului, Tip: porc, Nivel: 2, Județ: Olt, Formă: Lac, ID: 13982 <br /><b>Variante</b><br />Nume: La Lacul Porcului, Hartă: PDT, Limbă: Limba română</description><Point><coordinates>24.743032,44.354322,0</coordinates></Point></Placemark>
<Placemark><name>Lacul Porcului</name><description>Nume: Lacul Porcului, Tip: porc, Nivel: 2, Județ: Olt, Formă: Lac, ID: 7753 <br /><b>Variante</b><br />Nume: Lacul Porcului, Hartă: PDT, Limbă: Limba română<br />Nume: Lacul Purcelului, Hartă: Geomil 25000, Limbă: Limba română</description><Point><coordinates>24.650047,44.125643,0</coordinates></Point></Placemark>
<Placemark><name>Măgura Porcilor</name><description>Nume: Măgura Porcilor, Tip: porc, Nivel: 2, Județ: Olt, Formă: Înălțime, ID: 3034 <br /><b>Variante</b><br />Nume: Măgura Porcilor, Hartă: Geomil 25000, Limbă: Limba română</description><Point><coordinates>24.439717,43.918582,0</coordinates></Point></Placemark>
<Placemark><name>Piscu Porcului</name><description>Nume: Piscu Porcului, Tip: porc, Nivel: 2, Județ: Olt, Formă: Înălțime, ID: 12530 <br /><b>Variante</b><br />Nume: Piscu Porcului, Hartă: PDT, Limbă: Limba română</description><Point><coordinates>24.318962,44.275878,0</coordinates></Point></Placemark>
<Placemark><name>Valea Porcului</name><description>Nume: Valea Porcului, Tip: porc, Nivel: 2, Județ: Olt, Formă: Vale, ID: 296 <br /><b>Variante</b><br />Nume: Valea Porcului, Hartă: Geomil 25000, Limbă: Limba română</description><Point><coordinates>24.200844,44.410020,0</coordinates></Point></Placemark>
<Placemark><name>Valea Porcului</name><description>Nume: Valea Porcului, Tip: porc, Nivel: 2, Județ: Olt, Formă: Vale, ID: 5808 <br /><b>Variante</b><br />Nume: Valea Porcului, Hartă: Geomil 25000, Limbă: Limba română</description><Point><coordinates>24.355135,44.462391,0</coordinates></Point></Placemark>
<Placemark><name>Valea Purcelului</name><description>Nume: Valea Purcelului, Tip: purcel, Nivel: 3, Județ: Olt, Formă: Vale, ID: 5807 <br /><b>Variante</b><br />Nume: Valea Purcelului, Hartă: Geomil 25000, Limbă: Limba română</description><Point><coordinates>24.488780,44.317594,0</coordinates></Point></Placemark>
<Placemark><name>Valea Purcelului</name><description>Nume: Valea Purcelului, Tip: purcel, Nivel: 3, Județ: Olt, Formă: Vale, ID: 11691 <br /><b>Variante</b><br />Nume: Valea Purcelului, Hartă: Geomil 25000, Limbă: Limba română</description><Point><coordinates>24.394056,44.525081,0</coordinates></Point></Placemark>
<Placemark><name>Lacul Scroafei</name><description>Nume: Lacul Scroafei, Tip: scroafă, Nivel: 3, Județ: Olt, Formă: Lac, ID: 2985 <br /><b>Variante</b><br />Nume: Lacul Scroafei, Hartă: PDT, Limbă: Limba română</description><Point><coordinates>24.568313,44.231811,0</coordinates></Point></Placemark>
<Placemark><name>Căpățâna Porcului</name><description>Nume: Căpățâna Porcului, Tip: porc, Nivel: 2, Județ: Prahova, Formă: Altele, ID: 6858 <br /><b>Variante</b><br />Nume: Căpățâna Porcului, Hartă: PDT, Limbă: Limba română</description><Point><coordinates>25.497817,45.461295,0</coordinates></Point></Placemark>
<Placemark><name>Pădurea Groapa Porcului</name><description>Nume: Pădurea Groapa Porcului, Tip: porc, Nivel: 2, Județ: Prahova, Formă: Pădure, ID: 36 <br /><b>Variante</b><br />Nume: Лес Гроапа-Поркулуй (Pădurea Groapa Porcului), Hartă: Sovietică, Limbă: Limba română<br />Nume: Pădurea Groapa Porcului, Hartă: Geomil 25000, Limbă: Limba română</description><Point><coordinates>26.153404,44.821511,0</coordinates></Point></Placemark>
<Placemark><name>Poiana Porcului</name><description>Nume: Poiana Porcului, Tip: porc, Nivel: 2, Județ: Prahova, Formă: Poiană, ID: 8814 <br /><b>Variante</b><br />Nume: Poiana Porcului, Hartă: PDT, Limbă: Limba română</description><Point><coordinates>25.588028,45.111376,0</coordinates></Point></Placemark>
<Placemark><name>Valea Lacul Porcului</name><description>Nume: Valea Lacul Porcului, Tip: porc, Nivel: 2, Județ: Prahova, Formă: Vale, ID: 8836 <br /><b>Variante</b><br />Nume: Valea Lacul Porcului, Hartă: PDT, Limbă: Limba română</description><Point><coordinates>25.908082,45.066717,0</coordinates></Point></Placemark>
<Placemark><name>Coasta Porcului</name><description>Nume: Coasta Porcului, Tip: porc, Nivel: 2, Județ: Salaj, Formă: Înălțime, ID: 12745 <br /><b>Variante</b><br />Nume: Costea Porcului, Hartă: Imperiul Habsburgic (1887), Limbă: Limba română<br />Nume: Coasta Porcului, Hartă: Geomil 25000, Limbă: Limba română</description><Point><coordinates>23.242844,47.361264,0</coordinates></Point></Placemark>
<Placemark><name>Groapa Porcului</name><description>Nume: Groapa Porcului, Tip: porc, Nivel: 2, Județ: Salaj, Formă: Altele, ID: 14952 <br /><b>Variante</b><br />Nume: Groapa Porcului, Hartă: PDT, Limbă: Limba română</description><Point><coordinates>23.427143,47.096847,0</coordinates></Point></Placemark>
<Placemark><name>La Piciorul Porcului</name><description>Nume: La Piciorul Porcului, Tip: porc, Nivel: 2, Județ: Salaj, Formă: Înălțime, ID: 8179 <br /><b>Variante</b><br />Nume: La Piciorul Porcului, Hartă: PDT, Limbă: Limba română</description><Point><coordinates>23.337108,47.322010,0</coordinates></Point></Placemark>
<Placemark><name>Valea Porcilor</name><description>Nume: Valea Porcilor, Tip: porc, Nivel: 2, Județ: Salaj, Formă: Vale, ID: 7574 <br /><b>Variante</b><br />Nume: Valea Porcilor, Hartă: PDT, Limbă: Limba română</description><Point><coordinates>22.989858,47.230498,0</coordinates></Point></Placemark>
<Placemark><name>Valea Porcului</name><description>Nume: Valea Porcului, Tip: porc, Nivel: 2, Județ: Salaj, Formă: Vale, ID: 4401 <br /><b>Variante</b><br />Nume: Valea Porcului, Hartă: Geomil 25000, Limbă: Limba română<br />Nume: Valea Porcului, Hartă: PDT, Limbă: Limba română</description><Point><coordinates>23.776022,47.314650,0</coordinates></Point></Placemark>
<Placemark><name>Dâmbul Porcilor</name><description>Nume: Dâmbul Porcilor, Tip: porc, Nivel: 2, Județ: Satu Mare, Formă: Înălțime, ID: 8222 <br /><b>Variante</b><br />Nume: Dâmbul Porcilor, Hartă: PDT, Limbă: Limba română</description><Point><coordinates>23.156308,47.643710,0</coordinates></Point></Placemark>
<Placemark><name>Dealu Porcilor</name><description>Nume: Dealu Porcilor, Tip: porc, Nivel: 2, Județ: Satu Mare, Formă: Deal, ID: 10783 <br /><b>Variante</b><br />Nume: Dealu Porcilor, Hartă: Geomil 25000, Limbă: Limba română</description><Point><coordinates>22.583369,47.485069,0</coordinates></Point></Placemark>
<Placemark><name>Ocolul Porcilor</name><description>Nume: Ocolul Porcilor, Tip: porc, Nivel: 2, Județ: Satu Mare, Formă: Altele, ID: 8701 <br /><b>Variante</b><br />Nume: Ocolul Porcilor, Hartă: PDT, Limbă: Limba română</description><Point><coordinates>22.786839,47.662391,0</coordinates></Point></Placemark>
<Placemark><name>Pășunea Porcilor</name><description>Nume: Pășunea Porcilor, Tip: porc, Nivel: 2, Județ: Satu Mare, Formă: Altele, ID: 5952 <br /><b>Variante</b><br />Nume: Pășunea Porcilor, Hartă: Geomil 25000, Limbă: Limba română</description><Point><coordinates>22.793331,47.690897,0</coordinates></Point></Placemark>
<Placemark><name>Valea Porcului</name><description>Nume: Valea Porcului, Tip: porc, Nivel: 2, Județ: Satu Mare, Formă: Vale, ID: 4464 <br /><b>Variante</b><br />Nume: Valea Porcului, Hartă: Geomil 25000, Limbă: Limba română</description><Point><coordinates>23.523721,47.924974,0</coordinates></Point></Placemark>
<Placemark><name>Groapa Porcilor</name><description>Nume: Groapa Porcilor, Tip: porc, Nivel: 2, Județ: Sibiu, Formă: Altele, ID: 5515 <br /><b>Variante</b><br />Nume: Groapa Porcilor, Hartă: Geomil 25000, Limbă: Limba română</description><Point><coordinates>24.575580,46.247782,0</coordinates></Point></Placemark>
<Placemark><name>Pârâul Porcului</name><description>Nume: Pârâul Porcului, Tip: porc, Nivel: 2, Județ: Sibiu, Formă: Vale, ID: 4031 <br /><b>Variante</b><br />Nume: Pârâul Porcului, Hartă: PDT, Limbă: Limba română</description><Point><coordinates>24.332936,45.757434,0</coordinates></Point></Placemark>
<Placemark><name>Valea Porcilor</name><description>Nume: Valea Porcilor, Tip: porc, Nivel: 2, Județ: Sibiu, Formă: Vale, ID: 10628 <br /><b>Variante</b><br />Nume: Valea Porcilor, Hartă: Imperiul Habsburgic (1887), Limbă: Limba română</description><Point><coordinates>24.545847,46.255133,0</coordinates></Point></Placemark>
<Placemark><name>Valea Porcu</name><description>Nume: Valea Porcu, Tip: porc, Nivel: 2, Județ: Sibiu, Formă: Vale, ID: 2511 <br /><b>Variante</b><br />Nume: Valea Porcu, Hartă: Geomil 25000, Limbă: Limba română</description><Point><coordinates>23.876288,45.698858,0</coordinates></Point></Placemark>
<Placemark><name>Valea Porcului</name><description>Nume: Valea Porcului, Tip: porc, Nivel: 2, Județ: Sibiu, Formă: Vale, ID: 11319 <br /><b>Variante</b><br />Nume: Valea Porcului, Hartă: Geomil 25000, Limbă: Limba română</description><Point><coordinates>24.012598,45.564034,0</coordinates></Point></Placemark>
<Placemark><name>Arșița Porcului</name><description>Nume: Arșița Porcului, Tip: porc, Nivel: 2, Județ: Suceava, Formă: Înălțime, ID: 11169 <br /><b>Variante</b><br />Nume: Arșița Porcului, Hartă: Imperiul Habsburgic (1887), Limbă: Limba română</description><Point><coordinates>25.346196,47.383786,0</coordinates></Point></Placemark>
<Placemark><name>Balta Porcului</name><description>Nume: Balta Porcului, Tip: porc, Nivel: 2, Județ: Suceava, Formă: Localitate, ID: 9061 <br /><b>Variante</b><br />Nume: Balta Porcului, Hartă: PDT, Limbă: Limba română</description><Point><coordinates>26.501291,47.536911,0</coordinates></Point></Placemark>
<Placemark><name>Dealul Porcului</name><description>Nume: Dealul Porcului, Tip: porc, Nivel: 2, Județ: Suceava, Formă: Deal, ID: 9070 <br /><b>Variante</b><br />Nume: Dealul Porcului, Hartă: PDT, Limbă: Limba română</description><Point><coordinates>26.157748,47.477224,0</coordinates></Point></Placemark>
<Placemark><name>Dealul Runcul Porcului</name><description>Nume: Dealul Runcul Porcului, Tip: porc, Nivel: 2, Județ: Suceava, Formă: Deal, ID: 6326 <br /><b>Variante</b><br />Nume: Dealul Runcul Porcului, Hartă: Geomil 25000, Limbă: Limba română</description><Point><coordinates>25.756563,47.574162,0</coordinates></Point></Placemark>
<Placemark><name>Piciorul Porcului</name><description>Nume: Piciorul Porcului, Tip: porc, Nivel: 2, Județ: Suceava, Formă: Înălțime, ID: 2288 <br /><b>Variante</b><br />Nume: Piciorul Porcului, Hartă: Geomil 25000, Limbă: Limba română</description><Point><coordinates>25.534486,47.849885,0</coordinates></Point></Placemark>
<Placemark><name>Porcul</name><description>Nume: Porcul, Tip: porc, Nivel: 2, Județ: Suceava, Formă: Vale, ID: 1793 <br /><b>Variante</b><br />Nume: Porcul, Hartă: Geomil 25000, Limbă: Limba română</description><Point><coordinates>26.338464,47.717098,0</coordinates></Point></Placemark>
<Placemark><name>Porcul</name><description>Nume: Porcul, Tip: porc, Nivel: 2, Județ: Suceava, Formă: Vale, ID: 6378 <br /><b>Variante</b><br />Nume: Porcul, Hartă: Geomil 25000, Limbă: Limba română</description><Point><coordinates>25.069956,47.433483,0</coordinates></Point></Placemark>
<Placemark><name>Porcul</name><description>Nume: Porcul, Tip: porc, Nivel: 2, Județ: Suceava, Formă: Vale, ID: 13282 <br /><b>Variante</b><br />Nume: Porcul, Hartă: Geomil 25000, Limbă: Limba română</description><Point><coordinates>25.570198,47.133350,0</coordinates></Point></Placemark>
<Placemark><name>Eleșteul Porcului</name><description>Nume: Eleșteul Porcului, Tip: porc, Nivel: 2, Județ: Teleorman, Formă: Apă-deal-câmpie, ID: 4215 <br /><b>Variante</b><br />Nume: Eleșteul Porcului, Hartă: PDT, Limbă: Limba română</description><Point><coordinates>25.575746,44.044867,0</coordinates></Point></Placemark>
<Placemark><name>La Lacu Porcului</name><description>Nume: La Lacu Porcului, Tip: porc, Nivel: 2, Județ: Teleorman, Formă: Apă-deal-câmpie, ID: 509 <br /><b>Variante</b><br />Nume: La Lacu Porcului, Hartă: Geomil 25000, Limbă: Limba română<br />Nume: La Lac Porcului, Hartă: PDT, Limbă: Limba română</description><Point><coordinates>25.316965,44.253520,0</coordinates></Point></Placemark>
<Placemark><name>La Lacul Porcilor</name><description>Nume: La Lacul Porcilor, Tip: porc, Nivel: 2, Județ: Teleorman, Formă: Lac, ID: 3724 <br /><b>Variante</b><br />Nume: La Lacul Porcilor, Hartă: PDT, Limbă: Limba română</description><Point><coordinates>25.301971,44.297757,0</coordinates></Point></Placemark>
<Placemark><name>La Lacul Porcilor</name><description>Nume: La Lacul Porcilor, Tip: porc, Nivel: 2, Județ: Teleorman, Formă: Lac, ID: 9027 <br /><b>Variante</b><br />Nume: La Lacul Porcilor, Hartă: PDT, Limbă: Limba română</description><Point><coordinates>25.403089,44.156100,0</coordinates></Point></Placemark>
<Placemark><name>Lacul Porcilor</name><description>Nume: Lacul Porcilor, Tip: porc, Nivel: 2, Județ: Teleorman, Formă: Lac, ID: 3730 <br /><b>Variante</b><br />Nume: Lacul Porcilor, Hartă: PDT, Limbă: Limba română</description><Point><coordinates>25.067996,44.233841,0</coordinates></Point></Placemark>
<Placemark><name>Lacul Porcului</name><description>Nume: Lacul Porcului, Tip: porc, Nivel: 2, Județ: Teleorman, Formă: Lac, ID: 1347 <br /><b>Variante</b><br />Nume: Lacul Porcului, Hartă: Geomil 25000, Limbă: Limba română</description><Point><coordinates>25.024358,43.726098,0</coordinates></Point></Placemark>
<Placemark><name>Val. Porkului</name><description>Nume: Val. Porkului, Tip: porc, Nivel: 2, Județ: Teleorman, Formă: Vale, ID: 5778 <br /><b>Variante</b><br />Nume: Val. Porkului, Hartă: Austriacă, Limbă: Limba română<br />Nume: Valea Porcului, Hartă: Geomil 25000, Limbă: Limba română</description><Point><coordinates>25.299500,44.340180,0</coordinates></Point></Placemark>
<Placemark><name>Valea Porcilor</name><description>Nume: Valea Porcilor, Tip: porc, Nivel: 2, Județ: Teleorman, Formă: Vale, ID: 1392 <br /><b>Variante</b><br />Nume: Valea Porcilor, Hartă: Geomil 25000, Limbă: Limba română</description><Point><coordinates>25.608044,44.233229,0</coordinates></Point></Placemark>
<Placemark><name>Valea Porcului</name><description>Nume: Valea Porcului, Tip: porc, Nivel: 2, Județ: Teleorman, Formă: Vale, ID: 4225 <br /><b>Variante</b><br />Nume: Valea Porcului, Hartă: PDT, Limbă: Limba română</description><Point><coordinates>25.694731,44.249664,0</coordinates></Point></Placemark>
<Placemark><name>Valea Porcului</name><description>Nume: Valea Porcului, Tip: porc, Nivel: 2, Județ: Teleorman, Formă: Vale, ID: 10967 <br /><b>Variante</b><br />Nume: Valea Porcului, Hartă: PDT, Limbă: Limba română</description><Point><coordinates>25.557781,44.269664,0</coordinates></Point></Placemark>
<Placemark><name>Padina Scroafei</name><description>Nume: Padina Scroafei, Tip: scroafă, Nivel: 3, Județ: Teleorman, Formă: Altele, ID: 9025 <br /><b>Variante</b><br />Nume: Padina Scroafei, Hartă: PDT, Limbă: Limba română</description><Point><coordinates>25.483643,44.044706,0</coordinates></Point></Placemark>
<Placemark><name>Valea Scroafa</name><description>Nume: Valea Scroafa, Tip: scroafă, Nivel: 3, Județ: Teleorman, Formă: Vale, ID: 3412 <br /><b>Variante</b><br />Nume: Valea Scroafa, Hartă: PDT, Limbă: Limba română</description><Point><coordinates>25.471518,43.871812,0</coordinates></Point></Placemark>
<Placemark><name>Dealu Porcului</name><description>Nume: Dealu Porcului, Tip: porc, Nivel: 2, Județ: Timis, Formă: Deal, ID: 10860 <br /><b>Variante</b><br />Nume: Dealu Porcului, Hartă: Geomil 25000, Limbă: Limba română</description><Point><coordinates>22.157948,45.659972,0</coordinates></Point></Placemark>
<Placemark><name>Pârâul Porcului</name><description>Nume: Pârâul Porcului, Tip: porc, Nivel: 2, Județ: Timis, Formă: Vale, ID: 4306 <br /><b>Variante</b><br />Nume: Pârâul Porcului, Hartă: PDT, Limbă: Limba română</description><Point><coordinates>21.683277,45.663806,0</coordinates></Point></Placemark>
<Placemark><name>Râtu Porcului</name><description>Nume: Râtu Porcului, Tip: porc, Nivel: 2, Județ: Timis, Formă: Altele, ID: 5678 <br /><b>Variante</b><br />Nume: Râtu Porcului, Hartă: Geomil 25000, Limbă: Limba română</description><Point><coordinates>21.686040,45.677317,0</coordinates></Point></Placemark>
<Placemark><name>Balta Porcilor</name><description>Nume: Balta Porcilor, Tip: porc, Nivel: 2, Județ: Tulcea, Formă: Apă-deal-câmpie, ID: 6681 <br /><b>Variante</b><br />Nume: Balta Porcilor, Hartă: PDT, Limbă: Limba română</description><Point><coordinates>28.057444,45.285649,0</coordinates></Point></Placemark>
<Placemark><name>Lacul Porcului</name><description>Nume: Lacul Porcului, Tip: porc, Nivel: 2, Județ: Tulcea, Formă: Lac, ID: 12643 <br /><b>Variante</b><br />Nume: Lacul Porcului, Hartă: Geomil 25000, Limbă: Limba română</description><Point><coordinates>29.568052,45.106438,0</coordinates></Point></Placemark>
<Placemark><name>Movila Porcului</name><description>Nume: Movila Porcului, Tip: porc, Nivel: 2, Județ: Tulcea, Formă: Înălțime, ID: 12615 <br /><b>Variante</b><br />Nume: Movila Porcului, Hartă: PDT, Limbă: Limba română</description><Point><coordinates>28.176279,44.941992,0</coordinates></Point></Placemark>
<Placemark><name>Movila Porcului</name><description>Nume: Movila Porcului, Tip: porc, Nivel: 2, Județ: Tulcea, Formă: Înălțime, ID: 14284 <br /><b>Variante</b><br />Nume: Movila Porcului, Hartă: ANCPI, Limbă: Limba română</description><Point><coordinates>28.896404,45.035552,0</coordinates></Point></Placemark>
<Placemark><name>Dealul Porcului</name><description>Nume: Dealul Porcului, Tip: porc, Nivel: 2, Județ: Valcea, Formă: Deal, ID: 256 <br /><b>Variante</b><br />Nume: Dealul Porcului, Hartă: Geomil 25000, Limbă: Limba română<br />Nume: Dealul Porcului, Hartă: PDT, Limbă: Limba română</description><Point><coordinates>23.818490,44.758281,0</coordinates></Point></Placemark>
<Placemark><name>Dealul Porcului</name><description>Nume: Dealul Porcului, Tip: porc, Nivel: 2, Județ: Valcea, Formă: Deal, ID: 8265 <br /><b>Variante</b><br />Nume: Dealul Porcului, Hartă: PDT, Limbă: Limba română</description><Point><coordinates>23.840508,44.713127,0</coordinates></Point></Placemark>
<Placemark><name>M. Porku</name><description>Nume: M. Porku, Tip: porc, Nivel: 2, Județ: Valcea, Formă: Înălțime, ID: 5837 <br /><b>Variante</b><br />Nume: M. Porku, Hartă: Austriacă, Limbă: Limba română</description><Point><coordinates>23.821216,45.209715,0</coordinates></Point></Placemark>
<Placemark><name>Pârâul Cheile Porcului</name><description>Nume: Pârâul Cheile Porcului, Tip: porc, Nivel: 2, Județ: Valcea, Formă: Vale, ID: 12972 <br /><b>Variante</b><br />Nume: Pârâul Cheile Porcului, Hartă: Geomil 25000, Limbă: Limba română</description><Point><coordinates>24.148719,45.216284,0</coordinates></Point></Placemark>
<Placemark><name>Piciorul Porcului</name><description>Nume: Piciorul Porcului, Tip: porc, Nivel: 2, Județ: Valcea, Formă: Înălțime, ID: 357 <br /><b>Variante</b><br />Nume: Piciorul Porcului, Hartă: Geomil 25000, Limbă: Limba română</description><Point><coordinates>24.176578,45.186305,0</coordinates></Point></Placemark>
<Placemark><name>Poiana Porcului</name><description>Nume: Poiana Porcului, Tip: porc, Nivel: 2, Județ: Valcea, Formă: Poiană, ID: 2926 <br /><b>Variante</b><br />Nume: Poiana Porcului, Hartă: Geomil 25000, Limbă: Limba română</description><Point><coordinates>23.838705,45.215541,0</coordinates></Point></Placemark>
<Placemark><name>Porcul</name><description>Nume: Porcul, Tip: porc, Nivel: 2, Județ: Valcea, Formă: Vale, ID: 12559 <br /><b>Variante</b><br />Nume: Porcul, Hartă: Geomil 25000, Limbă: Limba română</description><Point><coordinates>24.262670,45.487508,0</coordinates></Point></Placemark>
<Placemark><name>Valea Picioru Porcului</name><description>Nume: Valea Picioru Porcului, Tip: porc, Nivel: 2, Județ: Valcea, Formă: Vale, ID: 2940 <br /><b>Variante</b><br />Nume: Valea Picioru Porcului, Hartă: Geomil 25000, Limbă: Limba română</description><Point><coordinates>24.215971,45.212566,0</coordinates></Point></Placemark>
<Placemark><name>Valea Porcului</name><description>Nume: Valea Porcului, Tip: porc, Nivel: 2, Județ: Valcea, Formă: Vale, ID: 259 <br /><b>Variante</b><br />Nume: Valea Porcului, Hartă: Geomil 25000, Limbă: Limba română</description><Point><coordinates>23.883576,44.658098,0</coordinates></Point></Placemark>
<Placemark><name>Valea Porcului</name><description>Nume: Valea Porcului, Tip: porc, Nivel: 2, Județ: Valcea, Formă: Vale, ID: 344 <br /><b>Variante</b><br />Nume: Valea Porcului, Hartă: Geomil 25000, Limbă: Limba română</description><Point><coordinates>24.083599,44.930251,0</coordinates></Point></Placemark>
<Placemark><name>Valea Purceaua</name><description>Nume: Valea Purceaua, Tip: purcea, Nivel: 3, Județ: Valcea, Formă: Vale, ID: 11039 <br /><b>Variante</b><br />Nume: Valea Purceaua, Hartă: Geomil 25000, Limbă: Limba română</description><Point><coordinates>24.056766,44.815038,0</coordinates></Point></Placemark>
<Placemark><name>Dealul Lacul Porcului</name><description>Nume: Dealul Lacul Porcului, Tip: porc, Nivel: 2, Județ: Vaslui, Formă: Deal, ID: 12289 <br /><b>Variante</b><br />Nume: Dealul Lacul Porcului, Hartă: Geomil 25000, Limbă: Limba română</description><Point><coordinates>27.156009,46.932450,0</coordinates></Point></Placemark>
<Placemark><name>Dealul Porcului</name><description>Nume: Dealul Porcului, Tip: porc, Nivel: 2, Județ: Vaslui, Formă: Deal, ID: 1674 <br /><b>Variante</b><br />Nume: Dealul Porcului, Hartă: Geomil 25000, Limbă: Limba română</description><Point><coordinates>27.634376,46.558219,0</coordinates></Point></Placemark>
<Placemark><name>Lacul Porcului</name><description>Nume: Lacul Porcului, Tip: porc, Nivel: 2, Județ: Vaslui, Formă: Lac, ID: 1691 <br /><b>Variante</b><br />Nume: Lacul Porcului, Hartă: Geomil 25000, Limbă: Limba română<br />Nume: Lacu Porcului, Hartă: PDT, Limbă: Limba română</description><Point><coordinates>28.106016,46.625331,0</coordinates></Point></Placemark>
<Placemark><name>Pădurea Scroafei</name><description>Nume: Pădurea Scroafei, Tip: scroafă, Nivel: 3, Județ: Vaslui, Formă: Pădure, ID: 4619 <br /><b>Variante</b><br />Nume: Pădurea Scroafei, Hartă: Geomil 25000, Limbă: Limba română</description><Point><coordinates>27.541258,46.651541,0</coordinates></Point></Placemark>
<Placemark><name>Curmătura Porcului</name><description>Nume: Curmătura Porcului, Tip: porc, Nivel: 2, Județ: Vrancea, Formă: Înălțime, ID: 2098 <br /><b>Variante</b><br />Nume: Curmătura Porcului, Hartă: Geomil 25000, Limbă: Limba română</description><Point><coordinates>26.786757,45.596639,0</coordinates></Point></Placemark>
<Placemark><name>Dealul Colțul Porculuil</name><description>Nume: Dealul Colțul Porculuil, Tip: porc, Nivel: 2, Județ: Vrancea, Formă: Deal, ID: 5250 <br /><b>Variante</b><br />Nume: Dealul Colțul Porculuil, Hartă: Geomil 25000, Limbă: Limba română</description><Point><coordinates>26.783150,45.675190,0</coordinates></Point></Placemark>
<Placemark><name>Dealul Porcului</name><description>Nume: Dealul Porcului, Tip: porc, Nivel: 2, Județ: Vrancea, Formă: Deal, ID: 2793 <br /><b>Variante</b><br />Nume: Dealul Porcului, Hartă: Geomil 25000, Limbă: Limba română</description><Point><coordinates>26.466799,45.960361,0</coordinates></Point></Placemark>
<Placemark><name>Dealul Porcului</name><description>Nume: Dealul Porcului, Tip: porc, Nivel: 2, Județ: Vrancea, Formă: Deal, ID: 5348 <br /><b>Variante</b><br />Nume: Dealul Porcului, Hartă: PDT, Limbă: Limba română<br />Nume: Dealul Porcului, Hartă: Geomil 25000, Limbă: Limba română</description><Point><coordinates>26.937517,45.961492,0</coordinates></Point></Placemark>
<Placemark><name>Pârâul Porcului</name><description>Nume: Pârâul Porcului, Tip: porc, Nivel: 2, Județ: Vrancea, Formă: Vale, ID: 7909 <br /><b>Variante</b><br />Nume: Pârâul Porcului, Hartă: Geomil 25000, Limbă: Limba română</description><Point><coordinates>26.827495,45.771978,0</coordinates></Point></Placemark>
<Placemark><name>Pârâul Porcului</name><description>Nume: Pârâul Porcului, Tip: porc, Nivel: 2, Județ: Vrancea, Formă: Vale, ID: 12946 <br /><b>Variante</b><br />Nume: Pârâul Porcului, Hartă: Geomil 25000, Limbă: Limba română</description><Point><coordinates>26.597798,45.799695,0</coordinates></Point></Placemark>
<Placemark><name>Pârâul Porcului</name><description>Nume: Pârâul Porcului, Tip: porc, Nivel: 2, Județ: Vrancea, Formă: Vale, ID: 13305 <br /><b>Variante</b><br />Nume: Pârâul Porcului, Hartă: Geomil 25000, Limbă: Limba română</description><Point><coordinates>26.533177,45.987298,0</coordinates></Point></Placemark>
<Placemark><name>Piscul Porcului</name><description>Nume: Piscul Porcului, Tip: porc, Nivel: 2, Județ: Vrancea, Formă: Înălțime, ID: 2111 <br /><b>Variante</b><br />Nume: Piscul Porcului, Hartă: Geomil 25000, Limbă: Limba română</description><Point><coordinates>26.433990,45.868431,0</coordinates></Point></Placemark>
<Placemark><name>Vârful Porcului</name><description>Nume: Vârful Porcului, Tip: porc, Nivel: 2, Județ: Vrancea, Formă: Înălțime, ID: 2798 <br /><b>Variante</b><br />Nume: Vârful Porcului, Hartă: Geomil 25000, Limbă: Limba română</description><Point><coordinates>26.578885,45.923286,0</coordinates></Point></Placemark>
<Placemark><name>Dealul Purcei</name><description>Nume: Dealul Purcei, Tip: purcel, Nivel: 3, Județ: Vrancea, Formă: Deal, ID: 5272 <br /><b>Variante</b><br />Nume: Dealul Purcei, Hartă: Geomil 25000, Limbă: Limba română</description><Point><coordinates>26.806324,45.951753,0</coordinates></Point></Placemark>
<Placemark><name>Vârful Purcelului</name><description>Nume: Vârful Purcelului, Tip: purcel, Nivel: 3, Județ: Vrancea, Formă: Înălțime, ID: 5245 <br /><b>Variante</b><br />Nume: Vârful Purcelului, Hartă: Geomil 25000, Limbă: Limba română</description><Point><coordinates>26.682062,45.618751,0</coordinates></Point></Placemark></Document></kml>