<?xml version="1.0" encoding="UTF-8"?><kml xmlns="http://www.opengis.net/kml/2.2"><Document><Placemark><name>Șaua Podu Giurgiului</name><description>Nume: Șaua Podu Giurgiului, Tip: giurgiu, Nivel: 3, Județ: Brasov, Formă: Înălțime, ID: 15111 <br /><b>Variante</b><br />Nume: Șaua Podu Giurgiului, Hartă: Munții noștri, Limbă: Limba română</description><Point><coordinates>24.697649,45.603745,0</coordinates></Point></Placemark>
<Placemark><name>Movila Giurgiului</name><description>Nume: Movila Giurgiului, Tip: giurgiu, Nivel: 3, Județ: Buzau, Formă: Înălțime, ID: 15409 <br /><b>Variante</b><br />Nume: Movila Giurgiului, Hartă: PDT, Limbă: Limba română</description><Point><coordinates>27.210925,44.943755,0</coordinates></Point></Placemark>
<Placemark><name>Dealul Giurgiului</name><description>Nume: Dealul Giurgiului, Tip: giurgiu, Nivel: 3, Județ: Caras Severin, Formă: Deal, ID: 15587, ID Părinte: 15585 <br /><b>Variante</b><br />Nume: Dealul Giurgiului, Hartă: PDT, Limbă: Limba română</description><Point><coordinates>21.742231,45.168480,0</coordinates></Point></Placemark>
<Placemark><LineString id="15587_15585"><tessellate>1</tessellate><coordinates>21.742231,45.168480,0.
21.715538,45.183531,0</coordinates></LineString><Style><LineStyle><width>3</width></LineStyle></Style></Placemark>
<Placemark><name>Valea Giurgiului</name><description>Nume: Valea Giurgiului, Tip: giurgiu, Nivel: 3, Județ: Caras Severin, Formă: Vale, ID: 15589, ID Părinte: 15585 <br /><b>Variante</b><br />Nume: Valea Giurgiului, Hartă: PDT, Limbă: Limba română</description><Point><coordinates>21.738034,45.165484,0</coordinates></Point></Placemark>
<Placemark><LineString id="15589_15585"><tessellate>1</tessellate><coordinates>21.738034,45.165484,0.
21.715538,45.183531,0</coordinates></LineString><Style><LineStyle><width>3</width></LineStyle></Style></Placemark>
<Placemark><name>Dealul Giurgiu</name><description>Nume: Dealul Giurgiu, Tip: giurgiu, Nivel: 3, Județ: Vaslui, Formă: Deal, ID: 14856 <br /><b>Variante</b><br />Nume: Dealul Giurgiu, Hartă: PDT, Limbă: Limba română</description><Point><coordinates>27.084494,46.339551,0</coordinates></Point></Placemark>
<Placemark><name>Muntele Giurgiu</name><description>Nume: Muntele Giurgiu, Tip: giurgiu, Nivel: 3, Județ: Vrancea, Formă: Înălțime, ID: 14776 <br /><b>Variante</b><br />Nume: Muntele Giurgiu, Hartă: ANCPI, Limbă: Limba română</description><Point><coordinates>26.444333,45.755907,0</coordinates></Point></Placemark></Document></kml>