<?xml version="1.0" encoding="UTF-8"?><kml xmlns="http://www.opengis.net/kml/2.2"><Document><Placemark><name>Dealul Balaciului</name><description>Nume: Dealul Balaciului, Tip: balaciu, Nivel: 3, Județ: Alba, Formă: Deal, ID: 13152 <br /><b>Variante</b><br />Nume: Dealul Balaciului, Hartă: Geomil 25000, Limbă: Limba română</description><Point><coordinates>23.136621,46.072393,0</coordinates></Point></Placemark>
<Placemark><name>Dealul Balcaciu</name><description>Nume: Dealul Balcaciu, Tip: balcaci, Nivel: 3, Județ: Alba, Formă: Deal, ID: 11424 <br /><b>Variante</b><br />Nume: Dealul Balcaciu, Hartă: Geomil 25000, Limbă: Limba română</description><Point><coordinates>24.076257,46.129351,0</coordinates></Point></Placemark>
<Placemark><name>Valea Balcaciu</name><description>Nume: Valea Balcaciu, Tip: balcaci, Nivel: 3, Județ: Alba, Formă: Vale, ID: 11423 <br /><b>Variante</b><br />Nume: Valea Balcaciu, Hartă: Geomil 25000, Limbă: Limba română</description><Point><coordinates>24.073533,46.217933,0</coordinates></Point></Placemark>
<Placemark><name>Balaciu de Jos</name><description>Nume: Balaciu de Jos, Tip: balaciu, Nivel: 3, Județ: Ialomita, Formă: Localitate, ID: 9322 <br /><b>Variante</b><br />Nume: Balaciu de Jos, Hartă: PDT, Limbă: Limba română</description><Point><coordinates>26.892901,44.613121,0</coordinates></Point></Placemark>
<Placemark><name>Balaciu de Sus</name><description>Nume: Balaciu de Sus, Tip: balaciu, Nivel: 3, Județ: Ialomita, Formă: Localitate, ID: 9323, ID Părinte: 9322 <br /><b>Variante</b><br />Nume: Balaciu de Sus, Hartă: PDT, Limbă: Limba română<br />Nume: Balaciu, Hartă: Geomil 25000, Limbă: Limba română</description><Point><coordinates>26.889399,44.637017,0</coordinates></Point></Placemark>
<Placemark><LineString id="9323_9322"><tessellate>1</tessellate><coordinates>26.889399,44.637017,0.
26.892901,44.613121,0</coordinates></LineString><Style><LineStyle><width>3</width></LineStyle></Style></Placemark>
<Placemark><name>Balaci</name><description>Nume: Balaci, Tip: balaci, Nivel: 2, Județ: Teleorman, Formă: Localitate, ID: 10978 <br /><b>Variante</b><br />Nume: Balaci, Hartă: Geomil 25000, Limbă: Limba română</description><Point><coordinates>24.923411,44.341278,0</coordinates></Point></Placemark>
<Placemark><name>Valea Balacilor</name><description>Nume: Valea Balacilor, Tip: balaci, Nivel: 2, Județ: Teleorman, Formă: Vale, ID: 10982, ID Părinte: 10978 <br /><b>Variante</b><br />Nume: Valea Balacilor, Hartă: Geomil 25000, Limbă: Limba română</description><Point><coordinates>24.913380,44.345438,0</coordinates></Point></Placemark>
<Placemark><LineString id="10982_10978"><tessellate>1</tessellate><coordinates>24.913380,44.345438,0.
24.923411,44.341278,0</coordinates></LineString><Style><LineStyle><width>3</width></LineStyle></Style></Placemark>
<Placemark><name>Valea Balacilor</name><description>Nume: Valea Balacilor, Tip: balaci, Nivel: 2, Județ: Valcea, Formă: Vale, ID: 9380, ID Părinte: 9381 <br /><b>Variante</b><br />Nume: Valea Balacilor, Hartă: Geomil 25000, Limbă: Limba română</description><Point><coordinates>23.896816,44.955807,0</coordinates></Point></Placemark>
<Placemark><LineString id="9380_9381"><tessellate>1</tessellate><coordinates>23.896816,44.955807,0.
23.935716,44.935462,0</coordinates></LineString><Style><LineStyle><width>3</width></LineStyle></Style></Placemark>
<Placemark><name>Balaciu</name><description>Nume: Balaciu, Tip: balaciu, Nivel: 3, Județ: Valcea, Formă: Localitate, ID: 9381 <br /><b>Variante</b><br />Nume: Balaciu, Hartă: Geomil 25000, Limbă: Limba română<br />Nume: Balaciul, Hartă: PDT, Limbă: Limba română</description><Point><coordinates>23.935716,44.935462,0</coordinates></Point></Placemark>
<Placemark><name>Dealul Balaciu</name><description>Nume: Dealul Balaciu, Tip: balaciu, Nivel: 3, Județ: Valcea, Formă: Deal, ID: 9382, ID Părinte: 9381 <br /><b>Variante</b><br />Nume: Dealul Balaciu, Hartă: PDT, Limbă: Limba română</description><Point><coordinates>23.916139,44.931328,0</coordinates></Point></Placemark>
<Placemark><LineString id="9382_9381"><tessellate>1</tessellate><coordinates>23.916139,44.931328,0.
23.935716,44.935462,0</coordinates></LineString><Style><LineStyle><width>3</width></LineStyle></Style></Placemark></Document></kml>