<?xml version="1.0" encoding="UTF-8"?><kml xmlns="http://www.opengis.net/kml/2.2"><Document><Placemark><name>Dealu Cățeilor</name><description>Nume: Dealu Cățeilor, Tip: cățel, Nivel: 3, Județ: Alba, Formă: Deal, ID: 5909 <br /><b>Variante</b><br />Nume: Dealu Cățeilor, Hartă: Geomil 25000, Limbă: Limba română</description><Point><coordinates>22.819508,46.549430,0</coordinates></Point></Placemark>
<Placemark><name>Valea Cățelei</name><description>Nume: Valea Cățelei, Tip: cățea, Nivel: 3, Județ: Arad, Formă: Vale, ID: 10214 <br /><b>Variante</b><br />Nume: Valea Cățelei, Hartă: Geomil 25000, Limbă: Limba română</description><Point><coordinates>22.035975,46.246596,0</coordinates></Point></Placemark>
<Placemark><name>Malul Câinelui</name><description>Nume: Malul Câinelui, Tip: câini, Nivel: 2, Județ: Arges, Formă: Altele, ID: 4044 <br /><b>Variante</b><br />Nume: Malul Câinelui, Hartă: PDT, Limbă: Limba română</description><Point><coordinates>24.647873,45.291121,0</coordinates></Point></Placemark>
<Placemark><name>Pârâu Câinelui</name><description>Nume: Pârâu Câinelui, Tip: câini, Nivel: 2, Județ: Arges, Formă: Vale, ID: 8327 <br /><b>Variante</b><br />Nume: Pârâu Câinelui, Hartă: Geomil 25000, Limbă: Limba română</description><Point><coordinates>24.980024,44.433295,0</coordinates></Point></Placemark>
<Placemark><name>Râpa Ogarului</name><description>Nume: Râpa Ogarului, Tip: ogari, Nivel: 3, Județ: Arges, Formă: Înălțime, ID: 6877 <br /><b>Variante</b><br />Nume: Râpa Ogarului, Hartă: Geomil 25000, Limbă: Limba română</description><Point><coordinates>25.013709,45.169873,0</coordinates></Point></Placemark>
<Placemark><name>Valea Ogarului</name><description>Nume: Valea Ogarului, Tip: ogari, Nivel: 3, Județ: Arges, Formă: Vale, ID: 539 <br /><b>Variante</b><br />Nume: Valea Ogarului, Hartă: Geomil 25000, Limbă: Limba română</description><Point><coordinates>25.062267,45.005069,0</coordinates></Point></Placemark>
<Placemark><name>Piatra Câinilor</name><description>Nume: Piatra Câinilor, Tip: câini, Nivel: 2, Județ: Bihor, Formă: Înălțime, ID: 5620 <br /><b>Variante</b><br />Nume: Piatra Câinilor, Hartă: Geomil 25000, Limbă: Limba română</description><Point><coordinates>22.669163,46.603641,0</coordinates></Point></Placemark>
<Placemark><name>Dosul Câinelui</name><description>Nume: Dosul Câinelui, Tip: câini, Nivel: 2, Județ: Bistrita Nasaud, Formă: Înălțime, ID: 5488 <br /><b>Variante</b><br />Nume: Dosul Câinelui, Hartă: Geomil 25000, Limbă: Limba română</description><Point><coordinates>24.302175,47.020251,0</coordinates></Point></Placemark>
<Placemark><name>Vârful Câinelui</name><description>Nume: Vârful Câinelui, Tip: câini, Nivel: 2, Județ: Bistrita Nasaud, Formă: Înălțime, ID: 4489 <br /><b>Variante</b><br />Nume: Vârful Câinelui, Hartă: Geomil 25000, Limbă: Limba română</description><Point><coordinates>24.461833,47.514637,0</coordinates></Point></Placemark>
<Placemark><name>Dealul Cățelei</name><description>Nume: Dealul Cățelei, Tip: cățea, Nivel: 3, Județ: Bistrita Nasaud, Formă: Deal, ID: 6364 <br /><b>Variante</b><br />Nume: Dealul Cățelei, Hartă: Geomil 25000, Limbă: Limba română</description><Point><coordinates>24.821864,47.345023,0</coordinates></Point></Placemark>
<Placemark><name>Valea Cățelei</name><description>Nume: Valea Cățelei, Tip: cățea, Nivel: 3, Județ: Bistrita Nasaud, Formă: Vale, ID: 9876, ID Părinte: 6364 <br /><b>Variante</b><br />Nume: Valea Cățelei, Hartă: Geomil 25000, Limbă: Limba română</description><Point><coordinates>24.817730,47.352718,0</coordinates></Point></Placemark>
<Placemark><LineString id="9876_6364"><tessellate>1</tessellate><coordinates>24.817730,47.352718,0.
24.821864,47.345023,0</coordinates></LineString><Style><LineStyle><width>3</width></LineStyle></Style></Placemark>
<Placemark><name>Vârful Cățelei</name><description>Nume: Vârful Cățelei, Tip: cățea, Nivel: 3, Județ: Bistrita Nasaud, Formă: Înălțime, ID: 9875, ID Părinte: 6364 <br /><b>Variante</b><br />Nume: Vârful Cățelei, Hartă: Geomil 25000, Limbă: Limba română</description><Point><coordinates>24.818256,47.340165,0</coordinates></Point></Placemark>
<Placemark><LineString id="9875_6364"><tessellate>1</tessellate><coordinates>24.818256,47.340165,0.
24.821864,47.345023,0</coordinates></LineString><Style><LineStyle><width>3</width></LineStyle></Style></Placemark>
<Placemark><name>Râpa Cățelei</name><description>Nume: Râpa Cățelei, Tip: cățea, Nivel: 3, Județ: Botosani, Formă: Înălțime, ID: 7784 <br /><b>Variante</b><br />Nume: Râpa Cățelei, Hartă: Geomil 25000, Limbă: Limba română</description><Point><coordinates>26.463663,47.700437,0</coordinates></Point></Placemark>
<Placemark><name>Balta Cățeaua</name><description>Nume: Balta Cățeaua, Tip: cățea, Nivel: 3, Județ: Braila, Formă: Apă-deal-câmpie, ID: 6716 <br /><b>Variante</b><br />Nume: Balta Cățeaua, Hartă: PDT, Limbă: Limba română</description><Point><coordinates>27.952129,45.009162,0</coordinates></Point></Placemark>
<Placemark><name>Movila Cățelușa</name><description>Nume: Movila Cățelușa, Tip: cățelușă, Nivel: 4, Județ: Braila, Formă: Înălțime, ID: 6730 <br /><b>Variante</b><br />Nume: Movila Cățelușa, Hartă: PDT, Limbă: Limba română</description><Point><coordinates>27.418607,44.961996,0</coordinates></Point></Placemark>
<Placemark><name>Dealul Câinelui</name><description>Nume: Dealul Câinelui, Tip: câini, Nivel: 2, Județ: Brasov, Formă: Deal, ID: 8550 <br /><b>Variante</b><br />Nume: Dealul Câinelui, Hartă: Geomil 25000, Limbă: Limba română</description><Point><coordinates>25.450219,45.730413,0</coordinates></Point></Placemark>
<Placemark><name>Pârâul Cânelui</name><description>Nume: Pârâul Cânelui, Tip: câini, Nivel: 2, Județ: Brasov, Formă: Vale, ID: 6804 <br /><b>Variante</b><br />Nume: Pârâul Cânelui, Hartă: PDT, Limbă: Limba română</description><Point><coordinates>25.316966,45.911171,0</coordinates></Point></Placemark>
<Placemark><name>Spinarea Câinelui</name><description>Nume: Spinarea Câinelui, Tip: câini, Nivel: 2, Județ: Brasov, Formă: Altele, ID: 2785 <br /><b>Variante</b><br />Nume: Spinarea Câinelui, Hartă: Geomil 25000, Limbă: Limba română</description><Point><coordinates>25.429964,45.613966,0</coordinates></Point></Placemark>
<Placemark><name>Cățeaua</name><description>Nume: Cățeaua, Tip: cățea, Nivel: 3, Județ: Calarasi, Formă: Altele, ID: 3213 <br /><b>Variante</b><br />Nume: Cățeaua, Hartă: PDT, Limbă: Limba română</description><Point><coordinates>27.659602,44.235524,0</coordinates></Point></Placemark>
<Placemark><name>Cracu Câinelui</name><description>Nume: Cracu Câinelui, Tip: câini, Nivel: 2, Județ: Caras Severin, Formă: Înălțime, ID: 837 <br /><b>Variante</b><br />Nume: Cracu Câinelui, Hartă: Geomil 25000, Limbă: Limba română</description><Point><coordinates>22.164612,44.646874,0</coordinates></Point></Placemark>
<Placemark><name>Tâlva Cățelei</name><description>Nume: Tâlva Cățelei, Tip: cățea, Nivel: 3, Județ: Caras Severin, Formă: Altele, ID: 8682 <br /><b>Variante</b><br />Nume: Tâlva Cățelei, Hartă: PDT, Limbă: Limba română</description><Point><coordinates>22.170435,45.061115,0</coordinates></Point></Placemark>
<Placemark><name>Pârâu Câinelui</name><description>Nume: Pârâu Câinelui, Tip: câini, Nivel: 2, Județ: Cluj, Formă: Vale, ID: 2593 <br /><b>Variante</b><br />Nume: Pârâu Câinelui, Hartă: Geomil 25000, Limbă: Limba română</description><Point><coordinates>23.271960,46.679291,0</coordinates></Point></Placemark>
<Placemark><name>Vârful Baia Câinelui</name><description>Nume: Vârful Baia Câinelui, Tip: câini, Nivel: 2, Județ: Covasna, Formă: Înălțime, ID: 4382 <br /><b>Variante</b><br />Nume: Vârful Baia Câinelui, Hartă: Geomil 25000, Limbă: Limba română</description><Point><coordinates>25.964417,45.982259,0</coordinates></Point></Placemark>
<Placemark><name>Valea Câinelui</name><description>Nume: Valea Câinelui, Tip: câini, Nivel: 2, Județ: Dambovita, Formă: Vale, ID: 8314 <br /><b>Variante</b><br />Nume: Valea Câinelui, Hartă: PDT, Limbă: Limba română</description><Point><coordinates>25.410294,44.774925,0</coordinates></Point></Placemark>
<Placemark><name>Valea Câinelui</name><description>Nume: Valea Câinelui, Tip: câini, Nivel: 2, Județ: Dambovita, Formă: Vale, ID: 5993 <br /><b>Variante</b><br />Nume: Valea Câinelui, Hartă: Geomil 25000, Limbă: Limba română<br />Nume: Valea Câinelui, Hartă: PDT, Limbă: Limba română</description><Point><coordinates>25.359447,45.085430,0</coordinates></Point></Placemark>
<Placemark><name>Piscul Câinelui</name><description>Nume: Piscul Câinelui, Tip: câini, Nivel: 2, Județ: Dolj, Formă: Înălțime, ID: 4726 <br /><b>Variante</b><br />Nume: Piscul Câinelui, Hartă: PDT, Limbă: Limba română</description><Point><coordinates>23.811391,44.585761,0</coordinates></Point></Placemark>
<Placemark><name>Valea Câinele Mare</name><description>Nume: Valea Câinele Mare, Tip: câini, Nivel: 2, Județ: Dolj, Formă: Vale, ID: 4731, ID Părinte: 4726 <br /><b>Variante</b><br />Nume: Valea Câinele Mare, Hartă: PDT, Limbă: Limba română</description><Point><coordinates>23.811598,44.588095,0</coordinates></Point></Placemark>
<Placemark><LineString id="4731_4726"><tessellate>1</tessellate><coordinates>23.811598,44.588095,0.
23.811391,44.585761,0</coordinates></LineString><Style><LineStyle><width>3</width></LineStyle></Style></Placemark>
<Placemark><name>Dealul Cățelei</name><description>Nume: Dealul Cățelei, Tip: cățea, Nivel: 3, Județ: Dolj, Formă: Deal, ID: 152 <br /><b>Variante</b><br />Nume: Dealul Cățelei, Hartă: Geomil 25000, Limbă: Limba română</description><Point><coordinates>23.518027,44.053520,0</coordinates></Point></Placemark>
<Placemark><name>Dealul Cățelei</name><description>Nume: Dealul Cățelei, Tip: cățea, Nivel: 3, Județ: Dolj, Formă: Deal, ID: 7712 <br /><b>Variante</b><br />Nume: Dealul Cățelei, Hartă: PDT, Limbă: Limba română</description><Point><coordinates>23.788183,44.161999,0</coordinates></Point></Placemark>
<Placemark><name>Măgura Cățelei</name><description>Nume: Măgura Cățelei, Tip: cățea, Nivel: 3, Județ: Dolj, Formă: Înălțime, ID: 153, ID Părinte: 152 <br /><b>Variante</b><br />Nume: Măgura Cățelei, Hartă: Geomil 25000, Limbă: Limba română</description><Point><coordinates>23.533561,44.045170,0</coordinates></Point></Placemark>
<Placemark><LineString id="153_152"><tessellate>1</tessellate><coordinates>23.533561,44.045170,0.
23.518027,44.053520,0</coordinates></LineString><Style><LineStyle><width>3</width></LineStyle></Style></Placemark>
<Placemark><name>La Movila Cățelei</name><description>Nume: La Movila Cățelei, Tip: cățea, Nivel: 3, Județ: Galati, Formă: Înălțime, ID: 9490 <br /><b>Variante</b><br />Nume: La Movila Cățelei, Hartă: PDT, Limbă: Limba română</description><Point><coordinates>27.515133,45.918455,0</coordinates></Point></Placemark>
<Placemark><name>Valea Ogarului</name><description>Nume: Valea Ogarului, Tip: ogari, Nivel: 3, Județ: Gorj, Formă: Vale, ID: 8390 <br /><b>Variante</b><br />Nume: Valea Ogarului, Hartă: PDT, Limbă: Limba română</description><Point><coordinates>23.130666,44.849774,0</coordinates></Point></Placemark>
<Placemark><name>Dealu Cățeilor</name><description>Nume: Dealu Cățeilor, Tip: câini, Nivel: 2, Județ: Hunedoara, Formă: Deal, ID: 932 <br /><b>Variante</b><br />Nume: Dealu Cățeilor, Hartă: Geomil 25000, Limbă: Limba română</description><Point><coordinates>22.796827,46.201465,0</coordinates></Point></Placemark>
<Placemark><name>Valea Câinelui</name><description>Nume: Valea Câinelui, Tip: câini, Nivel: 2, Județ: Hunedoara, Formă: Vale, ID: 9658 <br /><b>Variante</b><br />Nume: Valea Câinelui, Hartă: Geomil 25000, Limbă: Limba română</description><Point><coordinates>23.027010,46.027246,0</coordinates></Point></Placemark>
<Placemark><name>La Cățelul</name><description>Nume: La Cățelul, Tip: cățel, Nivel: 3, Județ: Iasi, Formă: Altele, ID: 6608 <br /><b>Variante</b><br />Nume: La Cățelul, Hartă: PDT, Limbă: Limba română</description><Point><coordinates>27.331438,47.264076,0</coordinates></Point></Placemark>
<Placemark><name>Ogașu Câinelui</name><description>Nume: Ogașu Câinelui, Tip: câini, Nivel: 2, Județ: Mehedinti, Formă: Vale, ID: 9439 <br /><b>Variante</b><br />Nume: Ogașu Câinelui, Hartă: Geomil 25000, Limbă: Limba română</description><Point><coordinates>22.224361,44.704741,0</coordinates></Point></Placemark>
<Placemark><name>Dealul Spatele Câinelui</name><description>Nume: Dealul Spatele Câinelui, Tip: câini, Nivel: 2, Județ: Mures, Formă: Deal, ID: 7313 <br /><b>Variante</b><br />Nume: Dealul Spatele Câinelui, Hartă: PDT, Limbă: Limba română</description><Point><coordinates>24.768838,46.802971,0</coordinates></Point></Placemark>
<Placemark><name>Piciorul Câinelui</name><description>Nume: Piciorul Câinelui, Tip: câini, Nivel: 2, Județ: Neamt, Formă: Înălțime, ID: 11654 <br /><b>Variante</b><br />Nume: Piciorul Câinelui, Hartă: Geomil 25000, Limbă: Limba română</description><Point><coordinates>25.968429,47.158329,0</coordinates></Point></Placemark>
<Placemark><name>Valea Ogarului</name><description>Nume: Valea Ogarului, Tip: ogari, Nivel: 3, Județ: Olt, Formă: Vale, ID: 294 <br /><b>Variante</b><br />Nume: Valea Ogarului, Hartă: Geomil 25000, Limbă: Limba română</description><Point><coordinates>24.045393,44.384361,0</coordinates></Point></Placemark>
<Placemark><name>Piciorul Câinelui</name><description>Nume: Piciorul Câinelui, Tip: câini, Nivel: 2, Județ: Prahova, Formă: Înălțime, ID: 573, ID Părinte: 574 <br /><b>Variante</b><br />Nume: Piciorul Câinelui, Hartă: Geomil 25000, Limbă: Limba română</description><Point><coordinates>25.583703,45.348790,0</coordinates></Point></Placemark>
<Placemark><LineString id="573_574"><tessellate>1</tessellate><coordinates>25.583703,45.348790,0.
25.615694,45.344027,0</coordinates></LineString><Style><LineStyle><width>3</width></LineStyle></Style></Placemark>
<Placemark><name>Piscul Câinelui</name><description>Nume: Piscul Câinelui, Tip: câini, Nivel: 2, Județ: Prahova, Formă: Înălțime, ID: 806 <br /><b>Variante</b><br />Nume: Piscul Câinelui, Hartă: Geomil 25000, Limbă: Limba română</description><Point><coordinates>25.776078,45.346366,0</coordinates></Point></Placemark>
<Placemark><name>Vâful Câinelui</name><description>Nume: Vâful Câinelui, Tip: câini, Nivel: 2, Județ: Prahova, Formă: Înălțime, ID: 574 <br /><b>Variante</b><br />Nume: Vâful Câinelui, Hartă: Geomil 25000, Limbă: Limba română<br />Nume: Vârful Cânelui, Hartă: PDT, Limbă: Limba română</description><Point><coordinates>25.615694,45.344027,0</coordinates></Point></Placemark>
<Placemark><name>Valea Câinelui</name><description>Nume: Valea Câinelui, Tip: câini, Nivel: 2, Județ: Prahova, Formă: Vale, ID: 572, ID Părinte: 574 <br /><b>Variante</b><br />Nume: Valea Câinelui, Hartă: Geomil 25000, Limbă: Limba română</description><Point><coordinates>25.573346,45.339269,0</coordinates></Point></Placemark>
<Placemark><LineString id="572_574"><tessellate>1</tessellate><coordinates>25.573346,45.339269,0.
25.615694,45.344027,0</coordinates></LineString><Style><LineStyle><width>3</width></LineStyle></Style></Placemark>
<Placemark><name>Valea Câinelui</name><description>Nume: Valea Câinelui, Tip: câini, Nivel: 2, Județ: Prahova, Formă: Vale, ID: 6037 <br /><b>Variante</b><br />Nume: Valea Câinelui, Hartă: Geomil 25000, Limbă: Limba română</description><Point><coordinates>26.331069,45.207899,0</coordinates></Point></Placemark>
<Placemark><name>Piscul Cățelei</name><description>Nume: Piscul Cățelei, Tip: cățea, Nivel: 3, Județ: Prahova, Formă: Înălțime, ID: 809 <br /><b>Variante</b><br />Nume: Piscul Cățelei, Hartă: Geomil 25000, Limbă: Limba română</description><Point><coordinates>25.926708,45.203976,0</coordinates></Point></Placemark>
<Placemark><name>Pârâu Câinelui</name><description>Nume: Pârâu Câinelui, Tip: câini, Nivel: 2, Județ: Salaj, Formă: Vale, ID: 14025 <br /><b>Variante</b><br />Nume: Pârâu Câinelui, Hartă: Geomil 25000, Limbă: Limba română</description><Point><coordinates>23.351940,46.957723,0</coordinates></Point></Placemark>
<Placemark><name>Dealul Cățelușul</name><description>Nume: Dealul Cățelușul, Tip: căței, Nivel: 4, Județ: Salaj, Formă: Deal, ID: 10385 <br /><b>Variante</b><br />Nume: Dealul Cățelușul, Hartă: PDT, Limbă: Limba română</description><Point><coordinates>23.241576,47.124925,0</coordinates></Point></Placemark>
<Placemark><name>Dealu Calea Cățelului</name><description>Nume: Dealu Calea Cățelului, Tip: cățel, Nivel: 3, Județ: Salaj, Formă: Deal, ID: 7534 <br /><b>Variante</b><br />Nume: Dealu Calea Cățelului, Hartă: Geomil 25000, Limbă: Limba română</description><Point><coordinates>23.033088,47.078422,0</coordinates></Point></Placemark>
<Placemark><name>Valea Câinelui</name><description>Nume: Valea Câinelui, Tip: câini, Nivel: 2, Județ: Satu Mare, Formă: Vale, ID: 4418 <br /><b>Variante</b><br />Nume: Valea Câinelui, Hartă: Geomil 25000, Limbă: Limba română</description><Point><coordinates>23.090539,47.621393,0</coordinates></Point></Placemark>
<Placemark><name>Spinarea Câinelui</name><description>Nume: Spinarea Câinelui, Tip: câini, Nivel: 2, Județ: Sibiu, Formă: Înălțime, ID: 4071 <br /><b>Variante</b><br />Nume: Spinarea Câinelui, Hartă: PDT, Limbă: Limba română</description><Point><coordinates>24.048093,45.792534,0</coordinates></Point></Placemark>
<Placemark><name>Pârâul Cânelui</name><description>Nume: Pârâul Cânelui, Tip: câini, Nivel: 2, Județ: Suceava, Formă: Vale, ID: 6394 <br /><b>Variante</b><br />Nume: Pârâul Cânelui, Hartă: PDT, Limbă: Limba română<br />Nume: Câinele, Hartă: Geomil 25000, Limbă: Limba română</description><Point><coordinates>25.639128,47.313483,0</coordinates></Point></Placemark>
<Placemark><name>Culmea Ogarului</name><description>Nume: Culmea Ogarului, Tip: ogari, Nivel: 3, Județ: Suceava, Formă: Înălțime, ID: 1773 <br /><b>Variante</b><br />Nume: Culmea Ogarului, Hartă: Geomil 25000, Limbă: Limba română</description><Point><coordinates>26.051683,47.328024,0</coordinates></Point></Placemark>
<Placemark><name>Pârâu Câinelui</name><description>Nume: Pârâu Câinelui, Tip: câini, Nivel: 2, Județ: Teleorman, Formă: Vale, ID: 10970 <br /><b>Variante</b><br />Nume: Pârâu Câinelui, Hartă: Geomil 25000, Limbă: Limba română</description><Point><coordinates>25.131399,44.254546,0</coordinates></Point></Placemark>
<Placemark><name>Pârâu Câinelui</name><description>Nume: Pârâu Câinelui, Tip: câini, Nivel: 2, Județ: Teleorman, Formă: Vale, ID: 12204 <br /><b>Variante</b><br />Nume: Pârâu Câinelui, Hartă: Geomil 25000, Limbă: Limba română</description><Point><coordinates>25.199877,44.204752,0</coordinates></Point></Placemark>
<Placemark><name>Movila Cățelu</name><description>Nume: Movila Cățelu, Tip: cățel, Nivel: 3, Județ: Teleorman, Formă: Înălțime, ID: 9023 <br /><b>Variante</b><br />Nume: Movila Cățelu, Hartă: PDT, Limbă: Limba română</description><Point><coordinates>25.386643,43.956905,0</coordinates></Point></Placemark>
<Placemark><name>Valea Ogarului</name><description>Nume: Valea Ogarului, Tip: ogari, Nivel: 3, Județ: Teleorman, Formă: Vale, ID: 3418, ID Părinte: 1343 <br /><b>Variante</b><br />Nume: Valea Ogarului, Hartă: PDT, Limbă: Limba română</description><Point><coordinates>25.441716,43.783801,0</coordinates></Point></Placemark>
<Placemark><LineString id="3418_1343"><tessellate>1</tessellate><coordinates>25.441716,43.783801,0.
25.456889,43.782322,0</coordinates></LineString><Style><LineStyle><width>3</width></LineStyle></Style></Placemark>
<Placemark><name>Valea Puțu Ogarului</name><description>Nume: Valea Puțu Ogarului, Tip: ogari, Nivel: 3, Județ: Teleorman, Formă: Vale, ID: 1343 <br /><b>Variante</b><br />Nume: Valea Puțu Ogarului, Hartă: Geomil 25000, Limbă: Limba română<br />Nume: Valea Puțul Ogarului, Hartă: PDT, Limbă: Limba română</description><Point><coordinates>25.456889,43.782322,0</coordinates></Point></Placemark>
<Placemark><name>Pădurea Pârâul Câinelui</name><description>Nume: Pădurea Pârâul Câinelui, Tip: câini, Nivel: 2, Județ: Valcea, Formă: Pădure, ID: 2937, ID Părinte: 2936 <br /><b>Variante</b><br />Nume: Pădurea Pârâul Câinelui, Hartă: Geomil 25000, Limbă: Limba română</description><Point><coordinates>24.208438,45.262321,0</coordinates></Point></Placemark>
<Placemark><LineString id="2937_2936"><tessellate>1</tessellate><coordinates>24.208438,45.262321,0.
24.191683,45.253815,0</coordinates></LineString><Style><LineStyle><width>3</width></LineStyle></Style></Placemark>
<Placemark><name>Pârâul Câinelui</name><description>Nume: Pârâul Câinelui, Tip: câini, Nivel: 2, Județ: Valcea, Formă: Înălțime, ID: 2938, ID Părinte: 2936 <br /><b>Variante</b><br />Nume: Pârâul Câinelui, Hartă: Geomil 25000, Limbă: Limba română</description><Point><coordinates>24.211539,45.266094,0</coordinates></Point></Placemark>
<Placemark><LineString id="2938_2936"><tessellate>1</tessellate><coordinates>24.211539,45.266094,0.
24.191683,45.253815,0</coordinates></LineString><Style><LineStyle><width>3</width></LineStyle></Style></Placemark>
<Placemark><name>Pârâul Câinelui</name><description>Nume: Pârâul Câinelui, Tip: câini, Nivel: 2, Județ: Valcea, Formă: Vale, ID: 2936 <br /><b>Variante</b><br />Nume: Pârâul Câinelui, Hartă: Geomil 25000, Limbă: Limba română</description><Point><coordinates>24.191683,45.253815,0</coordinates></Point></Placemark>
<Placemark><name>Cățelul</name><description>Nume: Cățelul, Tip: cățel, Nivel: 3, Județ: Valcea, Formă: Localitate, ID: 4755 <br /><b>Variante</b><br />Nume: Cățelul, Hartă: PDT, Limbă: Limba română</description><Point><coordinates>23.956629,44.826138,0</coordinates></Point></Placemark>
<Placemark><name>Valea Câinelui</name><description>Nume: Valea Câinelui, Tip: câini, Nivel: 2, Județ: Vaslui, Formă: Vale, ID: 11544 <br /><b>Variante</b><br />Nume: Valea Câinelui, Hartă: Geomil 25000, Limbă: Limba română</description><Point><coordinates>27.517767,46.443409,0</coordinates></Point></Placemark>
<Placemark><name>Pădurea Câinelui</name><description>Nume: Pădurea Câinelui, Tip: câini, Nivel: 2, Județ: Vrancea, Formă: Pădure, ID: 2097 <br /><b>Variante</b><br />Nume: Pădurea Câinelui, Hartă: Geomil 25000, Limbă: Limba română</description><Point><coordinates>26.767488,45.591135,0</coordinates></Point></Placemark>
<Placemark><name>Pârâul Câinelui</name><description>Nume: Pârâul Câinelui, Tip: câini, Nivel: 2, Județ: Vrancea, Formă: Vale, ID: 2797, ID Părinte: 2796 <br /><b>Variante</b><br />Nume: Pârâul Câinelui, Hartă: Geomil 25000, Limbă: Limba română</description><Point><coordinates>26.593850,45.920952,0</coordinates></Point></Placemark>
<Placemark><LineString id="2797_2796"><tessellate>1</tessellate><coordinates>26.593850,45.920952,0.
26.584886,45.920472,0</coordinates></LineString><Style><LineStyle><width>3</width></LineStyle></Style></Placemark>
<Placemark><name>Piscul Câinelui</name><description>Nume: Piscul Câinelui, Tip: câini, Nivel: 2, Județ: Vrancea, Formă: Înălțime, ID: 2796 <br /><b>Variante</b><br />Nume: Piscul Câinelui, Hartă: Geomil 25000, Limbă: Limba română</description><Point><coordinates>26.584886,45.920472,0</coordinates></Point></Placemark>
<Placemark><name>Poiana Câinelui</name><description>Nume: Poiana Câinelui, Tip: câini, Nivel: 2, Județ: Vrancea, Formă: Poiană, ID: 2795, ID Părinte: 2796 <br /><b>Variante</b><br />Nume: Poiana Câinelui, Hartă: Geomil 25000, Limbă: Limba română</description><Point><coordinates>26.605076,45.927259,0</coordinates></Point></Placemark>
<Placemark><LineString id="2795_2796"><tessellate>1</tessellate><coordinates>26.605076,45.927259,0.
26.584886,45.920472,0</coordinates></LineString><Style><LineStyle><width>3</width></LineStyle></Style></Placemark>
<Placemark><name>Coada Cățelei</name><description>Nume: Coada Cățelei, Tip: cățea, Nivel: 3, Județ: Vrancea, Formă: Înălțime, ID: 7916 <br /><b>Variante</b><br />Nume: Coada Cățelei, Hartă: Geomil 25000, Limbă: Limba română</description><Point><coordinates>26.539983,45.800318,0</coordinates></Point></Placemark>
<Placemark><name>Culmea Cățelei</name><description>Nume: Culmea Cățelei, Tip: cățea, Nivel: 3, Județ: Vrancea, Formă: Înălțime, ID: 7917, ID Părinte: 7916 <br /><b>Variante</b><br />Nume: Culmea Cățelei, Hartă: Geomil 25000, Limbă: Limba română</description><Point><coordinates>26.536696,45.798611,0</coordinates></Point></Placemark>
<Placemark><LineString id="7917_7916"><tessellate>1</tessellate><coordinates>26.536696,45.798611,0.
26.539983,45.800318,0</coordinates></LineString><Style><LineStyle><width>3</width></LineStyle></Style></Placemark>
<Placemark><name>Muntele Cățelei</name><description>Nume: Muntele Cățelei, Tip: cățea, Nivel: 3, Județ: Vrancea, Formă: Înălțime, ID: 7915, ID Părinte: 7916 <br /><b>Variante</b><br />Nume: Muntele Cățelei, Hartă: Geomil 25000, Limbă: Limba română</description><Point><coordinates>26.553577,45.800551,0</coordinates></Point></Placemark>
<Placemark><LineString id="7915_7916"><tessellate>1</tessellate><coordinates>26.553577,45.800551,0.
26.539983,45.800318,0</coordinates></LineString><Style><LineStyle><width>3</width></LineStyle></Style></Placemark>
<Placemark><name>Pârâul Cățelei</name><description>Nume: Pârâul Cățelei, Tip: cățea, Nivel: 3, Județ: Vrancea, Formă: Vale, ID: 7914, ID Părinte: 7916 <br /><b>Variante</b><br />Nume: Pârâul Cățelei, Hartă: Geomil 25000, Limbă: Limba română</description><Point><coordinates>26.553777,45.790408,0</coordinates></Point></Placemark>
<Placemark><LineString id="7914_7916"><tessellate>1</tessellate><coordinates>26.553777,45.790408,0.
26.539983,45.800318,0</coordinates></LineString><Style><LineStyle><width>3</width></LineStyle></Style></Placemark>
<Placemark><name>Muntele Cățeilor</name><description>Nume: Muntele Cățeilor, Tip: căței, Nivel: 4, Județ: Vrancea, Formă: Înălțime, ID: 9212 <br /><b>Variante</b><br />Nume: Muntele Cățeilor, Hartă: Geomil 25000, Limbă: Limba română</description><Point><coordinates>26.577063,45.992339,0</coordinates></Point></Placemark>
<Placemark><name>Piscul Cățelului</name><description>Nume: Piscul Cățelului, Tip: cățel, Nivel: 3, Județ: Vrancea, Formă: Înălțime, ID: 2136 <br /><b>Variante</b><br />Nume: Piscul Cățelului, Hartă: Geomil 25000, Limbă: Limba română</description><Point><coordinates>26.793671,45.850443,0</coordinates></Point></Placemark></Document></kml>