<?xml version="1.0" encoding="UTF-8"?><kml xmlns="http://www.opengis.net/kml/2.2"><Document><Placemark><name>Valea Groapa Țiganului</name><description>Nume: Valea Groapa Țiganului, Tip: țigan, Nivel: 3, Județ: Alba, Formă: Vale, ID: 7069 <br /><b>Variante</b><br />Nume: Valea Groapa Țiganului, Hartă: Geomil 25000, Limbă: Limba română</description><Point><coordinates>23.836225,46.411446,0</coordinates></Point></Placemark>
<Placemark><name>Coasta Țiganilor</name><description>Nume: Coasta Țiganilor, Tip: țigani, Nivel: 2, Județ: Alba, Formă: Înălțime, ID: 6746 <br /><b>Variante</b><br />Nume: Coasta Țiganilor, Hartă: Geomil 25000, Limbă: Limba română</description><Point><coordinates>23.586831,46.112750,0</coordinates></Point></Placemark>
<Placemark><name>Pădurea Țiganilor</name><description>Nume: Pădurea Țiganilor, Tip: țigani, Nivel: 2, Județ: Alba, Formă: Pădure, ID: 10575 <br /><b>Variante</b><br />Nume: Pădurea Țiganilor, Hartă: Imperiul Habsburgic (1887), Limbă: Limba română</description><Point><coordinates>23.733935,46.009908,0</coordinates></Point></Placemark>
<Placemark><name>Pârâul Țiganilor</name><description>Nume: Pârâul Țiganilor, Tip: țigani, Nivel: 2, Județ: Alba, Formă: Vale, ID: 8149 <br /><b>Variante</b><br />Nume: Pârâul Țiganilor, Hartă: PDT, Limbă: Limba română</description><Point><coordinates>23.964523,46.198410,0</coordinates></Point></Placemark>
<Placemark><name>Valea Țiganilor</name><description>Nume: Valea Țiganilor, Tip: țigani, Nivel: 2, Județ: Alba, Formă: Vale, ID: 1153 <br /><b>Variante</b><br />Nume: Valea Țiganilor, Hartă: Geomil 25000, Limbă: Limba română</description><Point><coordinates>23.633391,45.847199,0</coordinates></Point></Placemark>
<Placemark><name>Valea Țiganilor</name><description>Nume: Valea Țiganilor, Tip: țigani, Nivel: 2, Județ: Alba, Formă: Vale, ID: 11326 <br /><b>Variante</b><br />Nume: Valea Țiganilor, Hartă: Geomil 25000, Limbă: Limba română</description><Point><coordinates>23.138927,46.144812,0</coordinates></Point></Placemark>
<Placemark><name>Valea Țiganilor</name><description>Nume: Valea Țiganilor, Tip: țigani, Nivel: 2, Județ: Alba, Formă: Vale, ID: 13054 <br /><b>Variante</b><br />Nume: Valea Țiganilor, Hartă: Geomil 25000, Limbă: Limba română</description><Point><coordinates>22.834352,46.507291,0</coordinates></Point></Placemark>
<Placemark><name>Țigănia</name><description>Nume: Țigănia, Tip: țigănie, Nivel: 3, Județ: Alba, Formă: Altele, ID: 9392 <br /><b>Variante</b><br />Nume: Țigănia, Hartă: PDT, Limbă: Limba română</description><Point><coordinates>23.577175,45.949612,0</coordinates></Point></Placemark>
<Placemark><name>Țigănia</name><description>Nume: Țigănia, Tip: țigănie, Nivel: 3, Județ: Alba, Formă: Localitate, ID: 9393 <br /><b>Variante</b><br />Nume: Țigănia, Hartă: Geomil 25000, Limbă: Limba română<br />Nume: Țigănia, Hartă: PDT, Limbă: Limba română</description><Point><coordinates>23.343089,45.975836,0</coordinates></Point></Placemark>
<Placemark><name>Dâmbu Țiganului</name><description>Nume: Dâmbu Țiganului, Tip: țigan, Nivel: 3, Județ: Arad, Formă: Înălțime, ID: 1952 <br /><b>Variante</b><br />Nume: Dâmbu Țiganului, Hartă: Geomil 25000, Limbă: Limba română</description><Point><coordinates>21.755253,46.227636,0</coordinates></Point></Placemark>
<Placemark><name>Dealul Țiganului</name><description>Nume: Dealul Țiganului, Tip: țigan, Nivel: 3, Județ: Arad, Formă: Deal, ID: 9419 <br /><b>Variante</b><br />Nume: Dealul Țiganului, Hartă: PDT, Limbă: Limba română</description><Point><coordinates>21.696909,46.224164,0</coordinates></Point></Placemark>
<Placemark><name>Izvorul Țiganului</name><description>Nume: Izvorul Țiganului, Tip: țigan, Nivel: 3, Județ: Arad, Formă: Vale, ID: 4086 <br /><b>Variante</b><br />Nume: Izvorul Țiganului, Hartă: PDT, Limbă: Limba română</description><Point><coordinates>22.165086,46.535354,0</coordinates></Point></Placemark>
<Placemark><name>Pârâul Țiganului</name><description>Nume: Pârâul Țiganului, Tip: țigan, Nivel: 3, Județ: Arad, Formă: Vale, ID: 9417 <br /><b>Variante</b><br />Nume: Pârâul Țiganului, Hartă: PDT, Limbă: Limba română</description><Point><coordinates>22.075446,46.154044,0</coordinates></Point></Placemark>
<Placemark><name>Valea Țiganului</name><description>Nume: Valea Țiganului, Tip: țigan, Nivel: 3, Județ: Arad, Formă: Vale, ID: 10219 <br /><b>Variante</b><br />Nume: Valea Țiganului, Hartă: Geomil 25000, Limbă: Limba română</description><Point><coordinates>22.284456,46.154959,0</coordinates></Point></Placemark>
<Placemark><name>Vârfu Crucea Țiganului</name><description>Nume: Vârfu Crucea Țiganului, Tip: țigan, Nivel: 3, Județ: Arad, Formă: Înălțime, ID: 9414 <br /><b>Variante</b><br />Nume: Vârfu Crucea Țiganului, Hartă: Geomil 25000, Limbă: Limba română</description><Point><coordinates>21.732594,46.189386,0</coordinates></Point></Placemark>
<Placemark><name>Calea Țigăncii</name><description>Nume: Calea Țigăncii, Tip: țigancă, Nivel: 3, Județ: Arad, Formă: Drum, ID: 1093 <br /><b>Variante</b><br />Nume: Calea Țigăncii, Hartă: Geomil 25000, Limbă: Limba română</description><Point><coordinates>21.542811,46.343602,0</coordinates></Point></Placemark>
<Placemark><name>Pârâu Țiganca</name><description>Nume: Pârâu Țiganca, Tip: țigancă, Nivel: 3, Județ: Arad, Formă: Vale, ID: 14248 <br /><b>Variante</b><br />Nume: Pârâu Țiganca, Hartă: Geomil 25000, Limbă: Limba română</description><Point><coordinates>21.329118,46.151313,0</coordinates></Point></Placemark>
<Placemark><name>Dealu Țigani</name><description>Nume: Dealu Țigani, Tip: țigani, Nivel: 2, Județ: Arad, Formă: Deal, ID: 1945 <br /><b>Variante</b><br />Nume: Dealu Țigani, Hartă: Geomil 25000, Limbă: Limba română</description><Point><coordinates>22.224923,46.362935,0</coordinates></Point></Placemark>
<Placemark><name>Dealu Țiganilor</name><description>Nume: Dealu Țiganilor, Tip: țigani, Nivel: 2, Județ: Arad, Formă: Deal, ID: 972 <br /><b>Variante</b><br />Nume: Dealu Țiganilor, Hartă: Geomil 25000, Limbă: Limba română<br />Nume: Dealu Țiganilor, Hartă: PDT, Limbă: Limba română</description><Point><coordinates>22.135037,46.420479,0</coordinates></Point></Placemark>
<Placemark><name>Dealul Țiganilor</name><description>Nume: Dealul Țiganilor, Tip: țigani, Nivel: 2, Județ: Arad, Formă: Deal, ID: 4108 <br /><b>Variante</b><br />Nume: Dealul Țiganilor, Hartă: PDT, Limbă: Limba română</description><Point><coordinates>22.038604,46.632276,0</coordinates></Point></Placemark>
<Placemark><name>Dosul Țiganilor</name><description>Nume: Dosul Țiganilor, Tip: țigani, Nivel: 2, Județ: Arad, Formă: Înălțime, ID: 7661 <br /><b>Variante</b><br />Nume: Dosul Țiganilor, Hartă: PDT, Limbă: Limba română</description><Point><coordinates>22.157064,46.469890,0</coordinates></Point></Placemark>
<Placemark><name>Pârâu Țiganilor</name><description>Nume: Pârâu Țiganilor, Tip: țigani, Nivel: 2, Județ: Arad, Formă: Vale, ID: 10364 <br /><b>Variante</b><br />Nume: Pârâu Țiganilor, Hartă: Geomil 25000, Limbă: Limba română</description><Point><coordinates>22.301361,46.191461,0</coordinates></Point></Placemark>
<Placemark><name>Pârâul Țiganilor</name><description>Nume: Pârâul Țiganilor, Tip: țigani, Nivel: 2, Județ: Arad, Formă: Vale, ID: 6298 <br /><b>Variante</b><br />Nume: Pârâul Țiganilor, Hartă: PDT, Limbă: Limba română</description><Point><coordinates>21.638012,46.155718,0</coordinates></Point></Placemark>
<Placemark><name>Pârâul Țiganilor</name><description>Nume: Pârâul Țiganilor, Tip: țigani, Nivel: 2, Județ: Arad, Formă: Vale, ID: 9422 <br /><b>Variante</b><br />Nume: Pârâul Țiganilor, Hartă: PDT, Limbă: Limba română</description><Point><coordinates>21.583830,46.060725,0</coordinates></Point></Placemark>
<Placemark><name>Vale Tziganilor</name><description>Nume: Vale Tziganilor, Tip: țigani, Nivel: 2, Județ: Arad, Formă: Vale, ID: 10290 <br /><b>Variante</b><br />Nume: Vale Tziganilor, Hartă: Ungară 1869, Limbă: Limba română</description><Point><coordinates>22.201684,46.269007,0</coordinates></Point></Placemark>
<Placemark><name>Valea Țiganilor</name><description>Nume: Valea Țiganilor, Tip: țigani, Nivel: 2, Județ: Arad, Formă: Vale, ID: 6300, ID Părinte: 13954 <br /><b>Variante</b><br />Nume: Valea Țiganilor, Hartă: PDT, Limbă: Limba română</description><Point><coordinates>21.681094,46.104191,0</coordinates></Point></Placemark>
<Placemark><LineString id="6300_13954"><tessellate>1</tessellate><coordinates>21.681094,46.104191,0.
21.668924,46.118318,0</coordinates></LineString><Style><LineStyle><width>3</width></LineStyle></Style></Placemark>
<Placemark><name>Valea Țiganilor</name><description>Nume: Valea Țiganilor, Tip: țigani, Nivel: 2, Județ: Arad, Formă: Vale, ID: 12508 <br /><b>Variante</b><br />Nume: Valea Țiganilor, Hartă: Imperiul Habsburgic (1887), Limbă: Limba română</description><Point><coordinates>22.656381,46.234873,0</coordinates></Point></Placemark>
<Placemark><name>Valea Țiganilor</name><description>Nume: Valea Țiganilor, Tip: țigani, Nivel: 2, Județ: Arad, Formă: Vale, ID: 15593 <br /><b>Variante</b><br />Nume: Valea Țiganilor, Hartă: ANCPI, Limbă: Limba română</description><Point><coordinates>21.571903,46.094086,0</coordinates></Point></Placemark>
<Placemark><name>Zigeunerdf. (Satul Țiganilor)</name><description>Nume: Zigeunerdf. (Satul Țiganilor), Tip: țigani, Nivel: 2, Județ: Arad, Formă: Localitate, ID: 10537 <br /><b>Variante</b><br />Nume: Zigeunerdf. (Satul Țiganilor), Hartă: Imperiul Habsburgic (1887), Limbă: Limba germană</description><Point><coordinates>21.295823,46.189378,0</coordinates></Point></Placemark>
<Placemark><name>La Țigănie</name><description>Nume: La Țigănie, Tip: țigănie, Nivel: 3, Județ: Arad, Formă: Altele, ID: 5641 <br /><b>Variante</b><br />Nume: La Țigănie, Hartă: PDT, Limbă: Limba română</description><Point><coordinates>21.141707,46.125987,0</coordinates></Point></Placemark>
<Placemark><name>Fântâna la Țigăniște</name><description>Nume: Fântâna la Țigăniște, Tip: țigăniște, Nivel: 4, Județ: Arad, Formă: Altele, ID: 8044 <br /><b>Variante</b><br />Nume: Fântâna la Țigăniște, Hartă: PDT, Limbă: Limba română</description><Point><coordinates>21.836926,46.583136,0</coordinates></Point></Placemark>
<Placemark><name>Pârâul Țigăniște</name><description>Nume: Pârâul Țigăniște, Tip: țigăniște, Nivel: 4, Județ: Arad, Formă: Vale, ID: 15262 <br /><b>Variante</b><br />Nume: Pârâul Țigăniște, Hartă: PDT, Limbă: Limba română</description><Point><coordinates>22.043593,46.527403,0</coordinates></Point></Placemark>
<Placemark><name>Culmea Țiganului</name><description>Nume: Culmea Țiganului, Tip: țigan, Nivel: 3, Județ: Arges, Formă: Înălțime, ID: 4988, ID Părinte: 4989 <br /><b>Variante</b><br />Nume: Culmea Țiganului, Hartă: Geomil 25000, Limbă: Limba română</description><Point><coordinates>24.793991,45.383795,0</coordinates></Point></Placemark>
<Placemark><LineString id="4988_4989"><tessellate>1</tessellate><coordinates>24.793991,45.383795,0.
24.792303,45.381088,0</coordinates></LineString><Style><LineStyle><width>3</width></LineStyle></Style></Placemark>
<Placemark><name>Dealu Țiganului</name><description>Nume: Dealu Țiganului, Tip: țigan, Nivel: 3, Județ: Arges, Formă: Deal, ID: 538 <br /><b>Variante</b><br />Nume: Dealu Țiganului, Hartă: Geomil 25000, Limbă: Limba română</description><Point><coordinates>25.099108,44.994523,0</coordinates></Point></Placemark>
<Placemark><name>Dealu Țiganului</name><description>Nume: Dealu Țiganului, Tip: țigan, Nivel: 3, Județ: Arges, Formă: Deal, ID: 547 <br /><b>Variante</b><br />Nume: Dealu Țiganului, Hartă: Geomil 25000, Limbă: Limba română</description><Point><coordinates>24.916077,44.912446,0</coordinates></Point></Placemark>
<Placemark><name>Eleșteul Țiganului</name><description>Nume: Eleșteul Țiganului, Tip: țigan, Nivel: 3, Județ: Arges, Formă: Apă-deal-câmpie, ID: 8306, ID Părinte: 8307 <br /><b>Variante</b><br />Nume: Eleșteul Țiganului, Hartă: PDT, Limbă: Limba română<br />Nume: Heleșteu Țiganului, Hartă: Geomil 25000, Limbă: Limba română</description><Point><coordinates>25.054336,44.563802,0</coordinates></Point></Placemark>
<Placemark><LineString id="8306_8307"><tessellate>1</tessellate><coordinates>25.054336,44.563802,0.
25.051953,44.573391,0</coordinates></LineString><Style><LineStyle><width>3</width></LineStyle></Style></Placemark>
<Placemark><name>Gâlma Țiganului</name><description>Nume: Gâlma Țiganului, Tip: țigan, Nivel: 3, Județ: Arges, Formă: Înălțime, ID: 9801 <br /><b>Variante</b><br />Nume: Gâlma Țiganului, Hartă: PDT, Limbă: Limba română</description><Point><coordinates>25.253333,45.454978,0</coordinates></Point></Placemark>
<Placemark><name>La Dumbrava Țiganului</name><description>Nume: La Dumbrava Țiganului, Tip: țigan, Nivel: 3, Județ: Arges, Formă: Poiană, ID: 1522 <br /><b>Variante</b><br />Nume: La Dumbrava Țiganului, Hartă: Geomil 25000, Limbă: Limba română<br />Nume: La Dumbrava Țiganului, Hartă: PDT, Limbă: Limba română</description><Point><coordinates>25.050917,44.925594,0</coordinates></Point></Placemark>
<Placemark><name>Muchia Țiganului</name><description>Nume: Muchia Țiganului, Tip: țigan, Nivel: 3, Județ: Arges, Formă: Înălțime, ID: 5073 <br /><b>Variante</b><br />Nume: Muchia Țiganului, Hartă: Geomil 25000, Limbă: Limba română<br />Nume: Muchia Țiganului, Hartă: PDT, Limbă: Limba română</description><Point><coordinates>24.789153,45.345419,0</coordinates></Point></Placemark>
<Placemark><name>Pârâul Țiganului</name><description>Nume: Pârâul Țiganului, Tip: țigan, Nivel: 3, Județ: Arges, Formă: Vale, ID: 5069 <br /><b>Variante</b><br />Nume: Pârâul Țiganului, Hartă: PDT, Limbă: Limba română</description><Point><coordinates>24.633862,45.249472,0</coordinates></Point></Placemark>
<Placemark><name>Pârâul Țiganului</name><description>Nume: Pârâul Țiganului, Tip: țigan, Nivel: 3, Județ: Arges, Formă: Vale, ID: 8309 <br /><b>Variante</b><br />Nume: Pârâul Țiganului, Hartă: PDT, Limbă: Limba română</description><Point><coordinates>25.116896,44.608739,0</coordinates></Point></Placemark>
<Placemark><name>Poiana Țiganului</name><description>Nume: Poiana Țiganului, Tip: țigan, Nivel: 3, Județ: Arges, Formă: Poiană, ID: 8358, ID Părinte: 1522 <br /><b>Variante</b><br />Nume: Poiana Țiganului, Hartă: PDT, Limbă: Limba română</description><Point><coordinates>25.053488,44.922375,0</coordinates></Point></Placemark>
<Placemark><LineString id="8358_1522"><tessellate>1</tessellate><coordinates>25.053488,44.922375,0.
25.050917,44.925594,0</coordinates></LineString><Style><LineStyle><width>3</width></LineStyle></Style></Placemark>
<Placemark><name>Țiganul</name><description>Nume: Țiganul, Tip: țigan, Nivel: 3, Județ: Arges, Formă: Vale, ID: 4990, ID Părinte: 4989 <br /><b>Variante</b><br />Nume: Țiganul, Hartă: Geomil 25000, Limbă: Limba română</description><Point><coordinates>24.794906,45.377154,0</coordinates></Point></Placemark>
<Placemark><LineString id="4990_4989"><tessellate>1</tessellate><coordinates>24.794906,45.377154,0.
24.792303,45.381088,0</coordinates></LineString><Style><LineStyle><width>3</width></LineStyle></Style></Placemark>
<Placemark><name>Vâceaua Țiganului</name><description>Nume: Vâceaua Țiganului, Tip: țigan, Nivel: 3, Județ: Arges, Formă: Altele, ID: 3391 <br /><b>Variante</b><br />Nume: Vâceaua Țiganului, Hartă: Geomil 25000, Limbă: Limba română</description><Point><coordinates>25.115907,44.471047,0</coordinates></Point></Placemark>
<Placemark><name>Valea Țiganului</name><description>Nume: Valea Țiganului, Tip: țigan, Nivel: 3, Județ: Arges, Formă: Vale, ID: 1401 <br /><b>Variante</b><br />Nume: Valea Țiganului, Hartă: Geomil 25000, Limbă: Limba română</description><Point><coordinates>24.858762,44.681637,0</coordinates></Point></Placemark>
<Placemark><name>Valea Țiganului</name><description>Nume: Valea Țiganului, Tip: țigan, Nivel: 3, Județ: Arges, Formă: Vale, ID: 4989 <br /><b>Variante</b><br />Nume: Valea Țiganului, Hartă: Geomil 25000, Limbă: Limba română</description><Point><coordinates>24.792303,45.381088,0</coordinates></Point></Placemark>
<Placemark><name>Valea Țiganului</name><description>Nume: Valea Țiganului, Tip: țigan, Nivel: 3, Județ: Arges, Formă: Vale, ID: 8307 <br /><b>Variante</b><br />Nume: Valea Țiganului, Hartă: Geomil 25000, Limbă: Limba română<br />Nume: Valea Țiganului, Hartă: PDT, Limbă: Limba română</description><Point><coordinates>25.051953,44.573391,0</coordinates></Point></Placemark>
<Placemark><name>Valea Țiganului</name><description>Nume: Valea Țiganului, Tip: țigan, Nivel: 3, Județ: Arges, Formă: Vale, ID: 9489 <br /><b>Variante</b><br />Nume: Valea Țiganului, Hartă: PDT, Limbă: Limba română</description><Point><coordinates>24.793014,44.486206,0</coordinates></Point></Placemark>
<Placemark><name>Valea Țiganului</name><description>Nume: Valea Țiganului, Tip: țigan, Nivel: 3, Județ: Arges, Formă: Vale, ID: 10140 <br /><b>Variante</b><br />Nume: Valea Țiganului, Hartă: Geomil 25000, Limbă: Limba română</description><Point><coordinates>25.142671,44.847510,0</coordinates></Point></Placemark>
<Placemark><name>Valea Țiganului</name><description>Nume: Valea Țiganului, Tip: țigan, Nivel: 3, Județ: Arges, Formă: Vale, ID: 10999 <br /><b>Variante</b><br />Nume: Valea Țiganului, Hartă: PDT, Limbă: Limba română</description><Point><coordinates>24.732067,44.642243,0</coordinates></Point></Placemark>
<Placemark><name>Valea Țiganului</name><description>Nume: Valea Țiganului, Tip: țigan, Nivel: 3, Județ: Arges, Formă: Vale, ID: 11189 <br /><b>Variante</b><br />Nume: Valea Țiganului, Hartă: ANCPI, Limbă: Limba română</description><Point><coordinates>24.739571,44.622788,0</coordinates></Point></Placemark>
<Placemark><name>Valea Țiganului</name><description>Nume: Valea Țiganului, Tip: țigan, Nivel: 3, Județ: Arges, Formă: Vale, ID: 14181 <br /><b>Variante</b><br />Nume: Valea Țiganului, Hartă: PDT, Limbă: Limba română</description><Point><coordinates>24.927880,44.548699,0</coordinates></Point></Placemark>
<Placemark><name>Valea Țiganului</name><description>Nume: Valea Țiganului, Tip: țigan, Nivel: 3, Județ: Arges, Formă: Vale, ID: 15422 <br /><b>Variante</b><br />Nume: Valea Țiganului, Hartă: PDT, Limbă: Limba română</description><Point><coordinates>24.872856,45.015351,0</coordinates></Point></Placemark>
<Placemark><name>Culmea Țiganca Mare</name><description>Nume: Culmea Țiganca Mare, Tip: țigancă, Nivel: 3, Județ: Arges, Formă: Înălțime, ID: 5024 <br /><b>Variante</b><br />Nume: Culmea Țiganca Mare, Hartă: Geomil 25000, Limbă: Limba română</description><Point><coordinates>25.041554,45.427293,0</coordinates></Point></Placemark>
<Placemark><name>Dealul Țigăncei</name><description>Nume: Dealul Țigăncei, Tip: țigancă, Nivel: 3, Județ: Arges, Formă: Deal, ID: 3406 <br /><b>Variante</b><br />Nume: Dealul Țigăncei, Hartă: PDT, Limbă: Limba română</description><Point><coordinates>24.743747,44.709254,0</coordinates></Point></Placemark>
<Placemark><name>Poiana Țigăncei</name><description>Nume: Poiana Țigăncei, Tip: țigancă, Nivel: 3, Județ: Arges, Formă: Poiană, ID: 8832 <br /><b>Variante</b><br />Nume: Poiana Țigăncei, Hartă: PDT, Limbă: Limba română</description><Point><coordinates>25.047183,45.092760,0</coordinates></Point></Placemark>
<Placemark><name>Valea Țiganca</name><description>Nume: Valea Țiganca, Tip: țigancă, Nivel: 3, Județ: Arges, Formă: Vale, ID: 4780 <br /><b>Variante</b><br />Nume: Valea Țiganca, Hartă: PDT, Limbă: Limba română</description><Point><coordinates>24.777745,44.749699,0</coordinates></Point></Placemark>
<Placemark><name>Valea Țigăncei</name><description>Nume: Valea Țigăncei, Tip: țigancă, Nivel: 3, Județ: Arges, Formă: Vale, ID: 3407, ID Părinte: 3406 <br /><b>Variante</b><br />Nume: Valea Țigăncei, Hartă: PDT, Limbă: Limba română</description><Point><coordinates>24.745096,44.707082,0</coordinates></Point></Placemark>
<Placemark><LineString id="3407_3406"><tessellate>1</tessellate><coordinates>24.745096,44.707082,0.
24.743747,44.709254,0</coordinates></LineString><Style><LineStyle><width>3</width></LineStyle></Style></Placemark>
<Placemark><name>Valea Țigăncii</name><description>Nume: Valea Țigăncii, Tip: țigancă, Nivel: 3, Județ: Arges, Formă: Vale, ID: 88 <br /><b>Variante</b><br />Nume: Valea Țigăncii, Hartă: Geomil 25000, Limbă: Limba română<br />Nume: Valea Țigănei, Hartă: PDT, Limbă: Limba română<br />Nume: дол. Цигэнчи (val. Țigăncii), Hartă: Sovietică, Limbă: Limba română</description><Point><coordinates>24.641450,44.946676,0</coordinates></Point></Placemark>
<Placemark><name>Valea Țigăncii</name><description>Nume: Valea Țigăncii, Tip: țigancă, Nivel: 3, Județ: Arges, Formă: Vale, ID: 8346 <br /><b>Variante</b><br />Nume: Valea Țigăncii, Hartă: Geomil 25000, Limbă: Limba română</description><Point><coordinates>24.736848,44.961991,0</coordinates></Point></Placemark>
<Placemark><name>Țigănești</name><description>Nume: Țigănești, Tip: țigănești, Nivel: 3, Județ: Arges, Formă: Localitate, ID: 10157 <br /><b>Variante</b><br />Nume: Țigănești, Hartă: PDT, Limbă: Limba română</description><Point><coordinates>25.088389,44.850238,0</coordinates></Point></Placemark>
<Placemark><name>Pârâul Țiganilor</name><description>Nume: Pârâul Țiganilor, Tip: țigani, Nivel: 2, Județ: Arges, Formă: Vale, ID: 4776 <br /><b>Variante</b><br />Nume: Pârâul Țiganilor, Hartă: PDT, Limbă: Limba română</description><Point><coordinates>24.771558,44.663281,0</coordinates></Point></Placemark>
<Placemark><name>Valea Țiganilor</name><description>Nume: Valea Țiganilor, Tip: țigani, Nivel: 2, Județ: Arges, Formă: Vale, ID: 14173 <br /><b>Variante</b><br />Nume: Valea Țiganilor, Hartă: PDT, Limbă: Limba română</description><Point><coordinates>25.024491,45.010545,0</coordinates></Point></Placemark>
<Placemark><name>Valea Țigăniei</name><description>Nume: Valea Țigăniei, Tip: țigănie, Nivel: 3, Județ: Arges, Formă: Vale, ID: 562 <br /><b>Variante</b><br />Nume: Valea Țigăniei, Hartă: Geomil 25000, Limbă: Limba română<br />Nume: Valea Țigăniei, Hartă: PDT, Limbă: Limba română</description><Point><coordinates>24.947479,45.190451,0</coordinates></Point></Placemark>
<Placemark><name>Dealul Ursarului</name><description>Nume: Dealul Ursarului, Tip: ursar, Nivel: 4, Județ: Arges, Formă: Deal, ID: 15421 <br /><b>Variante</b><br />Nume: Dealul Ursarului, Hartă: PDT, Limbă: Limba română</description><Point><coordinates>24.963768,44.955334,0</coordinates></Point></Placemark>
<Placemark><name>Argintăria</name><description>Nume: Argintăria, Tip: argintărie, Nivel: 4, Județ: Bacau, Formă: Vale, ID: 12942 <br /><b>Variante</b><br />Nume: Argintăria, Hartă: Geomil 25000, Limbă: Limba română</description><Point><coordinates>26.761154,46.131748,0</coordinates></Point></Placemark>
<Placemark><name>Argintăria</name><description>Nume: Argintăria, Tip: argintărie, Nivel: 4, Județ: Bacau, Formă: Vale, ID: 14079 <br /><b>Variante</b><br />Nume: Argintăria, Hartă: Geomil 25000, Limbă: Limba română</description><Point><coordinates>26.342762,46.268343,0</coordinates></Point></Placemark>
<Placemark><name>La Argintărie</name><description>Nume: La Argintărie, Tip: argintărie, Nivel: 4, Județ: Bacau, Formă: Altele, ID: 15205 <br /><b>Variante</b><br />Nume: La Argintărie, Hartă: Munții noștri, Limbă: Limba română</description><Point><coordinates>26.365422,46.247727,0</coordinates></Point></Placemark>
<Placemark><name>Pădurea Argintăriei</name><description>Nume: Pădurea Argintăriei, Tip: argintărie, Nivel: 4, Județ: Bacau, Formă: Pădure, ID: 10941 <br /><b>Variante</b><br />Nume: Pădurea Argintăriei, Hartă: Geomil 25000, Limbă: Limba română</description><Point><coordinates>26.308255,46.564786,0</coordinates></Point></Placemark>
<Placemark><name>Valea Argintăriei</name><description>Nume: Valea Argintăriei, Tip: argintărie, Nivel: 4, Județ: Bacau, Formă: Vale, ID: 7929 <br /><b>Variante</b><br />Nume: Valea Argintăriei, Hartă: PDT, Limbă: Limba română</description><Point><coordinates>26.563831,46.384408,0</coordinates></Point></Placemark>
<Placemark><name>Lingurari</name><description>Nume: Lingurari, Tip: lingurari, Nivel: 3, Județ: Bacau, Formă: Localitate, ID: 7832 <br /><b>Variante</b><br />Nume: Lingurari, Hartă: Geomil 25000, Limbă: Limba română</description><Point><coordinates>26.994889,46.235834,0</coordinates></Point></Placemark>
<Placemark><name>Lingurari</name><description>Nume: Lingurari, Tip: lingurari, Nivel: 3, Județ: Bacau, Formă: Localitate, ID: 9599 <br /><b>Variante</b><br />Nume: Lingurari, Hartă: Moldova (1892-1898), Limbă: Limba română</description><Point><coordinates>26.745802,46.625359,0</coordinates></Point></Placemark>
<Placemark><name>Poiana Lingurari</name><description>Nume: Poiana Lingurari, Tip: lingurari, Nivel: 3, Județ: Bacau, Formă: Poiană, ID: 12342, ID Părinte: 9599 <br /><b>Variante</b><br />Nume: Poiana Lingurari, Hartă: PDT, Limbă: Limba română</description><Point><coordinates>26.732097,46.640550,0</coordinates></Point></Placemark>
<Placemark><LineString id="12342_9599"><tessellate>1</tessellate><coordinates>26.732097,46.640550,0.
26.745802,46.625359,0</coordinates></LineString><Style><LineStyle><width>3</width></LineStyle></Style></Placemark>
<Placemark><name>Valea Lingurari</name><description>Nume: Valea Lingurari, Tip: lingurari, Nivel: 3, Județ: Bacau, Formă: Vale, ID: 8868 <br /><b>Variante</b><br />Nume: Valea Lingurari, Hartă: PDT, Limbă: Limba română</description><Point><coordinates>27.210519,46.682589,0</coordinates></Point></Placemark>
<Placemark><name>Valea Lingurarilor</name><description>Nume: Valea Lingurarilor, Tip: lingurari, Nivel: 3, Județ: Bacau, Formă: Vale, ID: 7831, ID Părinte: 7832 <br /><b>Variante</b><br />Nume: Valea Lingurarilor, Hartă: Geomil 25000, Limbă: Limba română</description><Point><coordinates>26.974161,46.236494,0</coordinates></Point></Placemark>
<Placemark><LineString id="7831_7832"><tessellate>1</tessellate><coordinates>26.974161,46.236494,0.
26.994889,46.235834,0</coordinates></LineString><Style><LineStyle><width>3</width></LineStyle></Style></Placemark>
<Placemark><name>Dealul Țiganului</name><description>Nume: Dealul Țiganului, Tip: țigan, Nivel: 3, Județ: Bacau, Formă: Deal, ID: 3913 <br /><b>Variante</b><br />Nume: Dealul Țiganului, Hartă: Geomil 25000, Limbă: Limba română</description><Point><coordinates>27.052585,46.446140,0</coordinates></Point></Placemark>
<Placemark><name>Dealul Țiganului</name><description>Nume: Dealul Țiganului, Tip: țigan, Nivel: 3, Județ: Bacau, Formă: Deal, ID: 5337 <br /><b>Variante</b><br />Nume: Dealul Țiganului, Hartă: PDT, Limbă: Limba română</description><Point><coordinates>27.094227,46.030754,0</coordinates></Point></Placemark>
<Placemark><name>La Țigan</name><description>Nume: La Țigan, Tip: țigan, Nivel: 3, Județ: Bacau, Formă: Altele, ID: 5329 <br /><b>Variante</b><br />Nume: La Țigan, Hartă: PDT, Limbă: Limba română</description><Point><coordinates>26.685223,46.301486,0</coordinates></Point></Placemark>
<Placemark><name>Pârâul Țiganului</name><description>Nume: Pârâul Țiganului, Tip: țigan, Nivel: 3, Județ: Bacau, Formă: Vale, ID: 5298 <br /><b>Variante</b><br />Nume: Pârâul Țiganului, Hartă: PDT, Limbă: Limba română</description><Point><coordinates>26.652775,46.119344,0</coordinates></Point></Placemark>
<Placemark><name>Piciorul Țiganului</name><description>Nume: Piciorul Țiganului, Tip: țigan, Nivel: 3, Județ: Bacau, Formă: Altele, ID: 3828, ID Părinte: 3827 <br /><b>Variante</b><br />Nume: Piciorul Țiganului, Hartă: Geomil 25000, Limbă: Limba română</description><Point><coordinates>26.678399,46.625749,0</coordinates></Point></Placemark>
<Placemark><LineString id="3828_3827"><tessellate>1</tessellate><coordinates>26.678399,46.625749,0.
26.681127,46.628018,0</coordinates></LineString><Style><LineStyle><width>3</width></LineStyle></Style></Placemark>
<Placemark><name>Piciorul Țiganului</name><description>Nume: Piciorul Țiganului, Tip: țigan, Nivel: 3, Județ: Bacau, Formă: Altele, ID: 3833 <br /><b>Variante</b><br />Nume: Piciorul Țiganului, Hartă: Geomil 25000, Limbă: Limba română</description><Point><coordinates>26.698812,46.596788,0</coordinates></Point></Placemark>
<Placemark><name>Poiana Țiganului</name><description>Nume: Poiana Țiganului, Tip: țigan, Nivel: 3, Județ: Bacau, Formă: Poiană, ID: 3827 <br /><b>Variante</b><br />Nume: Poiana Țiganului, Hartă: Geomil 25000, Limbă: Limba română</description><Point><coordinates>26.681127,46.628018,0</coordinates></Point></Placemark>
<Placemark><name>Poiana Țiganului</name><description>Nume: Poiana Țiganului, Tip: țigan, Nivel: 3, Județ: Bacau, Formă: Poiană, ID: 7817 <br /><b>Variante</b><br />Nume: Poiana Țiganului, Hartă: Geomil 25000, Limbă: Limba română</description><Point><coordinates>26.884757,46.404846,0</coordinates></Point></Placemark>
<Placemark><name>Puțu Țiganului</name><description>Nume: Puțu Țiganului, Tip: țigan, Nivel: 3, Județ: Bacau, Formă: Altele, ID: 9149 <br /><b>Variante</b><br />Nume: Puțu Țiganului, Hartă: PDT, Limbă: Limba română</description><Point><coordinates>26.711352,46.760507,0</coordinates></Point></Placemark>
<Placemark><name>Valea Țiganului</name><description>Nume: Valea Țiganului, Tip: țigan, Nivel: 3, Județ: Bacau, Formă: Vale, ID: 3911 <br /><b>Variante</b><br />Nume: Valea Țiganului, Hartă: Geomil 25000, Limbă: Limba română</description><Point><coordinates>27.002477,46.471830,0</coordinates></Point></Placemark>
<Placemark><name>Dealul Țigăncii</name><description>Nume: Dealul Țigăncii, Tip: țigancă, Nivel: 3, Județ: Bacau, Formă: Deal, ID: 12249 <br /><b>Variante</b><br />Nume: Dealul Țigăncii, Hartă: Geomil 25000, Limbă: Limba română</description><Point><coordinates>27.089518,46.457121,0</coordinates></Point></Placemark>
<Placemark><name>În Țiganca</name><description>Nume: În Țiganca, Tip: țigancă, Nivel: 3, Județ: Bacau, Formă: Altele, ID: 1613 <br /><b>Variante</b><br />Nume: În Țiganca, Hartă: Geomil 25000, Limbă: Limba română</description><Point><coordinates>26.991164,46.662378,0</coordinates></Point></Placemark>
<Placemark><name>Râpa Țigăncii</name><description>Nume: Râpa Țigăncii, Tip: țigancă, Nivel: 3, Județ: Bacau, Formă: Altele, ID: 1714 <br /><b>Variante</b><br />Nume: Râpa Țigăncii, Hartă: Geomil 25000, Limbă: Limba română</description><Point><coordinates>27.330161,46.213182,0</coordinates></Point></Placemark>
<Placemark><name>Valea Țigăncii</name><description>Nume: Valea Țigăncii, Tip: țigancă, Nivel: 3, Județ: Bacau, Formă: Vale, ID: 1612, ID Părinte: 1613 <br /><b>Variante</b><br />Nume: Valea Țigăncii, Hartă: Geomil 25000, Limbă: Limba română</description><Point><coordinates>26.976340,46.676164,0</coordinates></Point></Placemark>
<Placemark><LineString id="1612_1613"><tessellate>1</tessellate><coordinates>26.976340,46.676164,0.
26.991164,46.662378,0</coordinates></LineString><Style><LineStyle><width>3</width></LineStyle></Style></Placemark>
<Placemark><name>Dealul Țigănești</name><description>Nume: Dealul Țigănești, Tip: țigănești, Nivel: 3, Județ: Bacau, Formă: Deal, ID: 7889 <br /><b>Variante</b><br />Nume: Dealul Țigănești, Hartă: PDT, Limbă: Limba română</description><Point><coordinates>27.208520,46.351224,0</coordinates></Point></Placemark>
<Placemark><name>Țigănești</name><description>Nume: Țigănești, Tip: țigănești, Nivel: 3, Județ: Bacau, Formă: Localitate, ID: 7848 <br /><b>Variante</b><br />Nume: Țigănești, Hartă: Geomil 25000, Limbă: Limba română</description><Point><coordinates>27.260429,46.396386,0</coordinates></Point></Placemark>
<Placemark><name>Valea Țigănești</name><description>Nume: Valea Țigănești, Tip: țigănești, Nivel: 3, Județ: Bacau, Formă: Vale, ID: 7890, ID Părinte: 7889 <br /><b>Variante</b><br />Nume: Valea Țigănești, Hartă: PDT, Limbă: Limba română</description><Point><coordinates>27.209061,46.342222,0</coordinates></Point></Placemark>
<Placemark><LineString id="7890_7889"><tessellate>1</tessellate><coordinates>27.209061,46.342222,0.
27.208520,46.351224,0</coordinates></LineString><Style><LineStyle><width>3</width></LineStyle></Style></Placemark>
<Placemark><name>Dealul Țiganilor</name><description>Nume: Dealul Țiganilor, Tip: țigani, Nivel: 2, Județ: Bacau, Formă: Deal, ID: 7842 <br /><b>Variante</b><br />Nume: Dealul Țiganilor, Hartă: Geomil 25000, Limbă: Limba română</description><Point><coordinates>27.141196,46.309641,0</coordinates></Point></Placemark>
<Placemark><name>Dealul Țiganilor</name><description>Nume: Dealul Țiganilor, Tip: țigani, Nivel: 2, Județ: Bacau, Formă: Deal, ID: 9525 <br /><b>Variante</b><br />Nume: Dealul Țiganilor, Hartă: Moldova (1892-1898), Limbă: Limba română</description><Point><coordinates>27.080999,46.189962,0</coordinates></Point></Placemark>
<Placemark><name>Podu Țiganilor</name><description>Nume: Podu Țiganilor, Tip: țigani, Nivel: 2, Județ: Bacau, Formă: Altele, ID: 9516 <br /><b>Variante</b><br />Nume: Podu Țiganilor, Hartă: PDT, Limbă: Limba română</description><Point><coordinates>26.938910,46.483921,0</coordinates></Point></Placemark>
<Placemark><name>Wale Ziganilor</name><description>Nume: Wale Ziganilor, Tip: țigani, Nivel: 2, Județ: Bacau, Formă: Localitate, ID: 12338 <br /><b>Variante</b><br />Nume: Wale Ziganilor, Hartă: Moldova (1788-1790), Limbă: Limba română</description><Point><coordinates>26.595243,46.306647,0</coordinates></Point></Placemark>
<Placemark><name>Țigănime</name><description>Nume: Țigănime, Tip: țigănime, Nivel: 4, Județ: Bacau, Formă: Altele, ID: 9517 <br /><b>Variante</b><br />Nume: Țigănime, Hartă: PDT, Limbă: Limba română</description><Point><coordinates>26.947336,46.469455,0</coordinates></Point></Placemark>
<Placemark><name>Țigănoaia</name><description>Nume: Țigănoaia, Tip: tiganoaia, Nivel: 4, Județ: Bacau, Formă: Altele, ID: 13154 <br /><b>Variante</b><br />Nume: Țigănoaia, Hartă: Geomil 25000, Limbă: Limba română</description><Point><coordinates>26.704327,46.513501,0</coordinates></Point></Placemark>
<Placemark><name>Ursarul</name><description>Nume: Ursarul, Tip: ursar, Nivel: 4, Județ: Bacau, Formă: Vale, ID: 5285 <br /><b>Variante</b><br />Nume: Ursarul, Hartă: Geomil 25000, Limbă: Limba română</description><Point><coordinates>26.947470,46.090142,0</coordinates></Point></Placemark>
<Placemark><name>Zlătăreasa</name><description>Nume: Zlătăreasa, Tip: zlătăreasă, Nivel: 4, Județ: Bacau, Formă: Localitate, ID: 9521 <br /><b>Variante</b><br />Nume: Zlătăreasa, Hartă: Moldova (1892-1898), Limbă: Limba română</description><Point><coordinates>27.235242,46.361898,0</coordinates></Point></Placemark>
<Placemark><name>Zlătari</name><description>Nume: Zlătari, Tip: zlătari, Nivel: 3, Județ: Bacau, Formă: Localitate, ID: 9505 <br /><b>Variante</b><br />Nume: Zlătari, Hartă: PDT, Limbă: Limba română</description><Point><coordinates>27.116878,46.504137,0</coordinates></Point></Placemark>
<Placemark><name>Dealul Țiganului</name><description>Nume: Dealul Țiganului, Tip: țigan, Nivel: 3, Județ: Bihor, Formă: Deal, ID: 4138 <br /><b>Variante</b><br />Nume: Dealul Țiganului, Hartă: PDT, Limbă: Limba română</description><Point><coordinates>22.191773,46.857795,0</coordinates></Point></Placemark>
<Placemark><name>Dealul Țiganului</name><description>Nume: Dealul Țiganului, Tip: țigan, Nivel: 3, Județ: Bihor, Formă: Deal, ID: 4190 <br /><b>Variante</b><br />Nume: Dealul Țiganului, Hartă: PDT, Limbă: Limba română</description><Point><coordinates>22.383841,47.157855,0</coordinates></Point></Placemark>
<Placemark><name>Dealul Țiganului</name><description>Nume: Dealul Țiganului, Tip: țigan, Nivel: 3, Județ: Bihor, Formă: Deal, ID: 4193 <br /><b>Variante</b><br />Nume: Dealul Țiganului, Hartă: PDT, Limbă: Limba română</description><Point><coordinates>22.322708,47.219113,0</coordinates></Point></Placemark>
<Placemark><name>Tăul Țiganului</name><description>Nume: Tăul Țiganului, Tip: țigan, Nivel: 3, Județ: Bihor, Formă: Vale, ID: 10279 <br /><b>Variante</b><br />Nume: Tăul Țiganului, Hartă: PDT, Limbă: Limba română</description><Point><coordinates>22.650929,46.898720,0</coordinates></Point></Placemark>
<Placemark><name>Țiganul</name><description>Nume: Țiganul, Tip: țigan, Nivel: 3, Județ: Bihor, Formă: , ID: 4155 <br /><b>Variante</b><br />Nume: Țiganul, Hartă: PDT, Limbă: Limba română</description><Point><coordinates>22.343600,46.959908,0</coordinates></Point></Placemark>
<Placemark><name>Valea Țiganului</name><description>Nume: Valea Țiganului, Tip: țigan, Nivel: 3, Județ: Bihor, Formă: Vale, ID: 1009 <br /><b>Variante</b><br />Nume: Valea Țiganului, Hartă: Geomil 25000, Limbă: Limba română</description><Point><coordinates>22.317981,46.836824,0</coordinates></Point></Placemark>
<Placemark><name>Valea Țiganului</name><description>Nume: Valea Țiganului, Tip: țigan, Nivel: 3, Județ: Bihor, Formă: Vale, ID: 1078 <br /><b>Variante</b><br />Nume: Valea Țiganului, Hartă: Geomil 25000, Limbă: Limba română</description><Point><coordinates>22.241935,46.890268,0</coordinates></Point></Placemark>
<Placemark><name>Valea Țiganului</name><description>Nume: Valea Țiganului, Tip: țigan, Nivel: 3, Județ: Bihor, Formă: Vale, ID: 1080 <br /><b>Variante</b><br />Nume: Valea Țiganului, Hartă: Geomil 25000, Limbă: Limba română</description><Point><coordinates>22.267698,46.874716,0</coordinates></Point></Placemark>
<Placemark><name>Valea Țiganului</name><description>Nume: Valea Țiganului, Tip: țigan, Nivel: 3, Județ: Bihor, Formă: Vale, ID: 4135 <br /><b>Variante</b><br />Nume: Valea Țiganului, Hartă: PDT, Limbă: Limba română<br />Nume: Valea Țiganului, Hartă: Geomil 25000, Limbă: Limba română</description><Point><coordinates>22.324437,46.844458,0</coordinates></Point></Placemark>
<Placemark><name>Valea Țiganului</name><description>Nume: Valea Țiganului, Tip: țigan, Nivel: 3, Județ: Bihor, Formă: Vale, ID: 4177, ID Părinte: 4190 <br /><b>Variante</b><br />Nume: Valea Țiganului, Hartă: Geomil 25000, Limbă: Limba română<br />Nume: Valea Țiganului, Hartă: PDT, Limbă: Limba română</description><Point><coordinates>22.409562,47.157276,0</coordinates></Point></Placemark>
<Placemark><LineString id="4177_4190"><tessellate>1</tessellate><coordinates>22.409562,47.157276,0.
22.383841,47.157855,0</coordinates></LineString><Style><LineStyle><width>3</width></LineStyle></Style></Placemark>
<Placemark><name>Valea Țiganului</name><description>Nume: Valea Țiganului, Tip: țigan, Nivel: 3, Județ: Bihor, Formă: Vale, ID: 4197, ID Părinte: 4195 <br /><b>Variante</b><br />Nume: Valea Țiganului, Hartă: PDT, Limbă: Limba română<br />Nume: Valea Țiganilor, Hartă: Geomil 25000, Limbă: Limba română</description><Point><coordinates>22.277846,47.179323,0</coordinates></Point></Placemark>
<Placemark><LineString id="4197_4195"><tessellate>1</tessellate><coordinates>22.277846,47.179323,0.
22.242126,47.186647,0</coordinates></LineString><Style><LineStyle><width>3</width></LineStyle></Style></Placemark>
<Placemark><name>Valea Țiganului</name><description>Nume: Valea Țiganului, Tip: țigan, Nivel: 3, Județ: Bihor, Formă: Vale, ID: 14808 <br /><b>Variante</b><br />Nume: Valea Țiganului, Hartă: PDT, Limbă: Limba română</description><Point><coordinates>22.647395,46.545535,0</coordinates></Point></Placemark>
<Placemark><name>Vârful Țiganului</name><description>Nume: Vârful Țiganului, Tip: țigan, Nivel: 3, Județ: Bihor, Formă: Înălțime, ID: 8205, ID Părinte: 4190 <br /><b>Variante</b><br />Nume: Vârful Țiganului, Hartă: PDT, Limbă: Limba română</description><Point><coordinates>22.411215,47.140779,0</coordinates></Point></Placemark>
<Placemark><LineString id="8205_4190"><tessellate>1</tessellate><coordinates>22.411215,47.140779,0.
22.383841,47.157855,0</coordinates></LineString><Style><LineStyle><width>3</width></LineStyle></Style></Placemark>
<Placemark><name>Valea Țigăncii</name><description>Nume: Valea Țigăncii, Tip: țigancă, Nivel: 3, Județ: Bihor, Formă: Vale, ID: 4196, ID Părinte: 4195 <br /><b>Variante</b><br />Nume: Valea Țigăncii, Hartă: PDT, Limbă: Limba română</description><Point><coordinates>22.247694,47.175360,0</coordinates></Point></Placemark>
<Placemark><LineString id="4196_4195"><tessellate>1</tessellate><coordinates>22.247694,47.175360,0.
22.242126,47.186647,0</coordinates></LineString><Style><LineStyle><width>3</width></LineStyle></Style></Placemark>
<Placemark><name>Țigăneasca</name><description>Nume: Țigăneasca, Tip: țigănească, Nivel: 3, Județ: Bihor, Formă: Altele, ID: 4140 <br /><b>Variante</b><br />Nume: Țigăneasca, Hartă: PDT, Limbă: Limba română</description><Point><coordinates>22.157243,46.883449,0</coordinates></Point></Placemark>
<Placemark><name>Câmpu Țiganilor</name><description>Nume: Câmpu Țiganilor, Tip: țigani, Nivel: 2, Județ: Bihor, Formă: Câmp, ID: 6981 <br /><b>Variante</b><br />Nume: Câmpu Țiganilor, Hartă: Geomil 25000, Limbă: Limba română</description><Point><coordinates>21.768195,46.903592,0</coordinates></Point></Placemark>
<Placemark><name>Chicera Țiganilor</name><description>Nume: Chicera Țiganilor, Tip: țigani, Nivel: 2, Județ: Bihor, Formă: Înălțime, ID: 5625 <br /><b>Variante</b><br />Nume: Chicera Țiganilor, Hartă: PDT, Limbă: Limba română</description><Point><coordinates>22.468444,46.412855,0</coordinates></Point></Placemark>
<Placemark><name>Czigany Rekettye</name><description>Nume: Czigany Rekettye, Tip: țigani, Nivel: 2, Județ: Bihor, Formă: Altele, ID: 15517 <br /><b>Variante</b><br />Nume: Czigany Rekettye, Hartă: Ungară 1869, Limbă: Limba maghiară</description><Point><coordinates>21.716266,46.749174,0</coordinates></Point></Placemark>
<Placemark><name>Fântâna Țiganilor</name><description>Nume: Fântâna Țiganilor, Tip: țigani, Nivel: 2, Județ: Bihor, Formă: Altele, ID: 11865 <br /><b>Variante</b><br />Nume: Fântâna Țiganilor, Hartă: PDT, Limbă: Limba română</description><Point><coordinates>22.019078,47.213266,0</coordinates></Point></Placemark>
<Placemark><name>La Țigani</name><description>Nume: La Țigani, Tip: țigani, Nivel: 2, Județ: Bihor, Formă: Altele, ID: 11667 <br /><b>Variante</b><br />Nume: La Țigani, Hartă: ANCPI, Limbă: Limba română</description><Point><coordinates>21.505371,46.680656,0</coordinates></Point></Placemark>
<Placemark><name>Pădurea Țiganilor</name><description>Nume: Pădurea Țiganilor, Tip: țigani, Nivel: 2, Județ: Bihor, Formă: Pădure, ID: 4195 <br /><b>Variante</b><br />Nume: Pădurea Țiganilor, Hartă: PDT, Limbă: Limba română<br />Nume: Pădurea Țiganului, Hartă: Geomil 25000, Limbă: Limba română</description><Point><coordinates>22.242126,47.186647,0</coordinates></Point></Placemark>
<Placemark><name>Țigăneștii de Beiuș</name><description>Nume: Țigăneștii de Beiuș, Tip: țigani, Nivel: 2, Județ: Bihor, Formă: Localitate, ID: 4072 <br /><b>Variante</b><br />Nume: Țigăneștii de Beiuș, Hartă: PDT, Limbă: Limba română<br />Nume: Țigăneștii de Beiuș, Hartă: Geomil 25000, Limbă: Limba română</description><Point><coordinates>22.412312,46.627842,0</coordinates></Point></Placemark>
<Placemark><name>Țigăneștii de Criș</name><description>Nume: Țigăneștii de Criș, Tip: țigani, Nivel: 2, Județ: Bihor, Formă: Localitate, ID: 4187 <br /><b>Variante</b><br />Nume: Țigăneștii de Criș, Hartă: PDT, Limbă: Limba română</description><Point><coordinates>22.278923,47.126793,0</coordinates></Point></Placemark>
<Placemark><name>Țigani</name><description>Nume: Țigani, Tip: țigani, Nivel: 2, Județ: Bihor, Formă: Altele, ID: 7675 <br /><b>Variante</b><br />Nume: Țigani, Hartă: PDT, Limbă: Limba română</description><Point><coordinates>22.012812,47.157559,0</coordinates></Point></Placemark>
<Placemark><name>Valea Țiganilor</name><description>Nume: Valea Țiganilor, Tip: țigani, Nivel: 2, Județ: Bihor, Formă: Vale, ID: 1088 <br /><b>Variante</b><br />Nume: Valea Țiganilor, Hartă: Geomil 25000, Limbă: Limba română</description><Point><coordinates>22.114867,46.670850,0</coordinates></Point></Placemark>
<Placemark><name>Valea Țiganilor</name><description>Nume: Valea Țiganilor, Tip: țigani, Nivel: 2, Județ: Bihor, Formă: Vale, ID: 14037 <br /><b>Variante</b><br />Nume: Valea Țiganilor, Hartă: PDT, Limbă: Limba română</description><Point><coordinates>22.389435,46.777308,0</coordinates></Point></Placemark>
<Placemark><name>Vârfu Țigănoiu</name><description>Nume: Vârfu Țigănoiu, Tip: țigănoiu, Nivel: 4, Județ: Bihor, Formă: Înălțime, ID: 13419 <br /><b>Variante</b><br />Nume: Vârfu Țigănoiu, Hartă: Geomil 25000, Limbă: Limba română<br />Nume: Vurvu Tziganoi, Hartă: Ungară 1869, Limbă: Limba română</description><Point><coordinates>22.416550,46.758036,0</coordinates></Point></Placemark>
<Placemark><name>Groapa Țiganului</name><description>Nume: Groapa Țiganului, Tip: țigan, Nivel: 3, Județ: Bistrita Nasaud, Formă: Altele, ID: 9054 <br /><b>Variante</b><br />Nume: Groapa Țiganului, Hartă: PDT, Limbă: Limba română</description><Point><coordinates>24.543125,46.892434,0</coordinates></Point></Placemark>
<Placemark><name>Plaiul Țiganului</name><description>Nume: Plaiul Țiganului, Tip: țigan, Nivel: 3, Județ: Bistrita Nasaud, Formă: Înălțime, ID: 4488 <br /><b>Variante</b><br />Nume: Plaiul Țiganului, Hartă: Geomil 25000, Limbă: Limba română</description><Point><coordinates>24.395402,47.532566,0</coordinates></Point></Placemark>
<Placemark><name>Valea Țiganului</name><description>Nume: Valea Țiganului, Tip: țigan, Nivel: 3, Județ: Bistrita Nasaud, Formă: Vale, ID: 15275 <br /><b>Variante</b><br />Nume: Valea Țiganului, Hartă: PDT, Limbă: Limba română</description><Point><coordinates>24.077015,47.224388,0</coordinates></Point></Placemark>
<Placemark><name>Vârful Țigăncii</name><description>Nume: Vârful Țigăncii, Tip: țigancă, Nivel: 3, Județ: Bistrita Nasaud, Formă: Înălțime, ID: 5431 <br /><b>Variante</b><br />Nume: Vârful Țigăncii, Hartă: Geomil 25000, Limbă: Limba română</description><Point><coordinates>24.962463,47.120159,0</coordinates></Point></Placemark>
<Placemark><name>Vârful Țigăneasca</name><description>Nume: Vârful Țigăneasca, Tip: țigănească, Nivel: 3, Județ: Bistrita Nasaud, Formă: Înălțime, ID: 5486 <br /><b>Variante</b><br />Nume: Vârful Țigăneasca, Hartă: Geomil 25000, Limbă: Limba română<br />Nume: Vârful Țigăneasca, Hartă: PDT, Limbă: Limba română</description><Point><coordinates>24.347317,47.020022,0</coordinates></Point></Placemark>
<Placemark><name>Hornul Țiganilor</name><description>Nume: Hornul Țiganilor, Tip: țigani, Nivel: 2, Județ: Bistrita Nasaud, Formă: Altele, ID: 5487, ID Părinte: 5486 <br /><b>Variante</b><br />Nume: Hornul Țiganilor, Hartă: Geomil 25000, Limbă: Limba română</description><Point><coordinates>24.345636,47.016034,0</coordinates></Point></Placemark>
<Placemark><LineString id="5487_5486"><tessellate>1</tessellate><coordinates>24.345636,47.016034,0.
24.347317,47.020022,0</coordinates></LineString><Style><LineStyle><width>3</width></LineStyle></Style></Placemark>
<Placemark><name>La Țigani</name><description>Nume: La Țigani, Tip: țigani, Nivel: 2, Județ: Bistrita Nasaud, Formă: Altele, ID: 7114 <br /><b>Variante</b><br />Nume: La Țigani, Hartă: PDT, Limbă: Limba română</description><Point><coordinates>24.391035,47.293817,0</coordinates></Point></Placemark>
<Placemark><name>Pârâul Țiganilor</name><description>Nume: Pârâul Țiganilor, Tip: țigani, Nivel: 2, Județ: Bistrita Nasaud, Formă: Vale, ID: 9905 <br /><b>Variante</b><br />Nume: Pârâul Țiganilor, Hartă: Geomil 25000, Limbă: Limba română</description><Point><coordinates>24.714259,47.137765,0</coordinates></Point></Placemark>
<Placemark><name>Valea Țigăniloru</name><description>Nume: Valea Țigăniloru, Tip: țigani, Nivel: 2, Județ: Bistrita Nasaud, Formă: Vale, ID: 10650 <br /><b>Variante</b><br />Nume: Valea Țigăniloru, Hartă: Imperiul Habsburgic (1887), Limbă: Limba română</description><Point><coordinates>24.352702,47.074638,0</coordinates></Point></Placemark>
<Placemark><name>Zigeunerlager (Tabăra Țiganilor)</name><description>Nume: Zigeunerlager (Tabăra Țiganilor), Tip: țigani, Nivel: 2, Județ: Bistrita Nasaud, Formă: Altele, ID: 10644 <br /><b>Variante</b><br />Nume: Zigeunerlager (Tabăra Țiganilor), Hartă: Imperiul Habsburgic (1887), Limbă: Limba germană</description><Point><coordinates>24.635782,47.188935,0</coordinates></Point></Placemark>
<Placemark><name>În Țigănie</name><description>Nume: În Țigănie, Tip: țigănie, Nivel: 3, Județ: Bistrita Nasaud, Formă: Localitate, ID: 11999 <br /><b>Variante</b><br />Nume: În Țigănie, Hartă: PDT, Limbă: Limba română</description><Point><coordinates>24.006710,47.199862,0</coordinates></Point></Placemark>
<Placemark><name>Dealul Lingurari</name><description>Nume: Dealul Lingurari, Tip: lingurari, Nivel: 3, Județ: Botosani, Formă: Deal, ID: 14588 <br /><b>Variante</b><br />Nume: Dealul Lingurari, Hartă: PDT, Limbă: Limba română</description><Point><coordinates>26.742545,47.579172,0</coordinates></Point></Placemark>
<Placemark><name>La Balta Lingurarilor</name><description>Nume: La Balta Lingurarilor, Tip: lingurari, Nivel: 3, Județ: Botosani, Formă: Apă-deal-câmpie, ID: 8936 <br /><b>Variante</b><br />Nume: La Balta Lingurarilor, Hartă: Geomil 25000, Limbă: Limba română</description><Point><coordinates>27.253737,47.765600,0</coordinates></Point></Placemark>
<Placemark><name>Lingurari</name><description>Nume: Lingurari, Tip: lingurari, Nivel: 3, Județ: Botosani, Formă: Localitate, ID: 14589 <br /><b>Variante</b><br />Nume: Lingurari, Hartă: PDT, Limbă: Limba română</description><Point><coordinates>26.768510,47.611781,0</coordinates></Point></Placemark>
<Placemark><name>Poiana Lingurarilor</name><description>Nume: Poiana Lingurarilor, Tip: lingurari, Nivel: 3, Județ: Botosani, Formă: Poiană, ID: 9562 <br /><b>Variante</b><br />Nume: Poiana Lingurarilor, Hartă: Geomil 25000, Limbă: Limba română</description><Point><coordinates>26.800114,47.505616,0</coordinates></Point></Placemark>
<Placemark><name>Balta Țiganului</name><description>Nume: Balta Țiganului, Tip: țigan, Nivel: 3, Județ: Botosani, Formă: Apă-deal-câmpie, ID: 1765 <br /><b>Variante</b><br />Nume: Balta Țiganului, Hartă: Geomil 25000, Limbă: Limba română</description><Point><coordinates>26.595354,47.503686,0</coordinates></Point></Placemark>
<Placemark><name>Dealul Lanul Țiganului</name><description>Nume: Dealul Lanul Țiganului, Tip: țigan, Nivel: 3, Județ: Botosani, Formă: Deal, ID: 2364 <br /><b>Variante</b><br />Nume: Dealul Lanul Țiganului, Hartă: Geomil 25000, Limbă: Limba română</description><Point><coordinates>27.003202,47.583186,0</coordinates></Point></Placemark>
<Placemark><name>Dealul Țiganului</name><description>Nume: Dealul Țiganului, Tip: țigan, Nivel: 3, Județ: Botosani, Formă: Deal, ID: 1812 <br /><b>Variante</b><br />Nume: Dealul Țiganului, Hartă: Geomil 25000, Limbă: Limba română</description><Point><coordinates>26.578266,48.117797,0</coordinates></Point></Placemark>
<Placemark><name>Dealul Țiganului</name><description>Nume: Dealul Țiganului, Tip: țigan, Nivel: 3, Județ: Botosani, Formă: Deal, ID: 2398 <br /><b>Variante</b><br />Nume: Dealul Țiganului, Hartă: Geomil 25000, Limbă: Limba română</description><Point><coordinates>26.856224,48.026849,0</coordinates></Point></Placemark>
<Placemark><name>Fântâna Țiganului</name><description>Nume: Fântâna Țiganului, Tip: țigan, Nivel: 3, Județ: Botosani, Formă: Altele, ID: 2015, ID Părinte: 14093 <br /><b>Variante</b><br />Nume: Fântâna Țiganului, Hartă: Geomil 25000, Limbă: Limba română</description><Point><coordinates>26.337275,48.116762,0</coordinates></Point></Placemark>
<Placemark><LineString id="2015_14093"><tessellate>1</tessellate><coordinates>26.337275,48.116762,0.
26.327524,48.122040,0</coordinates></LineString><Style><LineStyle><width>3</width></LineStyle></Style></Placemark>
<Placemark><name>Gârla Țiganului</name><description>Nume: Gârla Țiganului, Tip: țigan, Nivel: 3, Județ: Botosani, Formă: Vale, ID: 14091 <br /><b>Variante</b><br />Nume: Gârla Țiganului, Hartă: Geomil 25000, Limbă: Limba română</description><Point><coordinates>26.238052,48.056596,0</coordinates></Point></Placemark>
<Placemark><name>Movila Țiganului</name><description>Nume: Movila Țiganului, Tip: țigan, Nivel: 3, Județ: Botosani, Formă: , ID: 2409 <br /><b>Variante</b><br />Nume: Movila Țiganului, Hartă: Geomil 25000, Limbă: Limba română<br />Nume: Movila Țiganului, Hartă: PDT, Limbă: Limba română</description><Point><coordinates>26.731080,47.882693,0</coordinates></Point></Placemark>
<Placemark><name>Pârâul Țiganu</name><description>Nume: Pârâul Țiganu, Tip: țigan, Nivel: 3, Județ: Botosani, Formă: Vale, ID: 7766 <br /><b>Variante</b><br />Nume: Pârâul Țiganu, Hartă: PDT, Limbă: Limba română</description><Point><coordinates>26.693579,47.752541,0</coordinates></Point></Placemark>
<Placemark><name>Țiganul</name><description>Nume: Țiganul, Tip: țigan, Nivel: 3, Județ: Botosani, Formă: Vale, ID: 14092 <br /><b>Variante</b><br />Nume: Țiganul, Hartă: Geomil 25000, Limbă: Limba română</description><Point><coordinates>26.343011,48.032677,0</coordinates></Point></Placemark>
<Placemark><name>Valea Țiganului</name><description>Nume: Valea Țiganului, Tip: țigan, Nivel: 3, Județ: Botosani, Formă: Vale, ID: 1814 <br /><b>Variante</b><br />Nume: Valea Țiganului, Hartă: Geomil 25000, Limbă: Limba română</description><Point><coordinates>26.627726,48.056704,0</coordinates></Point></Placemark>
<Placemark><name>Valea Țiganului</name><description>Nume: Valea Țiganului, Tip: țigan, Nivel: 3, Județ: Botosani, Formă: Vale, ID: 2399 <br /><b>Variante</b><br />Nume: Valea Țiganului, Hartă: Geomil 25000, Limbă: Limba română</description><Point><coordinates>26.868117,48.031393,0</coordinates></Point></Placemark>
<Placemark><name>Valea Țiganului</name><description>Nume: Valea Țiganului, Tip: țigan, Nivel: 3, Județ: Botosani, Formă: Vale, ID: 7765 <br /><b>Variante</b><br />Nume: Valea Țiganului, Hartă: PDT, Limbă: Limba română</description><Point><coordinates>26.726700,47.760490,0</coordinates></Point></Placemark>
<Placemark><name>Valea Țiganului</name><description>Nume: Valea Țiganului, Tip: țigan, Nivel: 3, Județ: Botosani, Formă: Vale, ID: 14093 <br /><b>Variante</b><br />Nume: Valea Țiganului, Hartă: Geomil 25000, Limbă: Limba română</description><Point><coordinates>26.327524,48.122040,0</coordinates></Point></Placemark>
<Placemark><name>Dealul Țigăncii</name><description>Nume: Dealul Țigăncii, Tip: țigancă, Nivel: 3, Județ: Botosani, Formă: Deal, ID: 1803 <br /><b>Variante</b><br />Nume: Dealul Țigăncii, Hartă: Geomil 25000, Limbă: Limba română</description><Point><coordinates>26.425173,47.867593,0</coordinates></Point></Placemark>
<Placemark><name>Dealul Țigăncii</name><description>Nume: Dealul Țigăncii, Tip: țigancă, Nivel: 3, Județ: Botosani, Formă: Deal, ID: 2360 <br /><b>Variante</b><br />Nume: Dealul Țigăncii, Hartă: Geomil 25000, Limbă: Limba română</description><Point><coordinates>26.718710,47.589458,0</coordinates></Point></Placemark>
<Placemark><name>Dealul Țigăncii</name><description>Nume: Dealul Țigăncii, Tip: țigancă, Nivel: 3, Județ: Botosani, Formă: Deal, ID: 2366 <br /><b>Variante</b><br />Nume: Dealul Țigăncii, Hartă: Geomil 25000, Limbă: Limba română</description><Point><coordinates>27.079442,47.475338,0</coordinates></Point></Placemark>
<Placemark><name>Lacul din Țiganca</name><description>Nume: Lacul din Țiganca, Tip: țigancă, Nivel: 3, Județ: Botosani, Formă: Lac, ID: 2354 <br /><b>Variante</b><br />Nume: Lacul din Țiganca, Hartă: Geomil 25000, Limbă: Limba română</description><Point><coordinates>26.865231,47.695503,0</coordinates></Point></Placemark>
<Placemark><name>Pădurea la Țiganca</name><description>Nume: Pădurea la Țiganca, Tip: țigancă, Nivel: 3, Județ: Botosani, Formă: Pădure, ID: 1761 <br /><b>Variante</b><br />Nume: Pădurea la Țiganca, Hartă: Geomil 25000, Limbă: Limba română</description><Point><coordinates>26.856531,47.589827,0</coordinates></Point></Placemark>
<Placemark><name>Pădurea Țigăncii</name><description>Nume: Pădurea Țigăncii, Tip: țigancă, Nivel: 3, Județ: Botosani, Formă: Pădure, ID: 2361 <br /><b>Variante</b><br />Nume: Pădurea Țigăncii, Hartă: Geomil 25000, Limbă: Limba română</description><Point><coordinates>26.694847,47.570911,0</coordinates></Point></Placemark>
<Placemark><name>Țiganca</name><description>Nume: Țiganca, Tip: țigancă, Nivel: 3, Județ: Botosani, Formă: Vale, ID: 14089 <br /><b>Variante</b><br />Nume: Țiganca, Hartă: Geomil 25000, Limbă: Limba română</description><Point><coordinates>26.178582,47.977150,0</coordinates></Point></Placemark>
<Placemark><name>Valea Țigăncii</name><description>Nume: Valea Țigăncii, Tip: țigancă, Nivel: 3, Județ: Botosani, Formă: Vale, ID: 1762, ID Părinte: 1761 <br /><b>Variante</b><br />Nume: Valea Țigăncii, Hartă: Geomil 25000, Limbă: Limba română</description><Point><coordinates>26.851168,47.597578,0</coordinates></Point></Placemark>
<Placemark><LineString id="1762_1761"><tessellate>1</tessellate><coordinates>26.851168,47.597578,0.
26.856531,47.589827,0</coordinates></LineString><Style><LineStyle><width>3</width></LineStyle></Style></Placemark>
<Placemark><name>Valea Țigăncii</name><description>Nume: Valea Țigăncii, Tip: țigancă, Nivel: 3, Județ: Botosani, Formă: Vale, ID: 2355, ID Părinte: 2354 <br /><b>Variante</b><br />Nume: Valea Țigăncii, Hartă: Geomil 25000, Limbă: Limba română</description><Point><coordinates>26.864949,47.692328,0</coordinates></Point></Placemark>
<Placemark><LineString id="2355_2354"><tessellate>1</tessellate><coordinates>26.864949,47.692328,0.
26.865231,47.695503,0</coordinates></LineString><Style><LineStyle><width>3</width></LineStyle></Style></Placemark>
<Placemark><name>Valea Țigăncii</name><description>Nume: Valea Țigăncii, Tip: țigancă, Nivel: 3, Județ: Botosani, Formă: Vale, ID: 2380 <br /><b>Variante</b><br />Nume: Valea Țigăncii, Hartă: Geomil 25000, Limbă: Limba română</description><Point><coordinates>26.940551,47.713321,0</coordinates></Point></Placemark>
<Placemark><name>Valea Țigăncii</name><description>Nume: Valea Țigăncii, Tip: țigancă, Nivel: 3, Județ: Botosani, Formă: Vale, ID: 4913, ID Părinte: 1803 <br /><b>Variante</b><br />Nume: Valea Țigăncii, Hartă: PDT, Limbă: Limba română</description><Point><coordinates>26.439282,47.864467,0</coordinates></Point></Placemark>
<Placemark><LineString id="4913_1803"><tessellate>1</tessellate><coordinates>26.439282,47.864467,0.
26.425173,47.867593,0</coordinates></LineString><Style><LineStyle><width>3</width></LineStyle></Style></Placemark>
<Placemark><name>Țigăneasca</name><description>Nume: Țigăneasca, Tip: țigănească, Nivel: 3, Județ: Botosani, Formă: Altele, ID: 7776 <br /><b>Variante</b><br />Nume: Țigăneasca, Hartă: Geomil 25000, Limbă: Limba română<br />Nume: Țigăneasca, Hartă: PDT, Limbă: Limba română</description><Point><coordinates>26.544589,47.629806,0</coordinates></Point></Placemark>
<Placemark><name>Pârâul Țiganilor</name><description>Nume: Pârâul Țiganilor, Tip: țigani, Nivel: 2, Județ: Botosani, Formă: Vale, ID: 14065 <br /><b>Variante</b><br />Nume: Pârâul Țiganilor, Hartă: Geomil 25000, Limbă: Limba română</description><Point><coordinates>26.628758,47.515329,0</coordinates></Point></Placemark>
<Placemark><name>Țigani</name><description>Nume: Țigani, Tip: țigani, Nivel: 2, Județ: Botosani, Formă: Altele, ID: 7773 <br /><b>Variante</b><br />Nume: Țigani, Hartă: PDT, Limbă: Limba română</description><Point><coordinates>26.590655,47.625626,0</coordinates></Point></Placemark>
<Placemark><name>Valea Țigăneasca</name><description>Nume: Valea Țigăneasca, Tip: țigani, Nivel: 2, Județ: Botosani, Formă: Vale, ID: 2014 <br /><b>Variante</b><br />Nume: Valea Țigăneasca, Hartă: Geomil 25000, Limbă: Limba română</description><Point><coordinates>26.333928,48.110160,0</coordinates></Point></Placemark>
<Placemark><name>Țigăniea</name><description>Nume: Țigăniea, Tip: țigănie, Nivel: 3, Județ: Botosani, Formă: Localitate, ID: 7779 <br /><b>Variante</b><br />Nume: Țigăniea, Hartă: PDT, Limbă: Limba română</description><Point><coordinates>26.563798,47.642407,0</coordinates></Point></Placemark>
<Placemark><name>Coasta Țigănimei</name><description>Nume: Coasta Țigănimei, Tip: țigănime, Nivel: 4, Județ: Botosani, Formă: Înălțime, ID: 4876 <br /><b>Variante</b><br />Nume: Coasta Țigănimei, Hartă: PDT, Limbă: Limba română</description><Point><coordinates>26.901334,48.124226,0</coordinates></Point></Placemark>
<Placemark><name>Cotu Țigănimi</name><description>Nume: Cotu Țigănimi, Tip: țigănime, Nivel: 4, Județ: Botosani, Formă: Localitate, ID: 4886 <br /><b>Variante</b><br />Nume: Cotu Țigănimi, Hartă: PDT, Limbă: Limba română</description><Point><coordinates>26.558908,48.153762,0</coordinates></Point></Placemark>
<Placemark><name>Mahalaua Țigănimea</name><description>Nume: Mahalaua Țigănimea, Tip: țigănime, Nivel: 4, Județ: Botosani, Formă: Localitate, ID: 4883 <br /><b>Variante</b><br />Nume: Mahalaua Țigănimea, Hartă: PDT, Limbă: Limba română</description><Point><coordinates>26.626083,48.227416,0</coordinates></Point></Placemark>
<Placemark><name>Cotu Țiganului</name><description>Nume: Cotu Țiganului, Tip: țigan, Nivel: 3, Județ: Braila, Formă: Apă-deal-câmpie, ID: 8717 <br /><b>Variante</b><br />Nume: Cotu Țiganului, Hartă: PDT, Limbă: Limba română</description><Point><coordinates>27.452161,45.259174,0</coordinates></Point></Placemark>
<Placemark><name>Lacul Țiganului</name><description>Nume: Lacul Țiganului, Tip: țigan, Nivel: 3, Județ: Braila, Formă: Lac, ID: 12618 <br /><b>Variante</b><br />Nume: Lacul Țiganului, Hartă: British Maps (1944), Limbă: Limba română</description><Point><coordinates>27.812623,45.365773,0</coordinates></Point></Placemark>
<Placemark><name>Malul Țiganului</name><description>Nume: Malul Țiganului, Tip: țigan, Nivel: 3, Județ: Braila, Formă: Altele, ID: 487 <br /><b>Variante</b><br />Nume: Malul Țiganului, Hartă: Geomil 25000, Limbă: Limba română</description><Point><coordinates>27.241653,45.142127,0</coordinates></Point></Placemark>
<Placemark><name>Movila Țiganului</name><description>Nume: Movila Țiganului, Tip: țigan, Nivel: 3, Județ: Braila, Formă: Înălțime, ID: 3591 <br /><b>Variante</b><br />Nume: Movila Țiganului, Hartă: PDT, Limbă: Limba română</description><Point><coordinates>27.256493,45.036397,0</coordinates></Point></Placemark>
<Placemark><name>Movila Țiganului</name><description>Nume: Movila Țiganului, Tip: țigan, Nivel: 3, Județ: Braila, Formă: Înălțime, ID: 6722 <br /><b>Variante</b><br />Nume: Movila Țiganului, Hartă: PDT, Limbă: Limba română</description><Point><coordinates>27.733985,44.973979,0</coordinates></Point></Placemark>
<Placemark><name>Movila Țiganului</name><description>Nume: Movila Țiganului, Tip: țigan, Nivel: 3, Județ: Braila, Formă: Înălțime, ID: 6735 <br /><b>Variante</b><br />Nume: Movila Țiganului, Hartă: PDT, Limbă: Limba română</description><Point><coordinates>27.361468,44.924227,0</coordinates></Point></Placemark>
<Placemark><name>Movila Țiganului</name><description>Nume: Movila Țiganului, Tip: țigan, Nivel: 3, Județ: Braila, Formă: Înălțime, ID: 6739 <br /><b>Variante</b><br />Nume: Movila Țiganului, Hartă: PDT, Limbă: Limba română</description><Point><coordinates>26.744952,44.997692,0</coordinates></Point></Placemark>
<Placemark><name>Movila Țiganului</name><description>Nume: Movila Țiganului, Tip: țigan, Nivel: 3, Județ: Braila, Formă: Înălțime, ID: 12613 <br /><b>Variante</b><br />Nume: Movila Țiganului, Hartă: PDT, Limbă: Limba română</description><Point><coordinates>27.590629,44.867785,0</coordinates></Point></Placemark>
<Placemark><name>Movila Țiganului</name><description>Nume: Movila Țiganului, Tip: țigan, Nivel: 3, Județ: Braila, Formă: Înălțime, ID: 12791 <br /><b>Variante</b><br />Nume: Movila Țiganului, Hartă: PDT, Limbă: Limba română</description><Point><coordinates>27.738062,44.952368,0</coordinates></Point></Placemark>
<Placemark><name>Puțul Țiganului</name><description>Nume: Puțul Țiganului, Tip: țigan, Nivel: 3, Județ: Braila, Formă: Altele, ID: 12621 <br /><b>Variante</b><br />Nume: Puțul Țiganului, Hartă: British Maps (1944), Limbă: Limba română</description><Point><coordinates>27.954007,45.329375,0</coordinates></Point></Placemark>
<Placemark><name>Balta Țiganca</name><description>Nume: Balta Țiganca, Tip: țigancă, Nivel: 3, Județ: Braila, Formă: Apă-deal-câmpie, ID: 9264 <br /><b>Variante</b><br />Nume: Balta Țiganca, Hartă: PDT, Limbă: Limba română</description><Point><coordinates>27.941439,45.144412,0</coordinates></Point></Placemark>
<Placemark><name>Gârla Țigăncii</name><description>Nume: Gârla Țigăncii, Tip: țigancă, Nivel: 3, Județ: Braila, Formă: Apă-deal-câmpie, ID: 3616 <br /><b>Variante</b><br />Nume: Gârla Țigăncii, Hartă: Geomil 25000, Limbă: Limba română</description><Point><coordinates>27.598129,45.473014,0</coordinates></Point></Placemark>
<Placemark><name>Cigány Feje (Căpățâna Țiganului)</name><description>Nume: Cigány Feje (Căpățâna Țiganului), Tip: țigan, Nivel: 3, Județ: Brasov, Formă: Înălțime, ID: 10534, ID Părinte: 2693 <br /><b>Variante</b><br />Nume: Cigány Feje (Căpățâna Țiganului), Hartă: Imperiul Habsburgic (1887), Limbă: Limba maghiară</description><Point><coordinates>25.411360,45.863706,0</coordinates></Point></Placemark>
<Placemark><LineString id="10534_2693"><tessellate>1</tessellate><coordinates>25.411360,45.863706,0.
25.389901,45.850286,0</coordinates></LineString><Style><LineStyle><width>3</width></LineStyle></Style></Placemark>
<Placemark><name>Coasta Țiganului</name><description>Nume: Coasta Țiganului, Tip: țigan, Nivel: 3, Județ: Brasov, Formă: Înălțime, ID: 2693 <br /><b>Variante</b><br />Nume: Coasta Țiganului, Hartă: Geomil 25000, Limbă: Limba română</description><Point><coordinates>25.389901,45.850286,0</coordinates></Point></Placemark>
<Placemark><name>Cotul Țiganului</name><description>Nume: Cotul Țiganului, Tip: țigan, Nivel: 3, Județ: Brasov, Formă: Altele, ID: 8564 <br /><b>Variante</b><br />Nume: Cotul Țiganului, Hartă: PDT, Limbă: Limba română</description><Point><coordinates>25.313170,45.563355,0</coordinates></Point></Placemark>
<Placemark><name>Curmătura Țiganului</name><description>Nume: Curmătura Țiganului, Tip: țigan, Nivel: 3, Județ: Brasov, Formă: Înălțime, ID: 11888 <br /><b>Variante</b><br />Nume: Curmătura Țiganului, Hartă: Geomil 25000, Limbă: Limba română<br />Nume: Czigana, Hartă: Transilvania (1769-1773), Limbă: Limba română</description><Point><coordinates>24.984922,45.616858,0</coordinates></Point></Placemark>
<Placemark><name>Pârâul Țiganului</name><description>Nume: Pârâul Țiganului, Tip: țigan, Nivel: 3, Județ: Brasov, Formă: Vale, ID: 6797 <br /><b>Variante</b><br />Nume: Pârâul Țiganului, Hartă: PDT, Limbă: Limba română</description><Point><coordinates>25.258386,45.985269,0</coordinates></Point></Placemark>
<Placemark><name>Valea Țiganului</name><description>Nume: Valea Țiganului, Tip: țigan, Nivel: 3, Județ: Brasov, Formă: Vale, ID: 2694, ID Părinte: 2693 <br /><b>Variante</b><br />Nume: Valea Țiganului, Hartă: Geomil 25000, Limbă: Limba română</description><Point><coordinates>25.402795,45.849701,0</coordinates></Point></Placemark>
<Placemark><LineString id="2694_2693"><tessellate>1</tessellate><coordinates>25.402795,45.849701,0.
25.389901,45.850286,0</coordinates></LineString><Style><LineStyle><width>3</width></LineStyle></Style></Placemark>
<Placemark><name>Fața Țigăncii</name><description>Nume: Fața Țigăncii, Tip: țigancă, Nivel: 3, Județ: Brasov, Formă: Altele, ID: 2491 <br /><b>Variante</b><br />Nume: Fața Țigăncii, Hartă: Geomil 25000, Limbă: Limba română</description><Point><coordinates>25.194459,45.784390,0</coordinates></Point></Placemark>
<Placemark><name>Lacul Țigănești</name><description>Nume: Lacul Țigănești, Tip: țigănești, Nivel: 3, Județ: Brasov, Formă: Lac, ID: 6857, ID Părinte: 592 <br /><b>Variante</b><br />Nume: Lacul Țigănești, Hartă: PDT, Limbă: Limba română</description><Point><coordinates>25.438551,45.455893,0</coordinates></Point></Placemark>
<Placemark><LineString id="6857_592"><tessellate>1</tessellate><coordinates>25.438551,45.455893,0.
25.437928,45.469800,0</coordinates></LineString><Style><LineStyle><width>3</width></LineStyle></Style></Placemark>
<Placemark><name>Poiana Țigănești</name><description>Nume: Poiana Țigănești, Tip: țigănești, Nivel: 3, Județ: Brasov, Formă: Poiană, ID: 6855, ID Părinte: 592 <br /><b>Variante</b><br />Nume: Poiana Țigănești, Hartă: PDT, Limbă: Limba română</description><Point><coordinates>25.469016,45.488909,0</coordinates></Point></Placemark>
<Placemark><LineString id="6855_592"><tessellate>1</tessellate><coordinates>25.469016,45.488909,0.
25.437928,45.469800,0</coordinates></LineString><Style><LineStyle><width>3</width></LineStyle></Style></Placemark>
<Placemark><name>Stâna Țigănești</name><description>Nume: Stâna Țigănești, Tip: țigănești, Nivel: 3, Județ: Brasov, Formă: Altele, ID: 6856, ID Părinte: 592 <br /><b>Variante</b><br />Nume: Stâna Țigănești, Hartă: PDT, Limbă: Limba română</description><Point><coordinates>25.466934,45.482873,0</coordinates></Point></Placemark>
<Placemark><LineString id="6856_592"><tessellate>1</tessellate><coordinates>25.466934,45.482873,0.
25.437928,45.469800,0</coordinates></LineString><Style><LineStyle><width>3</width></LineStyle></Style></Placemark>
<Placemark><name>Czygany gödre (Groapa Țiganilor)</name><description>Nume: Czygany gödre (Groapa Țiganilor), Tip: țigani, Nivel: 2, Județ: Brasov, Formă: Altele, ID: 4935 <br /><b>Variante</b><br />Nume: Czygany gödre (Groapa Țiganilor), Hartă: PDT, Limbă: Limba maghiară</description><Point><coordinates>25.821187,45.677729,0</coordinates></Point></Placemark>
<Placemark><name>Dealul Țiganilor</name><description>Nume: Dealul Țiganilor, Tip: țigani, Nivel: 2, Județ: Brasov, Formă: Deal, ID: 14732 <br /><b>Variante</b><br />Nume: Dealul Țiganilor, Hartă: PDT, Limbă: Limba română</description><Point><coordinates>24.927676,45.923269,0</coordinates></Point></Placemark>
<Placemark><name>Groapa Țiganilor</name><description>Nume: Groapa Țiganilor, Tip: țigani, Nivel: 2, Județ: Brasov, Formă: Altele, ID: 6835 <br /><b>Variante</b><br />Nume: Groapa Țiganilor, Hartă: PDT, Limbă: Limba română</description><Point><coordinates>25.482567,45.680339,0</coordinates></Point></Placemark>
<Placemark><name>Lunca sub Țigani</name><description>Nume: Lunca sub Țigani, Tip: țigani, Nivel: 2, Județ: Brasov, Formă: Apă-deal-câmpie, ID: 4936 <br /><b>Variante</b><br />Nume: Lunca sub Țigani, Hartă: Geomil 25000, Limbă: Limba română</description><Point><coordinates>25.119269,45.861199,0</coordinates></Point></Placemark>
<Placemark><name>Muntele Țigănești</name><description>Nume: Muntele Țigănești, Tip: țigani, Nivel: 2, Județ: Brasov, Formă: Înălțime, ID: 592 <br /><b>Variante</b><br />Nume: Muntele Țigănești, Hartă: Geomil 25000, Limbă: Limba română</description><Point><coordinates>25.437928,45.469800,0</coordinates></Point></Placemark>
<Placemark><name>Pârâul Țiganilor</name><description>Nume: Pârâul Țiganilor, Tip: țigani, Nivel: 2, Județ: Brasov, Formă: Vale, ID: 14080 <br /><b>Variante</b><br />Nume: Pârâul Țiganilor, Hartă: Geomil 25000, Limbă: Limba română</description><Point><coordinates>25.300963,46.151315,0</coordinates></Point></Placemark>
<Placemark><name>Valea Țigănești</name><description>Nume: Valea Țigănești, Tip: țigani, Nivel: 2, Județ: Brasov, Formă: Vale, ID: 593, ID Părinte: 592 <br /><b>Variante</b><br />Nume: Valea Țigănești, Hartă: Geomil 25000, Limbă: Limba română</description><Point><coordinates>25.450007,45.472434,0</coordinates></Point></Placemark>
<Placemark><LineString id="593_592"><tessellate>1</tessellate><coordinates>25.450007,45.472434,0.
25.437928,45.469800,0</coordinates></LineString><Style><LineStyle><width>3</width></LineStyle></Style></Placemark>
<Placemark><name>Valea Țiganilor</name><description>Nume: Valea Țiganilor, Tip: țigani, Nivel: 2, Județ: Brasov, Formă: Vale, ID: 1547 <br /><b>Variante</b><br />Nume: Valea Țiganilor, Hartă: Geomil 25000, Limbă: Limba română</description><Point><coordinates>25.525138,45.539635,0</coordinates></Point></Placemark>
<Placemark><name>Valea Țiganilor</name><description>Nume: Valea Țiganilor, Tip: țigani, Nivel: 2, Județ: Brasov, Formă: Vale, ID: 10552 <br /><b>Variante</b><br />Nume: Valea Țiganilor, Hartă: Imperiul Habsburgic (1887), Limbă: Limba română</description><Point><coordinates>24.642882,45.778137,0</coordinates></Point></Placemark>
<Placemark><name>Vârful Țigănești</name><description>Nume: Vârful Țigănești, Tip: țigani, Nivel: 2, Județ: Brasov, Formă: Înălțime, ID: 594, ID Părinte: 592 <br /><b>Variante</b><br />Nume: Vârful Țigănești, Hartă: Geomil 25000, Limbă: Limba română</description><Point><coordinates>25.431836,45.476362,0</coordinates></Point></Placemark>
<Placemark><LineString id="594_592"><tessellate>1</tessellate><coordinates>25.431836,45.476362,0.
25.437928,45.469800,0</coordinates></LineString><Style><LineStyle><width>3</width></LineStyle></Style></Placemark>
<Placemark><name>La Țigănie</name><description>Nume: La Țigănie, Tip: țigănie, Nivel: 3, Județ: Brasov, Formă: Altele, ID: 12284 <br /><b>Variante</b><br />Nume: La Țigănie, Hartă: Geomil 25000, Limbă: Limba română</description><Point><coordinates>25.056973,46.004389,0</coordinates></Point></Placemark>
<Placemark><name>Țigănia</name><description>Nume: Țigănia, Tip: țigănie, Nivel: 3, Județ: Brasov, Formă: Altele, ID: 6809 <br /><b>Variante</b><br />Nume: Țigănia, Hartă: PDT, Limbă: Limba română</description><Point><coordinates>25.226152,45.920081,0</coordinates></Point></Placemark>
<Placemark><name>Țigănia</name><description>Nume: Țigănia, Tip: țigănie, Nivel: 3, Județ: Brasov, Formă: Altele, ID: 6831 <br /><b>Variante</b><br />Nume: Țigănia, Hartă: PDT, Limbă: Limba română</description><Point><coordinates>25.454464,45.707908,0</coordinates></Point></Placemark>
<Placemark><name>Țigănia</name><description>Nume: Țigănia, Tip: țigănie, Nivel: 3, Județ: Brasov, Formă: Localitate, ID: 9692 <br /><b>Variante</b><br />Nume: Țigănia, Hartă: PDT, Limbă: Limba română</description><Point><coordinates>25.177852,45.751698,0</coordinates></Point></Placemark>
<Placemark><name>Țigănia</name><description>Nume: Țigănia, Tip: țigănie, Nivel: 3, Județ: Brasov, Formă: Localitate, ID: 10635 <br /><b>Variante</b><br />Nume: Țigănia, Hartă: Imperiul Habsburgic (1887), Limbă: Limba română</description><Point><coordinates>25.357843,45.975284,0</coordinates></Point></Placemark>
<Placemark><name>Ziganie</name><description>Nume: Ziganie, Tip: țigănie, Nivel: 3, Județ: Brasov, Formă: Localitate, ID: 10814 <br /><b>Variante</b><br />Nume: Ziganie, Hartă: Transilvania (1869-1870), Limbă: Limba română</description><Point><coordinates>25.096327,45.922101,0</coordinates></Point></Placemark>
<Placemark><name>Țigănia</name><description>Nume: Țigănia, Tip: țigănie, Nivel: 3, Județ: Bucuresti, Formă: Localitate, ID: 3757 <br /><b>Variante</b><br />Nume: Țigănia, Hartă: PDT, Limbă: Limba română</description><Point><coordinates>26.019524,44.467521,0</coordinates></Point></Placemark>
<Placemark><name>Pârâul Argintarilor</name><description>Nume: Pârâul Argintarilor, Tip: argintar, Nivel: 3, Județ: Buzau, Formă: Vale, ID: 8758 <br /><b>Variante</b><br />Nume: Pârâul Argintarilor, Hartă: PDT, Limbă: Limba română</description><Point><coordinates>26.686688,45.585414,0</coordinates></Point></Placemark>
<Placemark><name>Argintăria</name><description>Nume: Argintăria, Tip: argintărie, Nivel: 4, Județ: Buzau, Formă: Altele, ID: 6041 <br /><b>Variante</b><br />Nume: Argintăria, Hartă: Geomil 25000, Limbă: Limba română</description><Point><coordinates>26.206201,45.525630,0</coordinates></Point></Placemark>
<Placemark><name>Cotul Țiganului</name><description>Nume: Cotul Țiganului, Tip: țigan, Nivel: 3, Județ: Buzau, Formă: Apă-deal-câmpie, ID: 11260 <br /><b>Variante</b><br />Nume: Cotul Țiganului, Hartă: Geomil 25000, Limbă: Limba română</description><Point><coordinates>26.903054,45.068026,0</coordinates></Point></Placemark>
<Placemark><name>Movila Țiganului</name><description>Nume: Movila Țiganului, Tip: țigan, Nivel: 3, Județ: Buzau, Formă: Înălțime, ID: 8719 <br /><b>Variante</b><br />Nume: Movila Țiganului, Hartă: Geomil 25000, Limbă: Limba română</description><Point><coordinates>27.340487,45.265911,0</coordinates></Point></Placemark>
<Placemark><name>Movila Țiganului</name><description>Nume: Movila Țiganului, Tip: țigan, Nivel: 3, Județ: Buzau, Formă: Înălțime, ID: 9271 <br /><b>Variante</b><br />Nume: Movila Țiganului, Hartă: PDT, Limbă: Limba română</description><Point><coordinates>27.257241,45.324824,0</coordinates></Point></Placemark>
<Placemark><name>Movila Țiganului-Mărgineanu</name><description>Nume: Movila Țiganului-Mărgineanu, Tip: țigan, Nivel: 3, Județ: Buzau, Formă: Înălțime, ID: 62 <br /><b>Variante</b><br />Nume: Movila Țiganului-Mărgineanu, Hartă: PDT, Limbă: Limba română<br />Nume: кург. Циган (movla Țigan), Hartă: Sovietică, Limbă: Limba română</description><Point><coordinates>26.715261,44.938958,0</coordinates></Point></Placemark>
<Placemark><name>Râpa Țiganului</name><description>Nume: Râpa Țiganului, Tip: țigan, Nivel: 3, Județ: Buzau, Formă: Înălțime, ID: 7501 <br /><b>Variante</b><br />Nume: Râpa Țiganului, Hartă: PDT, Limbă: Limba română</description><Point><coordinates>26.512426,45.116494,0</coordinates></Point></Placemark>
<Placemark><name>Valea Puțu Țiganului</name><description>Nume: Valea Puțu Țiganului, Tip: țigan, Nivel: 3, Județ: Buzau, Formă: Vale, ID: 4014 <br /><b>Variante</b><br />Nume: Valea Puțu Țiganului, Hartă: PDT, Limbă: Limba română</description><Point><coordinates>27.200900,44.919792,0</coordinates></Point></Placemark>
<Placemark><name>Valea Țiganului</name><description>Nume: Valea Țiganului, Tip: țigan, Nivel: 3, Județ: Buzau, Formă: Vale, ID: 11265 <br /><b>Variante</b><br />Nume: Valea Țiganului, Hartă: Geomil 25000, Limbă: Limba română</description><Point><coordinates>26.887302,45.090011,0</coordinates></Point></Placemark>
<Placemark><name>Vârful lui Țigan</name><description>Nume: Vârful lui Țigan, Tip: țigan, Nivel: 3, Județ: Buzau, Formă: Înălțime, ID: 76 <br /><b>Variante</b><br />Nume: Vârful lui Țigan, Hartă: Geomil 25000, Limbă: Limba română</description><Point><coordinates>26.678192,45.173699,0</coordinates></Point></Placemark>
<Placemark><name>Curmătura Țiganca</name><description>Nume: Curmătura Țiganca, Tip: țigancă, Nivel: 3, Județ: Buzau, Formă: Înălțime, ID: 2809 <br /><b>Variante</b><br />Nume: Curmătura Țiganca, Hartă: Geomil 25000, Limbă: Limba română</description><Point><coordinates>26.482945,45.555823,0</coordinates></Point></Placemark>
<Placemark><name>Dealu Țigănoaia</name><description>Nume: Dealu Țigănoaia, Tip: țigancă, Nivel: 3, Județ: Buzau, Formă: Deal, ID: 75 <br /><b>Variante</b><br />Nume: Dealu Țigănoaia, Hartă: Geomil 25000, Limbă: Limba română<br />Nume: Dealul Țigănoea, Hartă: PDT, Limbă: Limba română<br />Nume: г. Цигэноая (d. Țigănoaia), Hartă: Sovietică, Limbă: Limba română</description><Point><coordinates>26.668587,45.163349,0</coordinates></Point></Placemark>
<Placemark><name>Movila Țigăncii</name><description>Nume: Movila Țigăncii, Tip: țigancă, Nivel: 3, Județ: Buzau, Formă: Înălțime, ID: 755 <br /><b>Variante</b><br />Nume: Movila Țigăncii, Hartă: Geomil 25000, Limbă: Limba română</description><Point><coordinates>27.096705,45.406802,0</coordinates></Point></Placemark>
<Placemark><name>Aria Țigănească</name><description>Nume: Aria Țigănească, Tip: țigănească, Nivel: 3, Județ: Buzau, Formă: Altele, ID: 8451 <br /><b>Variante</b><br />Nume: Aria Țigănească, Hartă: PDT, Limbă: Limba română</description><Point><coordinates>26.774357,45.289297,0</coordinates></Point></Placemark>
<Placemark><name>Ziganești</name><description>Nume: Ziganești, Tip: țigănești, Nivel: 3, Județ: Buzau, Formă: Localitate, ID: 5758 <br /><b>Variante</b><br />Nume: Ziganești, Hartă: Austriacă, Limbă: Limba română</description><Point><coordinates>26.326682,45.295217,0</coordinates></Point></Placemark>
<Placemark><name>Muscelu Țigani</name><description>Nume: Muscelu Țigani, Tip: țigani, Nivel: 2, Județ: Buzau, Formă: Localitate, ID: 12599 <br /><b>Variante</b><br />Nume: Muscelu Țigani, Hartă: British Maps (1944), Limbă: Limba română</description><Point><coordinates>26.427999,45.293392,0</coordinates></Point></Placemark>
<Placemark><name>Pârâul Țiganilor</name><description>Nume: Pârâul Țiganilor, Tip: țigani, Nivel: 2, Județ: Buzau, Formă: Vale, ID: 14227 <br /><b>Variante</b><br />Nume: Pârâul Țiganilor, Hartă: PDT, Limbă: Limba română</description><Point><coordinates>26.829451,45.053634,0</coordinates></Point></Placemark>
<Placemark><name>Izvorul Ursăriței</name><description>Nume: Izvorul Ursăriței, Tip: ursăriță, Nivel: 4, Județ: Buzau, Formă: Vale, ID: 7494 <br /><b>Variante</b><br />Nume: Izvorul Ursăriței, Hartă: PDT, Limbă: Limba română</description><Point><coordinates>26.509837,45.217204,0</coordinates></Point></Placemark>
<Placemark><name>Movila Spoitorilor</name><description>Nume: Movila Spoitorilor, Tip: spoitori, Nivel: 3, Județ: Calarasi, Formă: Înălțime, ID: 3763 <br /><b>Variante</b><br />Nume: Movila Spoitorilor, Hartă: PDT, Limbă: Limba română</description><Point><coordinates>26.493268,44.270586,0</coordinates></Point></Placemark>
<Placemark><name>Balta Țiganului</name><description>Nume: Balta Țiganului, Tip: țigan, Nivel: 3, Județ: Calarasi, Formă: Apă-deal-câmpie, ID: 3264, ID Părinte: 3265 <br /><b>Variante</b><br />Nume: Balta Țiganului, Hartă: PDT, Limbă: Limba română</description><Point><coordinates>26.804934,44.130409,0</coordinates></Point></Placemark>
<Placemark><LineString id="3264_3265"><tessellate>1</tessellate><coordinates>26.804934,44.130409,0.
26.800250,44.120859,0</coordinates></LineString><Style><LineStyle><width>3</width></LineStyle></Style></Placemark>
<Placemark><name>Lacul Țiganului</name><description>Nume: Lacul Țiganului, Tip: țigan, Nivel: 3, Județ: Calarasi, Formă: Lac, ID: 3265 <br /><b>Variante</b><br />Nume: Lacul Țiganului, Hartă: PDT, Limbă: Limba română</description><Point><coordinates>26.800250,44.120859,0</coordinates></Point></Placemark>
<Placemark><name>Pădurea Țiganca</name><description>Nume: Pădurea Țiganca, Tip: țigancă, Nivel: 3, Județ: Calarasi, Formă: Pădure, ID: 477 <br /><b>Variante</b><br />Nume: Pădurea Țiganca, Hartă: Geomil 25000, Limbă: Limba română</description><Point><coordinates>27.578783,44.241467,0</coordinates></Point></Placemark>
<Placemark><name>Țiganca</name><description>Nume: Țiganca, Tip: țigancă, Nivel: 3, Județ: Calarasi, Formă: Altele, ID: 3464, ID Părinte: 477 <br /><b>Variante</b><br />Nume: Țiganca, Hartă: PDT, Limbă: Limba română</description><Point><coordinates>27.558673,44.231305,0</coordinates></Point></Placemark>
<Placemark><LineString id="3464_477"><tessellate>1</tessellate><coordinates>27.558673,44.231305,0.
27.578783,44.241467,0</coordinates></LineString><Style><LineStyle><width>3</width></LineStyle></Style></Placemark>
<Placemark><name>Tziganka</name><description>Nume: Tziganka, Tip: țigancă, Nivel: 3, Județ: Calarasi, Formă: Localitate, ID: 3628 <br /><b>Variante</b><br />Nume: Tziganka, Hartă: Austriacă, Limbă: Limba română</description><Point><coordinates>26.548838,44.402230,0</coordinates></Point></Placemark>
<Placemark><name>Movila Țigănele</name><description>Nume: Movila Țigănele, Tip: țigănele, Nivel: 3, Județ: Calarasi, Formă: Înălțime, ID: 3465 <br /><b>Variante</b><br />Nume: Movila Țigănele, Hartă: Geomil 25000, Limbă: Limba română<br />Nume: Țigănelele, Hartă: PDT, Limbă: Limba română</description><Point><coordinates>27.607280,44.310116,0</coordinates></Point></Placemark>
<Placemark><name>Cracul Țiganului</name><description>Nume: Cracul Țiganului, Tip: țigan, Nivel: 3, Județ: Caras Severin, Formă: Înălțime, ID: 8515 <br /><b>Variante</b><br />Nume: Cracul Țiganului, Hartă: PDT, Limbă: Limba română</description><Point><coordinates>21.788688,44.891638,0</coordinates></Point></Placemark>
<Placemark><name>Dealu Țiganului</name><description>Nume: Dealu Țiganului, Tip: țigan, Nivel: 3, Județ: Caras Severin, Formă: Deal, ID: 6139 <br /><b>Variante</b><br />Nume: Dealu Țiganului, Hartă: Geomil 25000, Limbă: Limba română</description><Point><coordinates>22.332874,45.076734,0</coordinates></Point></Placemark>
<Placemark><name>Dealul Țiganului</name><description>Nume: Dealul Țiganului, Tip: țigan, Nivel: 3, Județ: Caras Severin, Formă: Deal, ID: 15716 <br /><b>Variante</b><br />Nume: Dealul Țiganului, Hartă: PDT, Limbă: Limba română</description><Point><coordinates>22.822759,44.469493,0</coordinates></Point></Placemark>
<Placemark><name>Ogașu Țiganului</name><description>Nume: Ogașu Țiganului, Tip: țigan, Nivel: 3, Județ: Caras Severin, Formă: Vale, ID: 5694 <br /><b>Variante</b><br />Nume: Ogașu Țiganului, Hartă: Geomil 25000, Limbă: Limba română</description><Point><coordinates>21.976927,45.457859,0</coordinates></Point></Placemark>
<Placemark><name>Ogașu Țiganului</name><description>Nume: Ogașu Țiganului, Tip: țigan, Nivel: 3, Județ: Caras Severin, Formă: Înălțime, ID: 8526 <br /><b>Variante</b><br />Nume: Ogașu Țiganului, Hartă: Geomil 25000, Limbă: Limba română</description><Point><coordinates>21.568723,44.858341,0</coordinates></Point></Placemark>
<Placemark><name>Poiana Lacul Țiganului</name><description>Nume: Poiana Lacul Țiganului, Tip: țigan, Nivel: 3, Județ: Caras Severin, Formă: Poiană, ID: 12161 <br /><b>Variante</b><br />Nume: Poiana Lacul Țiganului, Hartă: PDT, Limbă: Limba română</description><Point><coordinates>21.810348,45.003639,0</coordinates></Point></Placemark>
<Placemark><name>Strigu Țiganului</name><description>Nume: Strigu Țiganului, Tip: țigan, Nivel: 3, Județ: Caras Severin, Formă: Înălțime, ID: 9438 <br /><b>Variante</b><br />Nume: Strigu Țiganului, Hartă: PDT, Limbă: Limba română</description><Point><coordinates>22.324074,44.793217,0</coordinates></Point></Placemark>
<Placemark><name>Tâva Țiganului</name><description>Nume: Tâva Țiganului, Tip: țigan, Nivel: 3, Județ: Caras Severin, Formă: Înălțime, ID: 4317 <br /><b>Variante</b><br />Nume: Tâva Țiganului, Hartă: PDT, Limbă: Limba română</description><Point><coordinates>21.842254,45.363553,0</coordinates></Point></Placemark>
<Placemark><name>Valea Țiganului</name><description>Nume: Valea Țiganului, Tip: țigan, Nivel: 3, Județ: Caras Severin, Formă: Vale, ID: 6140, ID Părinte: 6139 <br /><b>Variante</b><br />Nume: Valea Țiganului, Hartă: Geomil 25000, Limbă: Limba română</description><Point><coordinates>22.329203,45.070263,0</coordinates></Point></Placemark>
<Placemark><LineString id="6140_6139"><tessellate>1</tessellate><coordinates>22.329203,45.070263,0.
22.332874,45.076734,0</coordinates></LineString><Style><LineStyle><width>3</width></LineStyle></Style></Placemark>
<Placemark><name>Valea Țigănii</name><description>Nume: Valea Țigănii, Tip: țigana, Nivel: 3, Județ: Caras Severin, Formă: Vale, ID: 7605 <br /><b>Variante</b><br />Nume: Valea Țigănii, Hartă: PDT, Limbă: Limba română<br />Nume: Valea Țigănii, Hartă: Geomil 25000, Limbă: Limba română</description><Point><coordinates>21.644801,45.220561,0</coordinates></Point></Placemark>
<Placemark><name>Culmea Țigăncii</name><description>Nume: Culmea Țigăncii, Tip: țigancă, Nivel: 3, Județ: Caras Severin, Formă: Înălțime, ID: 8510 <br /><b>Variante</b><br />Nume: Culmea Țigăncii, Hartă: Geomil 25000, Limbă: Limba română<br />Nume: Culmea Țigăncii, Hartă: PDT, Limbă: Limba română</description><Point><coordinates>21.773159,44.868482,0</coordinates></Point></Placemark>
<Placemark><name>Dealul Țiganii</name><description>Nume: Dealul Țiganii, Tip: țigancă, Nivel: 3, Județ: Caras Severin, Formă: Deal, ID: 1234 <br /><b>Variante</b><br />Nume: Dealul Țiganii, Hartă: Geomil 25000, Limbă: Limba română</description><Point><coordinates>21.817072,45.241218,0</coordinates></Point></Placemark>
<Placemark><name>Ogașu Țiganca</name><description>Nume: Ogașu Țiganca, Tip: țigancă, Nivel: 3, Județ: Caras Severin, Formă: Înălțime, ID: 4323 <br /><b>Variante</b><br />Nume: Ogașu Țiganca, Hartă: Geomil 25000, Limbă: Limba română</description><Point><coordinates>21.779807,45.287408,0</coordinates></Point></Placemark>
<Placemark><name>Ogașu Țigăncii</name><description>Nume: Ogașu Țigăncii, Tip: țigancă, Nivel: 3, Județ: Caras Severin, Formă: Vale, ID: 1233 <br /><b>Variante</b><br />Nume: Ogașu Țigăncii, Hartă: Geomil 25000, Limbă: Limba română</description><Point><coordinates>21.974678,45.223792,0</coordinates></Point></Placemark>
<Placemark><name>Valea Țigănești</name><description>Nume: Valea Țigănești, Tip: țigănești, Nivel: 3, Județ: Caras Severin, Formă: Vale, ID: 859 <br /><b>Variante</b><br />Nume: Valea Țigănești, Hartă: Geomil 25000, Limbă: Limba română</description><Point><coordinates>22.259051,45.434606,0</coordinates></Point></Placemark>
<Placemark><name>Cioaca Țiganilor</name><description>Nume: Cioaca Țiganilor, Tip: țigani, Nivel: 2, Județ: Caras Severin, Formă: Înălțime, ID: 10701 <br /><b>Variante</b><br />Nume: Cioaca Țiganilor, Hartă: Imperiul Habsburgic (1887), Limbă: Limba română</description><Point><coordinates>21.752789,45.130373,0</coordinates></Point></Placemark>
<Placemark><name>Cracu Țiganilor</name><description>Nume: Cracu Țiganilor, Tip: țigani, Nivel: 2, Județ: Caras Severin, Formă: Înălțime, ID: 10703 <br /><b>Variante</b><br />Nume: Cracu Țiganilor, Hartă: Geomil 25000, Limbă: Limba română</description><Point><coordinates>21.751589,45.032878,0</coordinates></Point></Placemark>
<Placemark><name>La Lacul Țiganilor</name><description>Nume: La Lacul Țiganilor, Tip: țigani, Nivel: 2, Județ: Caras Severin, Formă: Lac, ID: 12159 <br /><b>Variante</b><br />Nume: La Lacul Țiganilor, Hartă: PDT, Limbă: Limba română</description><Point><coordinates>21.788339,45.047574,0</coordinates></Point></Placemark>
<Placemark><name>Padina Țiganilor</name><description>Nume: Padina Țiganilor, Tip: țigani, Nivel: 2, Județ: Caras Severin, Formă: Altele, ID: 5736 <br /><b>Variante</b><br />Nume: Padina Țiganilor, Hartă: Geomil 25000, Limbă: Limba română</description><Point><coordinates>21.886461,44.671441,0</coordinates></Point></Placemark>
<Placemark><name>Valea Țigănească</name><description>Nume: Valea Țigănească, Tip: țigani, Nivel: 2, Județ: Caras Severin, Formă: Vale, ID: 904 <br /><b>Variante</b><br />Nume: Valea Țigănească, Hartă: Geomil 25000, Limbă: Limba română</description><Point><coordinates>21.415650,44.803618,0</coordinates></Point></Placemark>
<Placemark><name>Valea Țiganilor</name><description>Nume: Valea Țiganilor, Tip: țigani, Nivel: 2, Județ: Caras Severin, Formă: Vale, ID: 5711 <br /><b>Variante</b><br />Nume: Valea Țiganilor, Hartă: Geomil 25000, Limbă: Limba română</description><Point><coordinates>21.541543,45.095027,0</coordinates></Point></Placemark>
<Placemark><name>Zigeuner Hütten (Colibele țiganilor)</name><description>Nume: Zigeuner Hütten (Colibele țiganilor), Tip: țigani, Nivel: 2, Județ: Caras Severin, Formă: Localitate, ID: 10589 <br /><b>Variante</b><br />Nume: Zigeuner Hütten (Colibele țiganilor), Hartă: Imperiul Habsburgic (1887), Limbă: Limba germană</description><Point><coordinates>22.144613,45.585694,0</coordinates></Point></Placemark>
<Placemark><name>Zigeunerhütten (Colibele țiganilor)</name><description>Nume: Zigeunerhütten (Colibele țiganilor), Tip: țigani, Nivel: 2, Județ: Caras Severin, Formă: Localitate, ID: 10328 <br /><b>Variante</b><br />Nume: Zigeunerhütten (Colibele țiganilor), Hartă: Ungară 1869, Limbă: Limba germană</description><Point><coordinates>22.446354,45.472715,0</coordinates></Point></Placemark>
<Placemark><name>Capu Șatrei</name><description>Nume: Capu Șatrei, Tip: șatră, Nivel: 3, Județ: Cluj, Formă: Înălțime, ID: 7031 <br /><b>Variante</b><br />Nume: Capu Șatrei, Hartă: Geomil 25000, Limbă: Limba română</description><Point><coordinates>23.239882,46.785332,0</coordinates></Point></Placemark>
<Placemark><name>Dealu Șatrei</name><description>Nume: Dealu Șatrei, Tip: șatră, Nivel: 3, Județ: Cluj, Formă: Deal, ID: 7030, ID Părinte: 7031 <br /><b>Variante</b><br />Nume: Dealu Șatrei, Hartă: Geomil 25000, Limbă: Limba română</description><Point><coordinates>23.237808,46.782241,0</coordinates></Point></Placemark>
<Placemark><LineString id="7030_7031"><tessellate>1</tessellate><coordinates>23.237808,46.782241,0.
23.239882,46.785332,0</coordinates></LineString><Style><LineStyle><width>3</width></LineStyle></Style></Placemark>
<Placemark><name>Dealul Șatrei</name><description>Nume: Dealul Șatrei, Tip: șatră, Nivel: 3, Județ: Cluj, Formă: Deal, ID: 5873, ID Părinte: 5872 <br /><b>Variante</b><br />Nume: Dealul Șatrei, Hartă: Geomil 25000, Limbă: Limba română</description><Point><coordinates>24.063962,46.846317,0</coordinates></Point></Placemark>
<Placemark><LineString id="5873_5872"><tessellate>1</tessellate><coordinates>24.063962,46.846317,0.
24.070671,46.843312,0</coordinates></LineString><Style><LineStyle><width>3</width></LineStyle></Style></Placemark>
<Placemark><name>Pădurea Șatrei</name><description>Nume: Pădurea Șatrei, Tip: șatră, Nivel: 3, Județ: Cluj, Formă: Pădure, ID: 7029, ID Părinte: 7031 <br /><b>Variante</b><br />Nume: Pădurea Șatrei, Hartă: Geomil 25000, Limbă: Limba română</description><Point><coordinates>23.254816,46.772457,0</coordinates></Point></Placemark>
<Placemark><LineString id="7029_7031"><tessellate>1</tessellate><coordinates>23.254816,46.772457,0.
23.239882,46.785332,0</coordinates></LineString><Style><LineStyle><width>3</width></LineStyle></Style></Placemark>
<Placemark><name>Pe Șatră</name><description>Nume: Pe Șatră, Tip: șatră, Nivel: 3, Județ: Cluj, Formă: Altele, ID: 5872 <br /><b>Variante</b><br />Nume: Pe Șatră, Hartă: Geomil 25000, Limbă: Limba română</description><Point><coordinates>24.070671,46.843312,0</coordinates></Point></Placemark>
<Placemark><name>Dâmbul Țiganului</name><description>Nume: Dâmbul Țiganului, Tip: țigan, Nivel: 3, Județ: Cluj, Formă: Înălțime, ID: 8941 <br /><b>Variante</b><br />Nume: Dâmbul Țiganului, Hartă: PDT, Limbă: Limba română</description><Point><coordinates>23.576719,46.891481,0</coordinates></Point></Placemark>
<Placemark><name>Gemele Țiganului</name><description>Nume: Gemele Țiganului, Tip: țigan, Nivel: 3, Județ: Cluj, Formă: Altele, ID: 11529 <br /><b>Variante</b><br />Nume: Gemele Țiganului, Hartă: Geomil 25000, Limbă: Limba română</description><Point><coordinates>23.214798,46.491943,0</coordinates></Point></Placemark>
<Placemark><name>Vale Tziganului</name><description>Nume: Vale Tziganului, Tip: țigan, Nivel: 3, Județ: Cluj, Formă: Vale, ID: 10288 <br /><b>Variante</b><br />Nume: Vale Tziganului, Hartă: Ungară 1869, Limbă: Limba română</description><Point><coordinates>22.616395,46.474898,0</coordinates></Point></Placemark>
<Placemark><name>Vârfu Țiganului</name><description>Nume: Vârfu Țiganului, Tip: țigan, Nivel: 3, Județ: Cluj, Formă: Înălțime, ID: 8140 <br /><b>Variante</b><br />Nume: Vârfu Țiganului, Hartă: Geomil 25000, Limbă: Limba română</description><Point><coordinates>23.655972,46.532012,0</coordinates></Point></Placemark>
<Placemark><name>Țigăneasca</name><description>Nume: Țigăneasca, Tip: țigănească, Nivel: 3, Județ: Cluj, Formă: Altele, ID: 13735 <br /><b>Variante</b><br />Nume: Țigăneasca, Hartă: Imperiul Habsburgic (1887), Limbă: Limba română</description><Point><coordinates>24.189561,46.892596,0</coordinates></Point></Placemark>
<Placemark><name>La Țigani</name><description>Nume: La Țigani, Tip: țigani, Nivel: 2, Județ: Cluj, Formă: Localitate, ID: 15790 <br /><b>Variante</b><br />Nume: La Țigani, Hartă: PDT, Limbă: Limba română</description><Point><coordinates>23.944870,47.177074,0</coordinates></Point></Placemark>
<Placemark><name>Țigănia</name><description>Nume: Țigănia, Tip: țigănie, Nivel: 3, Județ: Cluj, Formă: Localitate, ID: 11859 <br /><b>Variante</b><br />Nume: Țigănia, Hartă: PDT, Limbă: Limba română</description><Point><coordinates>22.893017,46.942469,0</coordinates></Point></Placemark>
<Placemark><name>Dealu Ursarului</name><description>Nume: Dealu Ursarului, Tip: ursar, Nivel: 4, Județ: Cluj, Formă: Deal, ID: 10402 <br /><b>Variante</b><br />Nume: Dealu Ursarului, Hartă: Geomil 25000, Limbă: Limba română</description><Point><coordinates>23.681825,46.984773,0</coordinates></Point></Placemark>
<Placemark><name>Movila Țiganului</name><description>Nume: Movila Țiganului, Tip: țigan, Nivel: 3, Județ: Constanta, Formă: Înălțime, ID: 3203 <br /><b>Variante</b><br />Nume: Movila Țiganului, Hartă: Geomil 25000, Limbă: Limba română</description><Point><coordinates>27.978804,44.684944,0</coordinates></Point></Placemark>
<Placemark><name>Valea Țiganului</name><description>Nume: Valea Țiganului, Tip: țigan, Nivel: 3, Județ: Constanta, Formă: Vale, ID: 12739 <br /><b>Variante</b><br />Nume: Valea Țiganului, Hartă: Geomil 25000, Limbă: Limba română</description><Point><coordinates>27.709467,44.046148,0</coordinates></Point></Placemark>
<Placemark><name>Valea Țiganului</name><description>Nume: Valea Țiganului, Tip: țigan, Nivel: 3, Județ: Constanta, Formă: Vale, ID: 13638 <br /><b>Variante</b><br />Nume: Valea Țiganului, Hartă: Geomil 25000, Limbă: Limba română</description><Point><coordinates>28.024103,44.095989,0</coordinates></Point></Placemark>
<Placemark><name>Valea Țiganilor</name><description>Nume: Valea Țiganilor, Tip: țigani, Nivel: 2, Județ: Constanta, Formă: Vale, ID: 481 <br /><b>Variante</b><br />Nume: Valea Țiganilor, Hartă: Geomil 25000, Limbă: Limba română</description><Point><coordinates>28.028362,44.257420,0</coordinates></Point></Placemark>
<Placemark><name>Valea Argintarului</name><description>Nume: Valea Argintarului, Tip: argintar, Nivel: 3, Județ: Covasna, Formă: Vale, ID: 2768 <br /><b>Variante</b><br />Nume: Valea Argintarului, Hartă: Geomil 25000, Limbă: Limba română</description><Point><coordinates>26.070281,45.638554,0</coordinates></Point></Placemark>
<Placemark><name>Muntele Țiganului</name><description>Nume: Muntele Țiganului, Tip: țigan, Nivel: 3, Județ: Covasna, Formă: Înălțime, ID: 4371 <br /><b>Variante</b><br />Nume: Muntele Țiganului, Hartă: Geomil 25000, Limbă: Limba română</description><Point><coordinates>25.732878,46.224579,0</coordinates></Point></Placemark>
<Placemark><name>Pârâul Țiganului</name><description>Nume: Pârâul Țiganului, Tip: țigan, Nivel: 3, Județ: Covasna, Formă: Vale, ID: 10959 <br /><b>Variante</b><br />Nume: Pârâul Țiganului, Hartă: Geomil 25000, Limbă: Limba română</description><Point><coordinates>26.327086,45.857511,0</coordinates></Point></Placemark>
<Placemark><name>Valea Țiganului</name><description>Nume: Valea Țiganului, Tip: țigan, Nivel: 3, Județ: Covasna, Formă: Vale, ID: 2115 <br /><b>Variante</b><br />Nume: Valea Țiganului, Hartă: Geomil 25000, Limbă: Limba română</description><Point><coordinates>26.319101,45.779885,0</coordinates></Point></Placemark>
<Placemark><name>Nemira Țiganca</name><description>Nume: Nemira Țiganca, Tip: țigancă, Nivel: 3, Județ: Covasna, Formă: Înălțime, ID: 5319 <br /><b>Variante</b><br />Nume: Nemira Țiganca, Hartă: Geomil 25000, Limbă: Limba română</description><Point><coordinates>26.324674,46.231343,0</coordinates></Point></Placemark>
<Placemark><name>Tiganka patak (Pârâul Țiganca)</name><description>Nume: Tiganka patak (Pârâul Țiganca), Tip: țigancă, Nivel: 3, Județ: Covasna, Formă: Vale, ID: 7923, ID Părinte: 5319 <br /><b>Variante</b><br />Nume: Tiganka patak (Pârâul Țiganca), Hartă: PDT, Limbă: Limba maghiară</description><Point><coordinates>26.290347,46.226750,0</coordinates></Point></Placemark>
<Placemark><LineString id="7923_5319"><tessellate>1</tessellate><coordinates>26.290347,46.226750,0.
26.324674,46.231343,0</coordinates></LineString><Style><LineStyle><width>3</width></LineStyle></Style></Placemark>
<Placemark><name>Valea Țiganului</name><description>Nume: Valea Țiganului, Tip: țigan, Nivel: 3, Județ: Dambovita, Formă: Vale, ID: 10078 <br /><b>Variante</b><br />Nume: Valea Țiganului, Hartă: PDT, Limbă: Limba română</description><Point><coordinates>25.564369,44.953056,0</coordinates></Point></Placemark>
<Placemark><name>Valea Țiganului</name><description>Nume: Valea Țiganului, Tip: țigan, Nivel: 3, Județ: Dambovita, Formă: Vale, ID: 11071 <br /><b>Variante</b><br />Nume: Valea Țiganului, Hartă: PDT, Limbă: Limba română</description><Point><coordinates>25.244226,45.029203,0</coordinates></Point></Placemark>