<?xml version="1.0" encoding="UTF-8"?><kml xmlns="http://www.opengis.net/kml/2.2"><Document><Placemark><name>Dealu Cărbunăria</name><description>Nume: Dealu Cărbunăria, Tip: cărbunărie, Nivel: 2, Județ: Alba, Formă: Deal, ID: 925 <br /><b>Variante</b><br />Nume: Dealu Cărbunăria, Hartă: Geomil 25000, Limbă: Limba română</description><Point><coordinates>23.243211,46.405077,0</coordinates></Point></Placemark>
<Placemark><name>Valea Cărbunării</name><description>Nume: Valea Cărbunării, Tip: cărbunărie, Nivel: 2, Județ: Alba, Formă: Vale, ID: 4683, ID Părinte: 2557 <br /><b>Variante</b><br />Nume: Valea Cărbunării, Hartă: Geomil 25000, Limbă: Limba română</description><Point><coordinates>23.920207,46.152384,0</coordinates></Point></Placemark>
<Placemark><LineString id="4683_2557"><tessellate>1</tessellate><coordinates>23.920207,46.152384,0.
23.929169,46.148575,0</coordinates></LineString><Style><LineStyle><width>3</width></LineStyle></Style></Placemark>
<Placemark><name>Valea Cărbunăriei</name><description>Nume: Valea Cărbunăriei, Tip: cărbunărie, Nivel: 2, Județ: Bistrita Nasaud, Formă: Vale, ID: 10027 <br /><b>Variante</b><br />Nume: Valea Cărbunăriei, Hartă: PDT, Limbă: Limba română<br />Nume: Pârâul Cărbunarilor, Hartă: Geomil 25000, Limbă: Limba română</description><Point><coordinates>24.659735,47.231299,0</coordinates></Point></Placemark>
<Placemark><name>Groapa Cârbunariștii</name><description>Nume: Groapa Cârbunariștii, Tip: cărbunariște, Nivel: 3, Județ: Bistrita Nasaud, Formă: Înălțime, ID: 9899 <br /><b>Variante</b><br />Nume: Groapa Cârbunariștii, Hartă: PDT, Limbă: Limba română</description><Point><coordinates>24.622128,46.944551,0</coordinates></Point></Placemark>
<Placemark><name>Dealul Dasupra Cărbunăriei</name><description>Nume: Dealul Dasupra Cărbunăriei, Tip: cărbunărie, Nivel: 2, Județ: Botosani, Formă: Deal, ID: 9573 <br /><b>Variante</b><br />Nume: Dealul Dasupra Cărbunăriei, Hartă: Moldova (1892-1898), Limbă: Limba română</description><Point><coordinates>26.408171,48.183983,0</coordinates></Point></Placemark>
<Placemark><name>Valea Cărbunăriei</name><description>Nume: Valea Cărbunăriei, Tip: cărbunărie, Nivel: 2, Județ: Botosani, Formă: Vale, ID: 2323 <br /><b>Variante</b><br />Nume: Valea Cărbunăriei, Hartă: Geomil 25000, Limbă: Limba română</description><Point><coordinates>26.468445,48.119781,0</coordinates></Point></Placemark>
<Placemark><name>Cărbunărea</name><description>Nume: Cărbunărea, Tip: cărbunară, Nivel: 3, Județ: Brasov, Formă: Altele, ID: 12883 <br /><b>Variante</b><br />Nume: Cărbunărea, Hartă: PDT, Limbă: Limba română</description><Point><coordinates>25.684382,45.587108,0</coordinates></Point></Placemark>
<Placemark><name>Pârâul Cărbunărei</name><description>Nume: Pârâul Cărbunărei, Tip: cărbunară, Nivel: 3, Județ: Brasov, Formă: Vale, ID: 6800 <br /><b>Variante</b><br />Nume: Pârâul Cărbunărei, Hartă: PDT, Limbă: Limba română</description><Point><coordinates>25.313549,45.932628,0</coordinates></Point></Placemark>
<Placemark><name>Vârful Cărbunărei</name><description>Nume: Vârful Cărbunărei, Tip: cărbunară, Nivel: 3, Județ: Brasov, Formă: Înălțime, ID: 6801, ID Părinte: 6800 <br /><b>Variante</b><br />Nume: Vârful Cărbunărei, Hartă: PDT, Limbă: Limba română</description><Point><coordinates>25.309245,45.933673,0</coordinates></Point></Placemark>
<Placemark><LineString id="6801_6800"><tessellate>1</tessellate><coordinates>25.309245,45.933673,0.
25.313549,45.932628,0</coordinates></LineString><Style><LineStyle><width>3</width></LineStyle></Style></Placemark>
<Placemark><name>Dealul Cărbunăriei</name><description>Nume: Dealul Cărbunăriei, Tip: cărbunărie, Nivel: 2, Județ: Brasov, Formă: Deal, ID: 2485 <br /><b>Variante</b><br />Nume: Dealul Cărbunăriei, Hartă: Geomil 25000, Limbă: Limba română</description><Point><coordinates>25.073508,46.095042,0</coordinates></Point></Placemark>
<Placemark><name>Piscul Cărbunarea</name><description>Nume: Piscul Cărbunarea, Tip: cărbunărie, Nivel: 2, Județ: Brasov, Formă: Înălțime, ID: 6829 <br /><b>Variante</b><br />Nume: Piscul Cărbunarea, Hartă: PDT, Limbă: Limba română</description><Point><coordinates>25.371561,45.750296,0</coordinates></Point></Placemark>
<Placemark><name>Cărbuniște</name><description>Nume: Cărbuniște, Tip: cărbuniște, Nivel: 3, Județ: Cluj, Formă: Altele, ID: 8946 <br /><b>Variante</b><br />Nume: Cărbuniște, Hartă: PDT, Limbă: Limba română</description><Point><coordinates>23.486769,46.977374,0</coordinates></Point></Placemark>
<Placemark><name>Dealu Cărbuniștea</name><description>Nume: Dealu Cărbuniștea, Tip: cărbuniște, Nivel: 3, Județ: Cluj, Formă: Deal, ID: 7042 <br /><b>Variante</b><br />Nume: Dealu Cărbuniștea, Hartă: Geomil 25000, Limbă: Limba română</description><Point><coordinates>23.584756,47.034290,0</coordinates></Point></Placemark>
<Placemark><name>Valea Cărbuniștea</name><description>Nume: Valea Cărbuniștea, Tip: cărbuniște, Nivel: 3, Județ: Cluj, Formă: Vale, ID: 7043, ID Părinte: 7042 <br /><b>Variante</b><br />Nume: Valea Cărbuniștea, Hartă: Geomil 25000, Limbă: Limba română</description><Point><coordinates>23.590564,47.034730,0</coordinates></Point></Placemark>
<Placemark><LineString id="7043_7042"><tessellate>1</tessellate><coordinates>23.590564,47.034730,0.
23.584756,47.034290,0</coordinates></LineString><Style><LineStyle><width>3</width></LineStyle></Style></Placemark>
<Placemark><name>Dealul la Cărbunărărie</name><description>Nume: Dealul la Cărbunărărie, Tip: cărbunărie, Nivel: 2, Județ: Galati, Formă: Deal, ID: 9496 <br /><b>Variante</b><br />Nume: Dealul la Cărbunărărie, Hartă: PDT, Limbă: Limba română</description><Point><coordinates>27.752605,46.088887,0</coordinates></Point></Placemark>
<Placemark><name>Cărbunăria</name><description>Nume: Cărbunăria, Tip: cărbunărie, Nivel: 2, Județ: Hunedoara, Formă: Altele, ID: 5556 <br /><b>Variante</b><br />Nume: Cărbunarii, Hartă: PDT, Limbă: Limba română<br />Nume: Cărbunăria, Hartă: Geomil 25000, Limbă: Limba română</description><Point><coordinates>23.138046,45.722528,0</coordinates></Point></Placemark>
<Placemark><name>Poiana Cărbunăriei</name><description>Nume: Poiana Cărbunăriei, Tip: cărbunărie, Nivel: 2, Județ: Iasi, Formă: Poiană, ID: 2446 <br /><b>Variante</b><br />Nume: Poiana Cărbunăriei, Hartă: Geomil 25000, Limbă: Limba română</description><Point><coordinates>27.678329,47.049562,0</coordinates></Point></Placemark>
<Placemark><name>Valea Cărbunăriei</name><description>Nume: Valea Cărbunăriei, Tip: cărbunărie, Nivel: 2, Județ: Iasi, Formă: Vale, ID: 9547, ID Părinte: 2446 <br /><b>Variante</b><br />Nume: Valea Cărbunăriei, Hartă: Moldova (1892-1898), Limbă: Limba română</description><Point><coordinates>27.698800,47.047020,0</coordinates></Point></Placemark>
<Placemark><LineString id="9547_2446"><tessellate>1</tessellate><coordinates>27.698800,47.047020,0.
27.678329,47.049562,0</coordinates></LineString><Style><LineStyle><width>3</width></LineStyle></Style></Placemark>
<Placemark><name>Valea Cărbunăriștei</name><description>Nume: Valea Cărbunăriștei, Tip: cărbunariște, Nivel: 3, Județ: Maramures, Formă: Vale, ID: 13914 <br /><b>Variante</b><br />Nume: Valea Cărbunăriștei, Hartă: PDT, Limbă: Limba română</description><Point><coordinates>23.548546,47.464674,0</coordinates></Point></Placemark>
<Placemark><name>Pârâul Cărbunărei</name><description>Nume: Pârâul Cărbunărei, Tip: cărbunărie, Nivel: 2, Județ: Mures, Formă: Vale, ID: 11941 <br /><b>Variante</b><br />Nume: Pârâul Cărbunărei, Hartă: PDT, Limbă: Limba română</description><Point><coordinates>24.987188,46.561154,0</coordinates></Point></Placemark>
<Placemark><name>Pârâul Cărbunăriei</name><description>Nume: Pârâul Cărbunăriei, Tip: cărbunărie, Nivel: 2, Județ: Mures, Formă: Vale, ID: 12802 <br /><b>Variante</b><br />Nume: Pârâul Cărbunăriei, Hartă: PDT, Limbă: Limba română</description><Point><coordinates>24.899468,46.594817,0</coordinates></Point></Placemark>
<Placemark><name>Valea Cărbunăriei</name><description>Nume: Valea Cărbunăriei, Tip: cărbunărie, Nivel: 2, Județ: Mures, Formă: Vale, ID: 1911 <br /><b>Variante</b><br />Nume: Valea Cărbunăriei, Hartă: Geomil 25000, Limbă: Limba română</description><Point><coordinates>24.504805,46.378355,0</coordinates></Point></Placemark>
<Placemark><name>Valea Cărbunăria</name><description>Nume: Valea Cărbunăria, Tip: cărbunărie, Nivel: 2, Județ: Olt, Formă: Vale, ID: 1989 <br /><b>Variante</b><br />Nume: Valea Cărbunăria, Hartă: Geomil 25000, Limbă: Limba română</description><Point><coordinates>24.526274,44.573727,0</coordinates></Point></Placemark>
<Placemark><name>Valea Cărbunăria</name><description>Nume: Valea Cărbunăria, Tip: cărbunărie, Nivel: 2, Județ: Olt, Formă: Vale, ID: 3048 <br /><b>Variante</b><br />Nume: Valea Cărbunăria, Hartă: Geomil 25000, Limbă: Limba română</description><Point><coordinates>24.522821,44.585577,0</coordinates></Point></Placemark>
<Placemark><name>Dealu carbuniste</name><description>Nume: Dealu carbuniste, Tip: cărbuniște, Nivel: 3, Județ: Satu Mare, Formă: Deal, ID: 10547 <br /><b>Variante</b><br />Nume: Dealu carbuniste, Hartă: Imperiul Habsburgic (1887), Limbă: Limba română</description><Point><coordinates>23.074114,47.611634,0</coordinates></Point></Placemark>
<Placemark><name>Dealul Cărbunăriei</name><description>Nume: Dealul Cărbunăriei, Tip: cărbunărie, Nivel: 2, Județ: Sibiu, Formă: Deal, ID: 1471 <br /><b>Variante</b><br />Nume: Dealul Cărbunăriei, Hartă: Geomil 25000, Limbă: Limba română</description><Point><coordinates>24.489198,45.741912,0</coordinates></Point></Placemark>
<Placemark><name>Dealul Cărbunăriei</name><description>Nume: Dealul Cărbunăriei, Tip: cărbunărie, Nivel: 2, Județ: Sibiu, Formă: Deal, ID: 2497 <br /><b>Variante</b><br />Nume: Dealul Cărbunăriei, Hartă: Geomil 25000, Limbă: Limba română<br />Nume: D. Cărbunării, Hartă: Imperiul Habsburgic (1887), Limbă: Limba română</description><Point><coordinates>24.244216,45.629084,0</coordinates></Point></Placemark>
<Placemark><name>Valea Cărbunăriilor</name><description>Nume: Valea Cărbunăriilor, Tip: cărbunărie, Nivel: 2, Județ: Vaslui, Formă: Vale, ID: 12256 <br /><b>Variante</b><br />Nume: Valea Cărbunăriilor, Hartă: Geomil 25000, Limbă: Limba română</description><Point><coordinates>27.832821,46.234451,0</coordinates></Point></Placemark></Document></kml>