<?xml version="1.0" encoding="UTF-8"?><kml xmlns="http://www.opengis.net/kml/2.2"><Document><Placemark><name>Epureni</name><description>Nume: Epureni, Tip: epureni, Nivel: 3, Județ: Botosani, Formă: Localitate, ID: 14555 <br /><b>Variante</b><br />Nume: Epureni, Hartă: PDT, Limbă: Limba română</description><Point><coordinates>26.828709,47.864898,0</coordinates></Point></Placemark>
<Placemark><name>Fântâna lui Epure</name><description>Nume: Fântâna lui Epure, Tip: epure, Nivel: 2, Județ: Caras Severin, Formă: Altele, ID: 14616 <br /><b>Variante</b><br />Nume: Fântâna lui Epure, Hartă: PDT, Limbă: Limba română</description><Point><coordinates>21.662743,45.033998,0</coordinates></Point></Placemark>
<Placemark><name>Moara lui Epure</name><description>Nume: Moara lui Epure, Tip: epure, Nivel: 2, Județ: Caras Severin, Formă: Altele, ID: 14617 <br /><b>Variante</b><br />Nume: Moara lui Epure, Hartă: PDT, Limbă: Limba română</description><Point><coordinates>21.649684,45.129974,0</coordinates></Point></Placemark>
<Placemark><name>Moara Epureasca</name><description>Nume: Moara Epureasca, Tip: epureasca, Nivel: 3, Județ: Dolj, Formă: Altele, ID: 14516 <br /><b>Variante</b><br />Nume: Moara Epureasca, Hartă: PDT, Limbă: Limba română</description><Point><coordinates>23.959324,44.113791,0</coordinates></Point></Placemark>
<Placemark><name>La Iazul lui Epure</name><description>Nume: La Iazul lui Epure, Tip: epure, Nivel: 2, Județ: Galati, Formă: Apă-deal-câmpie, ID: 14620 <br /><b>Variante</b><br />Nume: La Iazul lui Epure, Hartă: PDT, Limbă: Limba română</description><Point><coordinates>27.561715,45.895860,0</coordinates></Point></Placemark>
<Placemark><name>Movila Epure</name><description>Nume: Movila Epure, Tip: epure, Nivel: 2, Județ: Ialomita, Formă: Înălțime, ID: 2835 <br /><b>Variante</b><br />Nume: Movila Epure, Hartă: Geomil 25000, Limbă: Limba română<br />Nume: Movila Epure, Hartă: PDT, Limbă: Limba română</description><Point><coordinates>27.839876,44.446250,0</coordinates></Point></Placemark>
<Placemark><name>Epureni</name><description>Nume: Epureni, Tip: epureni, Nivel: 3, Județ: Iasi, Formă: Localitate, ID: 14592 <br /><b>Variante</b><br />Nume: Epureni, Hartă: PDT, Limbă: Limba română</description><Point><coordinates>27.313486,47.467972,0</coordinates></Point></Placemark>
<Placemark><name>Pădurea Epureasca</name><description>Nume: Pădurea Epureasca, Tip: epureasca, Nivel: 3, Județ: Mehedinti, Formă: Pădure, ID: 14537 <br /><b>Variante</b><br />Nume: Pădurea Epureasca, Hartă: ANCPI, Limbă: Limba română</description><Point><coordinates>23.240698,44.571701,0</coordinates></Point></Placemark>
<Placemark><name>Epureni</name><description>Nume: Epureni, Tip: epureni, Nivel: 3, Județ: Mehedinti, Formă: Localitate, ID: 14533 <br /><b>Variante</b><br />Nume: Epureni, Hartă: PDT, Limbă: Limba română</description><Point><coordinates>23.100663,44.574857,0</coordinates></Point></Placemark>
<Placemark><name>Puțul lui Epure</name><description>Nume: Puțul lui Epure, Tip: epure, Nivel: 2, Județ: Olt, Formă: Altele, ID: 14554 <br /><b>Variante</b><br />Nume: Puțul lui Epure, Hartă: PDT, Limbă: Limba română</description><Point><coordinates>24.551459,44.637190,0</coordinates></Point></Placemark>
<Placemark><name>Epureni</name><description>Nume: Epureni, Tip: epureni, Nivel: 3, Județ: Vaslui, Formă: Localitate, ID: 14463 <br /><b>Variante</b><br />Nume: Epureni, Hartă: ANCPI, Limbă: Limba română</description><Point><coordinates>27.910153,46.247660,0</coordinates></Point></Placemark>
<Placemark><name>Epureni</name><description>Nume: Epureni, Tip: epureni, Nivel: 3, Județ: Vaslui, Formă: Localitate, ID: 14556 <br /><b>Variante</b><br />Nume: Epureni, Hartă: PDT, Limbă: Limba română</description><Point><coordinates>28.036354,46.708173,0</coordinates></Point></Placemark></Document></kml>