<?xml version="1.0" encoding="UTF-8"?><kml xmlns="http://www.opengis.net/kml/2.2"><Document><Placemark><name>Epure</name><description>Nume: Epure, Tip: epure, Nivel: 2, Județ: Alba, Formă: Deal, ID: 11822 <br /><b>Variante</b><br />Nume: Epure, Hartă: Transilvania (1869-1870), Limbă: Limba română<br />Nume: Dealul Iepurelui, Hartă: Geomil 25000, Limbă: Limba română</description><Point><coordinates>23.145652,46.136289,0</coordinates></Point></Placemark>
<Placemark><name>Dealu Epure</name><description>Nume: Dealu Epure, Tip: epure, Nivel: 2, Județ: Arad, Formă: Deal, ID: 974 <br /><b>Variante</b><br />Nume: Dealu Iepure, Hartă: Geomil 25000, Limbă: Limba română<br />Nume: D. Epure, Hartă: PDT, Limbă: Limba română</description><Point><coordinates>22.130380,46.438713,0</coordinates></Point></Placemark>
<Placemark><name>Epureasca</name><description>Nume: Epureasca, Tip: epureasca, Nivel: 3, Județ: Arad, Formă: Altele, ID: 15626 <br /><b>Variante</b><br />Nume: Epureasca, Hartă: PDT, Limbă: Limba română</description><Point><coordinates>21.927874,46.533791,0</coordinates></Point></Placemark>
<Placemark><name>Culmea lui Epure</name><description>Nume: Culmea lui Epure, Tip: epure, Nivel: 2, Județ: Arges, Formă: Înălțime, ID: 15608 <br /><b>Variante</b><br />Nume: Culmea lui Epure, Hartă: ANCPI, Limbă: Limba română</description><Point><coordinates>24.880245,45.394702,0</coordinates></Point></Placemark>
<Placemark><name>Epurești</name><description>Nume: Epurești, Tip: epurești, Nivel: 3, Județ: Bihor, Formă: Altele, ID: 14663 <br /><b>Variante</b><br />Nume: Epurești, Hartă: PDT, Limbă: Limba română</description><Point><coordinates>22.213427,46.704241,0</coordinates></Point></Placemark>
<Placemark><name>Epureni</name><description>Nume: Epureni, Tip: epureni, Nivel: 3, Județ: Botosani, Formă: Localitate, ID: 14555 <br /><b>Variante</b><br />Nume: Epureni, Hartă: PDT, Limbă: Limba română</description><Point><coordinates>26.828709,47.864898,0</coordinates></Point></Placemark>
<Placemark><name>La Epurică</name><description>Nume: La Epurică, Tip: epurică, Nivel: 3, Județ: Braila, Formă: Altele, ID: 15415 <br /><b>Variante</b><br />Nume: La Epurică, Hartă: PDT, Limbă: Limba română</description><Point><coordinates>27.706585,45.319786,0</coordinates></Point></Placemark>
<Placemark><name>Fântâna lui Epure</name><description>Nume: Fântâna lui Epure, Tip: epure, Nivel: 2, Județ: Caras Severin, Formă: Altele, ID: 14616 <br /><b>Variante</b><br />Nume: Fântâna lui Epure, Hartă: PDT, Limbă: Limba română</description><Point><coordinates>21.662743,45.033998,0</coordinates></Point></Placemark>
<Placemark><name>Moara lui Epure</name><description>Nume: Moara lui Epure, Tip: epure, Nivel: 2, Județ: Caras Severin, Formă: Altele, ID: 14617 <br /><b>Variante</b><br />Nume: Moara lui Epure, Hartă: PDT, Limbă: Limba română</description><Point><coordinates>21.649684,45.129974,0</coordinates></Point></Placemark>
<Placemark><name>Fântâna Epure</name><description>Nume: Fântâna Epure, Tip: epure, Nivel: 2, Județ: Dolj, Formă: Altele, ID: 14971 <br /><b>Variante</b><br />Nume: Fântâna Epure, Hartă: PDT, Limbă: Limba română</description><Point><coordinates>24.001695,44.242274,0</coordinates></Point></Placemark>
<Placemark><name>Măgura lui Epure</name><description>Nume: Măgura lui Epure, Tip: epure, Nivel: 2, Județ: Dolj, Formă: Înălțime, ID: 14762 <br /><b>Variante</b><br />Nume: Măgura lui Epure, Hartă: PDT, Limbă: Limba română</description><Point><coordinates>23.454889,44.211841,0</coordinates></Point></Placemark>
<Placemark><name>Piscul lui Epure</name><description>Nume: Piscul lui Epure, Tip: epure, Nivel: 2, Județ: Dolj, Formă: Înălțime, ID: 14731 <br /><b>Variante</b><br />Nume: Piscul lui Epure, Hartă: PDT, Limbă: Limba română</description><Point><coordinates>23.612237,44.220063,0</coordinates></Point></Placemark>
<Placemark><name>Poiana lui Epure</name><description>Nume: Poiana lui Epure, Tip: epure, Nivel: 2, Județ: Dolj, Formă: Poiană, ID: 14764 <br /><b>Variante</b><br />Nume: Poiana lui Epure, Hartă: ANCPI, Limbă: Limba română</description><Point><coordinates>23.020541,44.793933,0</coordinates></Point></Placemark>
<Placemark><name>Moara Epureasca</name><description>Nume: Moara Epureasca, Tip: epureasca, Nivel: 3, Județ: Dolj, Formă: Altele, ID: 14516 <br /><b>Variante</b><br />Nume: Moara Epureasca, Hartă: PDT, Limbă: Limba română</description><Point><coordinates>23.959324,44.113791,0</coordinates></Point></Placemark>
<Placemark><name>Valea Epurești</name><description>Nume: Valea Epurești, Tip: epurești, Nivel: 3, Județ: Dolj, Formă: Vale, ID: 14761 <br /><b>Variante</b><br />Nume: Valea Epurești, Hartă: PDT, Limbă: Limba română</description><Point><coordinates>23.210125,44.202173,0</coordinates></Point></Placemark>
<Placemark><name>La Iazul lui Epure</name><description>Nume: La Iazul lui Epure, Tip: epure, Nivel: 2, Județ: Galati, Formă: Apă-deal-câmpie, ID: 14620 <br /><b>Variante</b><br />Nume: La Iazul lui Epure, Hartă: PDT, Limbă: Limba română</description><Point><coordinates>27.561715,45.895860,0</coordinates></Point></Placemark>
<Placemark><name>Epurești</name><description>Nume: Epurești, Tip: epurești, Nivel: 3, Județ: Giurgiu, Formă: Localitate, ID: 14753 <br /><b>Variante</b><br />Nume: Epurești, Hartă: PDT, Limbă: Limba română</description><Point><coordinates>25.885709,44.258465,0</coordinates></Point></Placemark>
<Placemark><name>Cotu Epure</name><description>Nume: Cotu Epure, Tip: epure, Nivel: 2, Județ: Ialomita, Formă: Apă-deal-câmpie, ID: 15006 <br /><b>Variante</b><br />Nume: Cotu Epure, Hartă: PDT, Limbă: Limba română</description><Point><coordinates>27.704347,44.673238,0</coordinates></Point></Placemark>
<Placemark><name>Movila Epure</name><description>Nume: Movila Epure, Tip: epure, Nivel: 2, Județ: Ialomita, Formă: Înălțime, ID: 2835 <br /><b>Variante</b><br />Nume: Movila Epure, Hartă: Geomil 25000, Limbă: Limba română<br />Nume: Movila Epure, Hartă: PDT, Limbă: Limba română</description><Point><coordinates>27.839876,44.446250,0</coordinates></Point></Placemark>
<Placemark><name>Epureni</name><description>Nume: Epureni, Tip: epureni, Nivel: 3, Județ: Iasi, Formă: Localitate, ID: 14592 <br /><b>Variante</b><br />Nume: Epureni, Hartă: PDT, Limbă: Limba română</description><Point><coordinates>27.313486,47.467972,0</coordinates></Point></Placemark>
<Placemark><name>Epureni</name><description>Nume: Epureni, Tip: epureni, Nivel: 3, Județ: Iasi, Formă: Localitate, ID: 14751 <br /><b>Variante</b><br />Nume: Epureni, Hartă: PDT, Limbă: Limba română</description><Point><coordinates>27.432190,47.296074,0</coordinates></Point></Placemark>
<Placemark><name>Peștera Epuran</name><description>Nume: Peștera Epuran, Tip: epuran, Nivel: 3, Județ: Mehedinti, Formă: Altele, ID: 15077 <br /><b>Variante</b><br />Nume: Peștera Epuran, Hartă: Munții noștri, Limbă: Limba română</description><Point><coordinates>22.571008,44.832611,0</coordinates></Point></Placemark>
<Placemark><name>Epurani</name><description>Nume: Epurani, Tip: epurani, Nivel: 3, Județ: Mehedinti, Formă: Localitate, ID: 15663 <br /><b>Variante</b><br />Nume: Epurani, Hartă: PDT, Limbă: Limba română</description><Point><coordinates>23.377635,44.614504,0</coordinates></Point></Placemark>
<Placemark><name>Pădurea Epureasca</name><description>Nume: Pădurea Epureasca, Tip: epureasca, Nivel: 3, Județ: Mehedinti, Formă: Pădure, ID: 14537 <br /><b>Variante</b><br />Nume: Pădurea Epureasca, Hartă: ANCPI, Limbă: Limba română</description><Point><coordinates>23.240698,44.571701,0</coordinates></Point></Placemark>
<Placemark><name>Dealul Epurenilor</name><description>Nume: Dealul Epurenilor, Tip: epureni, Nivel: 3, Județ: Mehedinti, Formă: Deal, ID: 14837 <br /><b>Variante</b><br />Nume: Dealul Epurenilor, Hartă: ANCPI, Limbă: Limba română<br />Nume: Dealul Iepurenilor, Hartă: Austriacă, Limbă: Limba română</description><Point><coordinates>22.610318,44.712592,0</coordinates></Point></Placemark>
<Placemark><name>Epureni</name><description>Nume: Epureni, Tip: epureni, Nivel: 3, Județ: Mehedinti, Formă: Localitate, ID: 14533 <br /><b>Variante</b><br />Nume: Epureni, Hartă: PDT, Limbă: Limba română</description><Point><coordinates>23.100663,44.574857,0</coordinates></Point></Placemark>
<Placemark><name>La Arșița Epure</name><description>Nume: La Arșița Epure, Tip: epure, Nivel: 2, Județ: Neamt, Formă: Poiană, ID: 15829 <br /><b>Variante</b><br />Nume: La Arșița Epure, Hartă: PDT, Limbă: Limba română</description><Point><coordinates>26.023296,47.167894,0</coordinates></Point></Placemark>
<Placemark><name>Epurani</name><description>Nume: Epurani, Tip: epurani, Nivel: 3, Județ: Olt, Formă: Localitate, ID: 14790 <br /><b>Variante</b><br />Nume: Epurani, Hartă: PDT, Limbă: Limba română</description><Point><coordinates>24.520848,44.622765,0</coordinates></Point></Placemark>
<Placemark><name>Puțul lui Epure</name><description>Nume: Puțul lui Epure, Tip: epure, Nivel: 2, Județ: Olt, Formă: Altele, ID: 14554 <br /><b>Variante</b><br />Nume: Puțul lui Epure, Hartă: PDT, Limbă: Limba română</description><Point><coordinates>24.551459,44.637190,0</coordinates></Point></Placemark>
<Placemark><name>Bâtca lui Epure</name><description>Nume: Bâtca lui Epure, Tip: epure, Nivel: 2, Județ: Suceava, Formă: Înălțime, ID: 15821 <br /><b>Variante</b><br />Nume: Bâtca lui Epure, Hartă: PDT, Limbă: Limba română</description><Point><coordinates>26.006960,47.431563,0</coordinates></Point></Placemark>
<Placemark><name>La Lacul Epei</name><description>Nume: La Lacul Epei, Tip: epa, Nivel: 3, Județ: Teleorman, Formă: Lac, ID: 14821 <br /><b>Variante</b><br />Nume: La Lacul Epei, Hartă: PDT, Limbă: Limba română</description><Point><coordinates>25.096921,44.337353,0</coordinates></Point></Placemark>
<Placemark><name>Valea Epureanca</name><description>Nume: Valea Epureanca, Tip: epureanca, Nivel: 3, Județ: Teleorman, Formă: Vale, ID: 14792 <br /><b>Variante</b><br />Nume: Valea Epureanca, Hartă: PDT, Limbă: Limba română</description><Point><coordinates>24.932400,44.043948,0</coordinates></Point></Placemark>
<Placemark><name>Dealul Epurăriei</name><description>Nume: Dealul Epurăriei, Tip: epurărie, Nivel: 3, Județ: Vaslui, Formă: Deal, ID: 14998 <br /><b>Variante</b><br />Nume: Dealul Epurăriei, Hartă: PDT, Limbă: Limba română</description><Point><coordinates>27.873919,46.824052,0</coordinates></Point></Placemark>
<Placemark><name>Dealul Epure</name><description>Nume: Dealul Epure, Tip: epure, Nivel: 2, Județ: Vaslui, Formă: Deal, ID: 14805 <br /><b>Variante</b><br />Nume: Dealul Epure, Hartă: Moldova (1892-1898), Limbă: Limba română</description><Point><coordinates>27.514651,46.255000,0</coordinates></Point></Placemark>
<Placemark><name>Epureni</name><description>Nume: Epureni, Tip: epureni, Nivel: 3, Județ: Vaslui, Formă: Localitate, ID: 14463 <br /><b>Variante</b><br />Nume: Epureni, Hartă: ANCPI, Limbă: Limba română</description><Point><coordinates>27.910153,46.247660,0</coordinates></Point></Placemark>
<Placemark><name>Epureni</name><description>Nume: Epureni, Tip: epureni, Nivel: 3, Județ: Vaslui, Formă: Localitate, ID: 14556 <br /><b>Variante</b><br />Nume: Epureni, Hartă: PDT, Limbă: Limba română</description><Point><coordinates>28.036354,46.708173,0</coordinates></Point></Placemark></Document></kml>