<?xml version="1.0" encoding="UTF-8"?><kml xmlns="http://www.opengis.net/kml/2.2"><Document><Placemark><name>Cimitirul Turcesc</name><description>Nume: Cimitirul Turcesc, Tip: turcesc, Nivel: 3, Județ: Constanta, Formă: Altele, ID: 2860 <br /><b>Variante</b><br />Nume: Cimitirul Turcesc, Hartă: Geomil 25000, Limbă: Limba română</description><Point><coordinates>28.452191,44.096921</coordinates></Point></Placemark>
<Placemark><name>La Cimitirul Turcesc</name><description>Nume: La Cimitirul Turcesc, Tip: turcesc, Nivel: 3, Județ: Tulcea, Formă: Altele, ID: 2884 <br /><b>Variante</b><br />Nume: La Cimitirul Turcesc, Hartă: Geomil 25000, Limbă: Limba română</description><Point><coordinates>28.359136,44.985035</coordinates></Point></Placemark>
<Placemark><name>Ostorvu Turcesc</name><description>Nume: Ostorvu Turcesc, Tip: turcesc, Nivel: 3, Județ: Calarasi, Formă: Apă-deal-câmpie, ID: 3214 <br /><b>Variante</b><br />Nume: Ostorvu Turcesc, Hartă: Geomil 25000, Limbă: Limba română</description><Point><coordinates>27.584606,44.199594</coordinates></Point></Placemark>
<Placemark><name>Lacul Peștele Turcesc</name><description>Nume: Lacul Peștele Turcesc, Tip: turcesc, Nivel: 3, Județ: Braila, Formă: Lac, ID: 6710 <br /><b>Variante</b><br />Nume: Lacul Peștele Turcesc, Hartă: PDT, Limbă: Limba română</description><Point><coordinates>28.073631,44.981200</coordinates></Point></Placemark>
<Placemark><name>Glăvănețele Turcesci</name><description>Nume: Glăvănețele Turcesci, Tip: turcesc, Nivel: 3, Județ: Braila, Formă: Apă-deal-câmpie, ID: 6717 <br /><b>Variante</b><br />Nume: Glăvănețele Turcesci, Hartă: PDT, Limbă: Limba română</description><Point><coordinates>27.976126,44.964240</coordinates></Point></Placemark>
<Placemark><name>Sacoșu Turcesc</name><description>Nume: Sacoșu Turcesc, Tip: turcesc, Nivel: 3, Județ: Timis, Formă: Localitate, ID: 7613 <br /><b>Variante</b><br />Nume: Sacoșu Turcesc, Hartă: Geomil 25000, Limbă: Limba română</description><Point><coordinates>21.428880,45.655325</coordinates></Point></Placemark>
<Placemark><name>Ostrovul Turcesc</name><description>Nume: Ostrovul Turcesc, Tip: turcesc, Nivel: 3, Județ: Dolj, Formă: Apă-deal-câmpie, ID: 8489 <br /><b>Variante</b><br />Nume: Ostrovul Turcesc, Hartă: PDT, Limbă: Limba română</description><Point><coordinates>22.892410,43.986945</coordinates></Point></Placemark>
<Placemark><name>Movila la Cimitirul Turcesc</name><description>Nume: Movila la Cimitirul Turcesc, Tip: turcesc, Nivel: 3, Județ: Constanta, Formă: Înălțime, ID: 9308 <br /><b>Variante</b><br />Nume: Movila la Cimitirul Turcesc, Hartă: PDT, Limbă: Limba română<br />Nume: Movila la Cimitirul Turcesc, Hartă: Geomil 25000, Limbă: Limba română</description><Point><coordinates>28.566149,43.920706</coordinates></Point></Placemark></Document></kml>