<?xml version="1.0" encoding="UTF-8"?><kml xmlns="http://www.opengis.net/kml/2.2"><Document><Placemark><name>Scheiul</name><description>Nume: Scheiul, Tip: schei, Nivel: 2, Județ: Arges, Formă: Localitate, ID: 12579 <br /><b>Variante</b><br />Nume: Scheiul, Hartă: British Maps (1944), Limbă: Limba română</description><Point><coordinates>24.530916,45.106370,0</coordinates></Point></Placemark>
<Placemark><name>Piua din Schei</name><description>Nume: Piua din Schei, Tip: schei, Nivel: 2, Județ: Brasov, Formă: Altele, ID: 6843 <br /><b>Variante</b><br />Nume: Piua din Schei, Hartă: PDT, Limbă: Limba română</description><Point><coordinates>25.652064,45.598838,0</coordinates></Point></Placemark>
<Placemark><name>Piua din Schei</name><description>Nume: Piua din Schei, Tip: schei, Nivel: 2, Județ: Brasov, Formă: Altele, ID: 6844, ID Părinte: 6843 <br /><b>Variante</b><br />Nume: Piua din Schei, Hartă: PDT, Limbă: Limba română</description><Point><coordinates>25.653002,45.609120,0</coordinates></Point></Placemark>
<Placemark><LineString id="6844_6843"><tessellate>1</tessellate><coordinates>25.653002,45.609120,0.
25.652064,45.598838,0</coordinates></LineString><Style><LineStyle><width>3</width></LineStyle></Style></Placemark>
<Placemark><name>Dealul Schei</name><description>Nume: Dealul Schei, Tip: schei, Nivel: 2, Județ: Dambovita, Formă: Deal, ID: 10167, ID Părinte: 528 <br /><b>Variante</b><br />Nume: Dealul Schei, Hartă: PDT, Limbă: Limba română</description><Point><coordinates>25.178299,44.946934,0</coordinates></Point></Placemark>
<Placemark><LineString id="10167_528"><tessellate>1</tessellate><coordinates>25.178299,44.946934,0.
25.202460,44.928625,0</coordinates></LineString><Style><LineStyle><width>3</width></LineStyle></Style></Placemark>
<Placemark><name>Valea Schei</name><description>Nume: Valea Schei, Tip: schei, Nivel: 2, Județ: Dambovita, Formă: Vale, ID: 8371 <br /><b>Variante</b><br />Nume: Valea Schei, Hartă: PDT, Limbă: Limba română</description><Point><coordinates>25.281167,45.068277,0</coordinates></Point></Placemark>
<Placemark><name>Valea Scheiul</name><description>Nume: Valea Scheiul, Tip: schei, Nivel: 2, Județ: Gorj, Formă: Vale, ID: 13949 <br /><b>Variante</b><br />Nume: Valea Scheiul, Hartă: PDT, Limbă: Limba română</description><Point><coordinates>23.639079,44.829524,0</coordinates></Point></Placemark>
<Placemark><name>Șaua Scheiului</name><description>Nume: Șaua Scheiului, Tip: schei, Nivel: 2, Județ: Hunedoara, Formă: Înălțime, ID: 10330 <br /><b>Variante</b><br />Nume: Șaua Scheiului, Hartă: Geomil 25000, Limbă: Limba română</description><Point><coordinates>22.598965,45.304903,0</coordinates></Point></Placemark>
<Placemark><name>Schei</name><description>Nume: Schei, Tip: schei, Nivel: 2, Județ: Hunedoara, Formă: Localitate, ID: 10801 <br /><b>Variante</b><br />Nume: Schei, Hartă: Imperiul Habsburgic (1887), Limbă: Limba română<br />Nume: Skei, Hartă: Transilvania (1869-1870), Limbă: Limba română</description><Point><coordinates>22.739668,45.579028,0</coordinates></Point></Placemark>
<Placemark><name>La Șesul Schei</name><description>Nume: La Șesul Schei, Tip: schei, Nivel: 2, Județ: Neamt, Formă: Câmp, ID: 9630, ID Părinte: 9631 <br /><b>Variante</b><br />Nume: La Șesul Schei, Hartă: Moldova (1892-1898), Limbă: Limba română</description><Point><coordinates>27.014781,46.772211,0</coordinates></Point></Placemark>
<Placemark><LineString id="9630_9631"><tessellate>1</tessellate><coordinates>27.014781,46.772211,0.
27.019305,46.768309,0</coordinates></LineString><Style><LineStyle><width>3</width></LineStyle></Style></Placemark>
<Placemark><name>Cotul Schei</name><description>Nume: Cotul Schei, Tip: schei, Nivel: 2, Județ: Vaslui, Formă: Apă-deal-câmpie, ID: 6563, ID Părinte: 1690 <br /><b>Variante</b><br />Nume: Cotul Schei, Hartă: Geomil 25000, Limbă: Limba română<br />Nume: Cotul Schea, Hartă: PDT, Limbă: Limba română</description><Point><coordinates>28.226504,46.526491,0</coordinates></Point></Placemark>
<Placemark><LineString id="6563_1690"><tessellate>1</tessellate><coordinates>28.226504,46.526491,0.
28.161955,46.514869,0</coordinates></LineString><Style><LineStyle><width>3</width></LineStyle></Style></Placemark></Document></kml>