<?xml version="1.0" encoding="UTF-8"?><kml xmlns="http://www.opengis.net/kml/2.2"><Document><Placemark><name>Pârâul Voivodesei</name><description>Nume: Pârâul Voivodesei, Tip: voievodeasa, Nivel: 3, Județ: Bihor, Formă: Vale, ID: 12353, ID Părinte: 12352 <br /><b>Variante</b><br />Nume: Pârâul Voivodesei, Hartă: PDT, Limbă: Limba română</description><Point><coordinates>22.628513,47.036706,0</coordinates></Point></Placemark>
<Placemark><LineString id="12353_12352"><tessellate>1</tessellate><coordinates>22.628513,47.036706,0.
22.632882,47.037324,0</coordinates></LineString><Style><LineStyle><width>3</width></LineStyle></Style></Placemark>
<Placemark><name>Piciorul Voivodesei</name><description>Nume: Piciorul Voivodesei, Tip: voievodeasa, Nivel: 3, Județ: Bihor, Formă: Înălțime, ID: 12352 <br /><b>Variante</b><br />Nume: Piciorul Voivodesei, Hartă: PDT, Limbă: Limba română</description><Point><coordinates>22.632882,47.037324,0</coordinates></Point></Placemark>
<Placemark><name>Poiana Voivodeasa</name><description>Nume: Poiana Voivodeasa, Tip: voievodeasa, Nivel: 3, Județ: Bihor, Formă: Poiană, ID: 12540 <br /><b>Variante</b><br />Nume: Poiana Voivodeasa, Hartă: Geomil 25000, Limbă: Limba română</description><Point><coordinates>22.558321,46.711764,0</coordinates></Point></Placemark>
<Placemark><name>Balta Voievodeasa</name><description>Nume: Balta Voievodeasa, Tip: voievodeasa, Nivel: 3, Județ: Dolj, Formă: Apă-deal-câmpie, ID: 5169 <br /><b>Variante</b><br />Nume: Balta Voievodeasa, Hartă: Geomil 25000, Limbă: Limba română</description><Point><coordinates>23.655005,44.445861,0</coordinates></Point></Placemark>
<Placemark><name>Voivodeasa</name><description>Nume: Voivodeasa, Tip: voievodeasa, Nivel: 3, Județ: Harghita, Formă: Vale, ID: 5420, ID Părinte: 5421 <br /><b>Variante</b><br />Nume: Voivodeasa, Hartă: Geomil 25000, Limbă: Limba română</description><Point><coordinates>25.385224,47.050887,0</coordinates></Point></Placemark>
<Placemark><LineString id="5420_5421"><tessellate>1</tessellate><coordinates>25.385224,47.050887,0.
25.311096,47.112442,0</coordinates></LineString><Style><LineStyle><width>3</width></LineStyle></Style></Placemark>
<Placemark><name>Voivodeasa</name><description>Nume: Voivodeasa, Tip: voievodeasa, Nivel: 3, Județ: Harghita, Formă: Înălțime, ID: 5421 <br /><b>Variante</b><br />Nume: Voivodeasa, Hartă: Geomil 25000, Limbă: Limba română</description><Point><coordinates>25.311096,47.112442,0</coordinates></Point></Placemark>
<Placemark><name>Fântâna Voivodeasa</name><description>Nume: Fântâna Voivodeasa, Tip: voievodeasa, Nivel: 3, Județ: Salaj, Formă: Altele, ID: 7563 <br /><b>Variante</b><br />Nume: Fântâna Voivodeasa, Hartă: PDT, Limbă: Limba română</description><Point><coordinates>23.197172,47.231541,0</coordinates></Point></Placemark>
<Placemark><name>Voievodeasa</name><description>Nume: Voievodeasa, Tip: voievodeasa, Nivel: 3, Județ: Suceava, Formă: Localitate, ID: 6315 <br /><b>Variante</b><br />Nume: Voievodeasa, Hartă: Geomil 25000, Limbă: Limba română</description><Point><coordinates>25.763188,47.792608,0</coordinates></Point></Placemark></Document></kml>