<?xml version="1.0" encoding="UTF-8"?><kml xmlns="http://www.opengis.net/kml/2.2"><Document><Placemark><name>Die Burg (Cetatea)</name><description>Nume: Die Burg (Cetatea), Tip: burg (cetate), Nivel: 2, Județ: Bistrita Nasaud, Formă: Înălțime, ID: 10582 <br /><b>Variante</b><br />Nume: Die Burg (Cetatea), Hartă: Imperiul Habsburgic (1887), Limbă: Limba germană</description><Point><coordinates>24.516432,47.237270,0</coordinates></Point></Placemark>
<Placemark><name>Burg</name><description>Nume: Burg, Tip: burg (cetate), Nivel: 2, Județ: Brasov, Formă: Înălțime, ID: 10633 <br /><b>Variante</b><br />Nume: Burg, Hartă: Imperiul Habsburgic (1887), Limbă: Limba română</description><Point><coordinates>24.805156,45.907086,0</coordinates></Point></Placemark>
<Placemark><name>Burg Berg</name><description>Nume: Burg Berg, Tip: burg (cetate), Nivel: 2, Județ: Brasov, Formă: Deal, ID: 10566 <br /><b>Variante</b><br />Nume: Burg Berg, Hartă: Imperiul Habsburgic (1887), Limbă: Limba germană</description><Point><coordinates>25.444538,45.904061,0</coordinates></Point></Placemark>
<Placemark><name>Burg</name><description>Nume: Burg, Tip: burg (cetate), Nivel: 2, Județ: Mures, Formă: Înălțime, ID: 11898 <br /><b>Variante</b><br />Nume: Burg, Hartă: Transilvania (1869-1870), Limbă: Limba germană<br />Nume: Alt Burg (Cetatea Veche), Hartă: Imperiul Habsburgic (1887), Limbă: Limba germană</description><Point><coordinates>24.791478,46.842361,0</coordinates></Point></Placemark>
<Placemark><name>Alte Burg (Cetatea Veche)</name><description>Nume: Alte Burg (Cetatea Veche), Tip: burg (cetate), Nivel: 2, Județ: Sibiu, Formă: Înălțime, ID: 11847 <br /><b>Variante</b><br />Nume: Alte Burg (Cetatea Veche), Hartă: Imperiul Habsburgic (1887), Limbă: Limba română</description><Point><coordinates>24.676613,45.977892,0</coordinates></Point></Placemark>
<Placemark><name>Auf der Burg</name><description>Nume: Auf der Burg, Tip: burg (cetate), Nivel: 2, Județ: Sibiu, Formă: Înălțime, ID: 10485 <br /><b>Variante</b><br />Nume: Auf der Burg, Hartă: Transilvania (1869-1870), Limbă: Limba germană</description><Point><coordinates>24.288337,46.081766,0</coordinates></Point></Placemark>
<Placemark><name>Burgberg</name><description>Nume: Burgberg, Tip: burg (cetate), Nivel: 2, Județ: Sibiu, Formă: Înălțime, ID: 10484 <br /><b>Variante</b><br />Nume: Burgberg, Hartă: Transilvania (1869-1870), Limbă: Limba germană</description><Point><coordinates>24.240620,46.124990,0</coordinates></Point></Placemark>
<Placemark><name>Burgberg</name><description>Nume: Burgberg, Tip: burg (cetate), Nivel: 2, Județ: Sibiu, Formă: Înălțime, ID: 10486 <br /><b>Variante</b><br />Nume: Burgberg, Hartă: Transilvania (1869-1870), Limbă: Limba germană</description><Point><coordinates>24.515606,46.138183,0</coordinates></Point></Placemark>
<Placemark><name>Dealul Burguleț</name><description>Nume: Dealul Burguleț, Tip: burg (cetate), Nivel: 2, Județ: Vrancea, Formă: Deal, ID: 10881 <br /><b>Variante</b><br />Nume: Dealul Burguleț, Hartă: Moldova (1892-1898), Limbă: Limba română</description><Point><coordinates>26.719207,46.078704,0</coordinates></Point></Placemark></Document></kml>