<?xml version="1.0" encoding="UTF-8"?><kml xmlns="http://www.opengis.net/kml/2.2"><Document><Placemark><name>Zimbru</name><description>Nume: Zimbru, Tip: zimbru, Nivel: 3, Județ: Arad, Formă: Localitate, ID: 5604 <br /><b>Variante</b><br />Nume: Zimbru, Hartă: Geomil 25000, Limbă: Limba română<br />Nume: Zimbrul, Hartă: PDT, Limbă: Limba română</description><Point><coordinates>22.388568,46.333802,0</coordinates></Point></Placemark>
<Placemark><name>Piscul Zimbrului</name><description>Nume: Piscul Zimbrului, Tip: zimbru, Nivel: 3, Județ: Arges, Formă: Înălțime, ID: 4986 <br /><b>Variante</b><br />Nume: Piscul Zimbrului, Hartă: Geomil 25000, Limbă: Limba română</description><Point><coordinates>24.630637,45.401004,0</coordinates></Point></Placemark>
<Placemark><name>Zimbrul</name><description>Nume: Zimbrul, Tip: zimbru, Nivel: 3, Județ: Arges, Formă: Vale, ID: 4991 <br /><b>Variante</b><br />Nume: Zimbrul, Hartă: Geomil 25000, Limbă: Limba română</description><Point><coordinates>24.805593,45.378971,0</coordinates></Point></Placemark>
<Placemark><name>Piciorul Curmătura Zimbrului</name><description>Nume: Piciorul Curmătura Zimbrului, Tip: zimbru, Nivel: 3, Județ: Bacau, Formă: Înălțime, ID: 6549 <br /><b>Variante</b><br />Nume: Piciorul Curmătura Zimbrului, Hartă: PDT, Limbă: Limba română</description><Point><coordinates>26.409332,46.463085,0</coordinates></Point></Placemark>
<Placemark><name>Valea Zimbrului</name><description>Nume: Valea Zimbrului, Tip: zimbru, Nivel: 3, Județ: Bacau, Formă: Vale, ID: 7826 <br /><b>Variante</b><br />Nume: Valea Zimbrului, Hartă: Geomil 25000, Limbă: Limba română</description><Point><coordinates>26.846737,46.437182,0</coordinates></Point></Placemark>
<Placemark><name>Dealu Zimbrului</name><description>Nume: Dealu Zimbrului, Tip: zimbru, Nivel: 3, Județ: Bihor, Formă: Deal, ID: 5915 <br /><b>Variante</b><br />Nume: Dealu Zimbrului, Hartă: Geomil 25000, Limbă: Limba română</description><Point><coordinates>22.669347,46.827985,0</coordinates></Point></Placemark>
<Placemark><name>Poiana Zimbrului</name><description>Nume: Poiana Zimbrului, Tip: zimbru, Nivel: 3, Județ: Bistrita Nasaud, Formă: Poiană, ID: 9878 <br /><b>Variante</b><br />Nume: Poiana Zimbrului, Hartă: Geomil 25000, Limbă: Limba română</description><Point><coordinates>24.765235,47.288695,0</coordinates></Point></Placemark>
<Placemark><name>Valea Zimbrului</name><description>Nume: Valea Zimbrului, Tip: zimbru, Nivel: 3, Județ: Bistrita Nasaud, Formă: Vale, ID: 6363 <br /><b>Variante</b><br />Nume: Valea Zimbrului, Hartă: Geomil 25000, Limbă: Limba română</description><Point><coordinates>24.829094,47.344106,0</coordinates></Point></Placemark>
<Placemark><name>Zimbrul</name><description>Nume: Zimbrul, Tip: zimbru, Nivel: 3, Județ: Bistrita Nasaud, Formă: Înălțime, ID: 10854 <br /><b>Variante</b><br />Nume: Zimbrul, Hartă: Geomil 25000, Limbă: Limba română</description><Point><coordinates>25.040388,47.244052,0</coordinates></Point></Placemark>
<Placemark><name>Pârâul Zimbrului</name><description>Nume: Pârâul Zimbrului, Tip: zimbru, Nivel: 3, Județ: Brasov, Formă: Vale, ID: 14165 <br /><b>Variante</b><br />Nume: Pârâul Zimbrului, Hartă: PDT, Limbă: Limba română</description><Point><coordinates>25.303083,45.601534,0</coordinates></Point></Placemark>
<Placemark><name>Plaiul Zimbrului</name><description>Nume: Plaiul Zimbrului, Tip: zimbru, Nivel: 3, Județ: Brasov, Formă: Înălțime, ID: 6048 <br /><b>Variante</b><br />Nume: Plaiul Zimbrului, Hartă: Geomil 25000, Limbă: Limba română</description><Point><coordinates>25.797188,45.544538,0</coordinates></Point></Placemark>
<Placemark><name>Vârful Zimbrul Mare</name><description>Nume: Vârful Zimbrul Mare, Tip: zimbru, Nivel: 3, Județ: Covasna, Formă: Înălțime, ID: 798 <br /><b>Variante</b><br />Nume: Vârful Zimbrul Mare, Hartă: Geomil 25000, Limbă: Limba română</description><Point><coordinates>26.177367,45.595147,0</coordinates></Point></Placemark>
<Placemark><name>Dealul Zimbrului</name><description>Nume: Dealul Zimbrului, Tip: zimbru, Nivel: 3, Județ: Galati, Formă: Deal, ID: 7366 <br /><b>Variante</b><br />Nume: Dealul Zimbrului, Hartă: Geomil 25000, Limbă: Limba română</description><Point><coordinates>27.754040,46.055787,0</coordinates></Point></Placemark>
<Placemark><name>Măgura Zimbrului</name><description>Nume: Măgura Zimbrului, Tip: zimbru, Nivel: 3, Județ: Hunedoara, Formă: Înălțime, ID: 5131 <br /><b>Variante</b><br />Nume: Măgura Zimbrului, Hartă: Geomil 25000, Limbă: Limba română</description><Point><coordinates>22.853090,45.470516,0</coordinates></Point></Placemark>
<Placemark><name>Popasu Zimbru</name><description>Nume: Popasu Zimbru, Tip: zimbru, Nivel: 3, Județ: Hunedoara, Formă: Altele, ID: 5560 <br /><b>Variante</b><br />Nume: Popasu Zimbru, Hartă: Geomil 25000, Limbă: Limba română</description><Point><coordinates>22.976760,45.612092,0</coordinates></Point></Placemark>
<Placemark><name>Dealul Zimbrului</name><description>Nume: Dealul Zimbrului, Tip: zimbru, Nivel: 3, Județ: Maramures, Formă: Deal, ID: 7155 <br /><b>Variante</b><br />Nume: Dealul Zimbrului, Hartă: Geomil 25000, Limbă: Limba română<br />Nume: Dealul Zimbrului, Hartă: PDT, Limbă: Limba română</description><Point><coordinates>24.441179,47.656413,0</coordinates></Point></Placemark>
<Placemark><name>Valea Zimbrului</name><description>Nume: Valea Zimbrului, Tip: zimbru, Nivel: 3, Județ: Maramures, Formă: Vale, ID: 1028 <br /><b>Variante</b><br />Nume: Valea Zimbrului, Hartă: Geomil 25000, Limbă: Limba română</description><Point><coordinates>24.200807,47.513439,0</coordinates></Point></Placemark>
<Placemark><name>Vârful Zimbroiului</name><description>Nume: Vârful Zimbroiului, Tip: zimbroi, Nivel: 4, Județ: Mures, Formă: Înălțime, ID: 5395 <br /><b>Variante</b><br />Nume: Vârful Zimbroiului, Hartă: Geomil 25000, Limbă: Limba română</description><Point><coordinates>25.227613,46.822478,0</coordinates></Point></Placemark>
<Placemark><name>Cornu Zimbrului</name><description>Nume: Cornu Zimbrului, Tip: zimbru, Nivel: 3, Județ: Mures, Formă: Înălțime, ID: 14470 <br /><b>Variante</b><br />Nume: Cornu Zimbrului, Hartă: Transilvania (1869-1870), Limbă: Limba română</description><Point><coordinates>25.016691,47.001786,0</coordinates></Point></Placemark>
<Placemark><name>Dealul Zimbrului</name><description>Nume: Dealul Zimbrului, Tip: zimbru, Nivel: 3, Județ: Neamt, Formă: Deal, ID: 683 <br /><b>Variante</b><br />Nume: Dealul Zimbrului, Hartă: Geomil 25000, Limbă: Limba română<br />Nume: Dealul Zimbrului, Hartă: PDT, Limbă: Limba română</description><Point><coordinates>26.159720,46.730655,0</coordinates></Point></Placemark>
<Placemark><name>Valea Zimbru</name><description>Nume: Valea Zimbru, Tip: zimbru, Nivel: 3, Județ: Neamt, Formă: Vale, ID: 6481 <br /><b>Variante</b><br />Nume: Valea Zimbru, Hartă: PDT, Limbă: Limba română</description><Point><coordinates>26.317733,46.907630,0</coordinates></Point></Placemark>
<Placemark><name>Valea Zimbrului</name><description>Nume: Valea Zimbrului, Tip: zimbru, Nivel: 3, Județ: Neamt, Formă: Vale, ID: 9821 <br /><b>Variante</b><br />Nume: Valea Zimbrului, Hartă: Geomil 25000, Limbă: Limba română</description><Point><coordinates>27.125626,46.928374,0</coordinates></Point></Placemark>
<Placemark><name>Zimbrul</name><description>Nume: Zimbrul, Tip: zimbru, Nivel: 3, Județ: Neamt, Formă: Înălțime, ID: 1635 <br /><b>Variante</b><br />Nume: Zimbrul, Hartă: Geomil 25000, Limbă: Limba română</description><Point><coordinates>27.105101,46.957905,0</coordinates></Point></Placemark>
<Placemark><name>Vârful Zimbrului</name><description>Nume: Vârful Zimbrului, Tip: zimbru, Nivel: 3, Județ: Sibiu, Formă: Înălțime, ID: 1161 <br /><b>Variante</b><br />Nume: Vârful Zimbrului, Hartă: Geomil 25000, Limbă: Limba română</description><Point><coordinates>23.964551,45.568695,0</coordinates></Point></Placemark>
<Placemark><name>Piatra Zimbrului</name><description>Nume: Piatra Zimbrului, Tip: zimbru, Nivel: 3, Județ: Suceava, Formă: Înălțime, ID: 15066 <br /><b>Variante</b><br />Nume: Piatra Zimbrului, Hartă: Munții noștri, Limbă: Limba română</description><Point><coordinates>25.577886,47.446495,0</coordinates></Point></Placemark>
<Placemark><name>Poeana Zimbrului</name><description>Nume: Poeana Zimbrului, Tip: zimbru, Nivel: 3, Județ: Suceava, Formă: Poiană, ID: 11171 <br /><b>Variante</b><br />Nume: Poeana Zimbrului, Hartă: Imperiul Habsburgic (1887), Limbă: Limba română</description><Point><coordinates>25.067666,47.300286,0</coordinates></Point></Placemark>
<Placemark><name>Dealul Zimbrului</name><description>Nume: Dealul Zimbrului, Tip: zimbru, Nivel: 3, Județ: Vaslui, Formă: Deal, ID: 4627 <br /><b>Variante</b><br />Nume: Dealul Zimbrului, Hartă: PDT, Limbă: Limba română</description><Point><coordinates>27.486748,46.649942,0</coordinates></Point></Placemark>
<Placemark><name>Dealul Zimbrului</name><description>Nume: Dealul Zimbrului, Tip: zimbru, Nivel: 3, Județ: Vrancea, Formă: Deal, ID: 2145 <br /><b>Variante</b><br />Nume: Dealul Zimbrului, Hartă: Geomil 25000, Limbă: Limba română</description><Point><coordinates>27.038529,45.612034,0</coordinates></Point></Placemark>
<Placemark><name>Poiana Zimbrului</name><description>Nume: Poiana Zimbrului, Tip: zimbru, Nivel: 3, Județ: Vrancea, Formă: Poiană, ID: 5352 <br /><b>Variante</b><br />Nume: Poiana Zimbrului, Hartă: PDT, Limbă: Limba română</description><Point><coordinates>26.800075,45.921667,0</coordinates></Point></Placemark></Document></kml>