<?xml version="1.0" encoding="UTF-8"?><kml xmlns="http://www.opengis.net/kml/2.2"><Document><Placemark><name>Madrozești</name><description>Nume: Madrozești, Tip: madrozești, Nivel: 3, Județ: Buzau, Formă: Altele, ID: 15372 <br /><b>Variante</b><br />Nume: Madrozești, Hartă: ANCPI, Limbă: Limba română</description><Point><coordinates>26.966557,45.300614,0</coordinates></Point></Placemark>
<Placemark><name>Valea Modruzului</name><description>Nume: Valea Modruzului, Tip: modruz, Nivel: 2, Județ: Dolj, Formă: Vale, ID: 15748 <br /><b>Variante</b><br />Nume: Valea Modruzului, Hartă: ANCPI, Limbă: Limba română</description><Point><coordinates>23.934245,44.169096,0</coordinates></Point></Placemark>
<Placemark><name>Grindul Modruzul</name><description>Nume: Grindul Modruzul, Tip: modruzul, Nivel: 3, Județ: Dolj, Formă: Apă-deal-câmpie, ID: 15544 <br /><b>Variante</b><br />Nume: Grindul Modruzul, Hartă: PDT, Limbă: Limba română</description><Point><coordinates>23.883810,43.767700,0</coordinates></Point></Placemark>
<Placemark><name>Podișu Modrusu</name><description>Nume: Podișu Modrusu, Tip: modruz, Nivel: 2, Județ: Iasi, Formă: Înălțime, ID: 15370 <br /><b>Variante</b><br />Nume: Podișu Modrusu, Hartă: PDT, Limbă: Limba română<br />Nume: Modruz, Hartă: ANCPI, Limbă: Limba română</description><Point><coordinates>27.014217,47.460267,0</coordinates></Point></Placemark>
<Placemark><name>Poienile Modruz</name><description>Nume: Poienile Modruz, Tip: modruz, Nivel: 2, Județ: Valcea, Formă: Poiană, ID: 15745 <br /><b>Variante</b><br />Nume: Poienile Modruz, Hartă: Munții noștri, Limbă: Limba română</description><Point><coordinates>24.319214,45.360110,0</coordinates></Point></Placemark>
<Placemark><name>Modruzeni</name><description>Nume: Modruzeni, Tip: modruzeni, Nivel: 3, Județ: Vrancea, Formă: Localitate, ID: 15310 <br /><b>Variante</b><br />Nume: Modruzeni, Hartă: PDT, Limbă: Limba română</description><Point><coordinates>27.233914,45.904034,0</coordinates></Point></Placemark></Document></kml>