<?xml version="1.0" encoding="UTF-8"?><kml xmlns="http://www.opengis.net/kml/2.2"><Document><Placemark><name>Dealul Ciolpanului</name><description>Nume: Dealul Ciolpanului, Tip: ciolpan, Nivel: 2, Județ: Arges, Formă: Deal, ID: 9695 <br /><b>Variante</b><br />Nume: Dealul Ciolpanului, Hartă: PDT, Limbă: Limba română</description><Point><coordinates>24.785721,44.989988,0</coordinates></Point></Placemark>
<Placemark><name>La Ciolpan</name><description>Nume: La Ciolpan, Tip: ciolpan, Nivel: 2, Județ: Arges, Formă: Altele, ID: 8304 <br /><b>Variante</b><br />Nume: La Ciolpan, Hartă: PDT, Limbă: Limba română</description><Point><coordinates>24.989321,44.593307,0</coordinates></Point></Placemark>
<Placemark><name>Valea Ciolpanului</name><description>Nume: Valea Ciolpanului, Tip: ciolpan, Nivel: 2, Județ: Arges, Formă: Vale, ID: 6892, ID Părinte: 9695 <br /><b>Variante</b><br />Nume: Valea Ciolpanului, Hartă: Geomil 25000, Limbă: Limba română</description><Point><coordinates>24.785193,44.988175,0</coordinates></Point></Placemark>
<Placemark><LineString id="6892_9695"><tessellate>1</tessellate><coordinates>24.785193,44.988175,0.
24.785721,44.989988,0</coordinates></LineString><Style><LineStyle><width>3</width></LineStyle></Style></Placemark>
<Placemark><name>Ciolpani</name><description>Nume: Ciolpani, Tip: ciolpan, Nivel: 2, Județ: Bacau, Formă: Localitate, ID: 9150 <br /><b>Variante</b><br />Nume: Ciolpani, Hartă: PDT, Limbă: Limba română</description><Point><coordinates>26.714348,46.745163,0</coordinates></Point></Placemark>
<Placemark><name>Ciolpan</name><description>Nume: Ciolpan, Tip: ciolpan, Nivel: 2, Județ: Brasov, Formă: Deal, ID: 14916 <br /><b>Variante</b><br />Nume: Ciolpan, Hartă: PDT, Limbă: Limba română</description><Point><coordinates>25.424547,45.667945,0</coordinates></Point></Placemark>
<Placemark><name>Crucea lui Ciolpan</name><description>Nume: Crucea lui Ciolpan, Tip: ciolpan, Nivel: 2, Județ: Calarasi, Formă: Altele, ID: 3454 <br /><b>Variante</b><br />Nume: Crucea lui Ciolpan, Hartă: PDT, Limbă: Limba română</description><Point><coordinates>27.764343,44.336644,0</coordinates></Point></Placemark>
<Placemark><name>Dealul Ciolpan</name><description>Nume: Dealul Ciolpan, Tip: ciolpan, Nivel: 2, Județ: Dolj, Formă: Deal, ID: 4689 <br /><b>Variante</b><br />Nume: Dealul Ciolpan, Hartă: Geomil 25000, Limbă: Limba română<br />Nume: Dealul Ciolpan, Hartă: PDT, Limbă: Limba română</description><Point><coordinates>23.751912,44.417073,0</coordinates></Point></Placemark>
<Placemark><name>La Ciulpan</name><description>Nume: La Ciulpan, Tip: ciolpan, Nivel: 2, Județ: Gorj, Formă: Altele, ID: 11009 <br /><b>Variante</b><br />Nume: La Ciulpan, Hartă: PDT, Limbă: Limba română</description><Point><coordinates>23.329704,44.779379,0</coordinates></Point></Placemark>
<Placemark><name>Ciolpani</name><description>Nume: Ciolpani, Tip: ciolpan, Nivel: 2, Județ: Ilfov, Formă: Localitate, ID: 4253 <br /><b>Variante</b><br />Nume: Ciolpani, Hartă: Geomil 25000, Limbă: Limba română<br />Nume: Ciolpani, Hartă: PDT, Limbă: Limba română<br />Nume: Ciolpani, Hartă: Austriacă, Limbă: Limba română</description><Point><coordinates>26.090319,44.725791,0</coordinates></Point></Placemark>
<Placemark><name>Ciulpani</name><description>Nume: Ciulpani, Tip: ciulpani, Nivel: 3, Județ: Valcea, Formă: Altele, ID: 11345 <br /><b>Variante</b><br />Nume: Ciulpani, Hartă: Geomil 25000, Limbă: Limba română</description><Point><coordinates>23.903523,44.674982,0</coordinates></Point></Placemark></Document></kml>