<?xml version="1.0" encoding="UTF-8"?><kml xmlns="http://www.opengis.net/kml/2.2"><Document><Placemark><name>Dealu Mocanului</name><description>Nume: Dealu Mocanului, Tip: mocan, Nivel: 3, Județ: Alba, Formă: Deal, ID: 10668 <br /><b>Variante</b><br />Nume: Dealu Mocanului, Hartă: Geomil 25000, Limbă: Limba română<br />Nume: Mokan B., Hartă: Transilvania (1769-1773), Limbă: Limba română</description><Point><coordinates>23.407996,46.283134,0</coordinates></Point></Placemark>
<Placemark><name>Pădurea Mocanilor</name><description>Nume: Pădurea Mocanilor, Tip: mocani, Nivel: 2, Județ: Alba, Formă: Pădure, ID: 2554 <br /><b>Variante</b><br />Nume: Pădurea Mocanilor, Hartă: Geomil 25000, Limbă: Limba română</description><Point><coordinates>24.084698,46.101374,0</coordinates></Point></Placemark>
<Placemark><name>Dealu Mocanului</name><description>Nume: Dealu Mocanului, Tip: mocan, Nivel: 3, Județ: Arad, Formă: Deal, ID: 11333 <br /><b>Variante</b><br />Nume: Dealu Mocanului, Hartă: Geomil 25000, Limbă: Limba română</description><Point><coordinates>22.031006,46.547350,0</coordinates></Point></Placemark>
<Placemark><name>Moara Mocanului</name><description>Nume: Moara Mocanului, Tip: mocan, Nivel: 3, Județ: Arges, Formă: Înălțime, ID: 1516 <br /><b>Variante</b><br />Nume: Moara Mocanului, Hartă: Geomil 25000, Limbă: Limba română</description><Point><coordinates>25.136944,44.763796,0</coordinates></Point></Placemark>
<Placemark><name>Piscul Mocanului</name><description>Nume: Piscul Mocanului, Tip: mocan, Nivel: 3, Județ: Arges, Formă: Înălțime, ID: 10183 <br /><b>Variante</b><br />Nume: Piscul Mocanului, Hartă: Geomil 25000, Limbă: Limba română</description><Point><coordinates>24.790213,45.534579,0</coordinates></Point></Placemark>
<Placemark><name>Valea Mocanului</name><description>Nume: Valea Mocanului, Tip: mocan, Nivel: 3, Județ: Arges, Formă: Vale, ID: 1405 <br /><b>Variante</b><br />Nume: Valea Mocanului, Hartă: Geomil 25000, Limbă: Limba română<br />Nume: Valea Mocanului, Hartă: PDT, Limbă: Limba română</description><Point><coordinates>24.766634,44.737722,0</coordinates></Point></Placemark>
<Placemark><name>Pădurea Mocanca</name><description>Nume: Pădurea Mocanca, Tip: mocanca, Nivel: 3, Județ: Arges, Formă: Pădure, ID: 8311 <br /><b>Variante</b><br />Nume: Pădurea Mocanca, Hartă: PDT, Limbă: Limba română</description><Point><coordinates>24.962854,44.715308,0</coordinates></Point></Placemark>
<Placemark><name>Dealu Mocanului</name><description>Nume: Dealu Mocanului, Tip: mocani, Nivel: 2, Județ: Arges, Formă: Deal, ID: 550 <br /><b>Variante</b><br />Nume: Dealu Mocanului, Hartă: Geomil 25000, Limbă: Limba română</description><Point><coordinates>24.978834,44.902322,0</coordinates></Point></Placemark>
<Placemark><name>Râpa Mocanilor</name><description>Nume: Râpa Mocanilor, Tip: mocani, Nivel: 2, Județ: Arges, Formă: Înălțime, ID: 9696 <br /><b>Variante</b><br />Nume: Râpa Mocanilor, Hartă: PDT, Limbă: Limba română</description><Point><coordinates>24.771487,45.002700,0</coordinates></Point></Placemark>
<Placemark><name>Dealul Țutueanu</name><description>Nume: Dealul Țutueanu, Tip: țuțuian, Nivel: 4, Județ: Arges, Formă: Deal, ID: 11125 <br /><b>Variante</b><br />Nume: Dealul Țutueanu, Hartă: PDT, Limbă: Limba română</description><Point><coordinates>25.172936,45.097645,0</coordinates></Point></Placemark>
<Placemark><name>Dealu Mocanului</name><description>Nume: Dealu Mocanului, Tip: mocan, Nivel: 3, Județ: Bacau, Formă: Deal, ID: 11542 <br /><b>Variante</b><br />Nume: Dealu Mocanului, Hartă: Geomil 25000, Limbă: Limba română</description><Point><coordinates>27.330497,46.297516,0</coordinates></Point></Placemark>
<Placemark><name>Dealul Arșița Mocanului</name><description>Nume: Dealul Arșița Mocanului, Tip: mocan, Nivel: 3, Județ: Bacau, Formă: Deal, ID: 5299 <br /><b>Variante</b><br />Nume: Dealul Arșița Mocanului, Hartă: PDT, Limbă: Limba română<br />Nume: Dealul Arșița Mocanului, Hartă: Geomil 25000, Limbă: Limba română</description><Point><coordinates>26.615589,46.129753,0</coordinates></Point></Placemark>
<Placemark><name>Dealul Mocanului</name><description>Nume: Dealul Mocanului, Tip: mocan, Nivel: 3, Județ: Bacau, Formă: Deal, ID: 9959 <br /><b>Variante</b><br />Nume: Dealul Mocanului, Hartă: Moldova (1892-1898), Limbă: Limba română</description><Point><coordinates>26.276318,46.469056,0</coordinates></Point></Placemark>
<Placemark><name>La Mocanu</name><description>Nume: La Mocanu, Tip: mocan, Nivel: 3, Județ: Bacau, Formă: Altele, ID: 13858 <br /><b>Variante</b><br />Nume: La Mocanu, Hartă: PDT, Limbă: Limba română</description><Point><coordinates>26.734400,46.409887,0</coordinates></Point></Placemark>
<Placemark><name>Plaiul Mocanului</name><description>Nume: Plaiul Mocanului, Tip: mocan, Nivel: 3, Județ: Bacau, Formă: Înălțime, ID: 1890 <br /><b>Variante</b><br />Nume: Plaiul Mocanului, Hartă: Geomil 25000, Limbă: Limba română</description><Point><coordinates>26.326646,46.315526,0</coordinates></Point></Placemark>
<Placemark><name>Poiana Mocanului</name><description>Nume: Poiana Mocanului, Tip: mocan, Nivel: 3, Județ: Bacau, Formă: Poiană, ID: 5287 <br /><b>Variante</b><br />Nume: Poiana Mocanului, Hartă: Geomil 25000, Limbă: Limba română</description><Point><coordinates>26.908406,46.092571,0</coordinates></Point></Placemark>
<Placemark><name>Valea Mocanului</name><description>Nume: Valea Mocanului, Tip: mocan, Nivel: 3, Județ: Bacau, Formă: Vale, ID: 7821 <br /><b>Variante</b><br />Nume: Valea Mocanului, Hartă: Geomil 25000, Limbă: Limba română</description><Point><coordinates>26.963514,46.358431,0</coordinates></Point></Placemark>
<Placemark><name>Mocani</name><description>Nume: Mocani, Tip: mocani, Nivel: 2, Județ: Bacau, Formă: Localitate, ID: 3900 <br /><b>Variante</b><br />Nume: Mocani, Hartă: PDT, Limbă: Limba română</description><Point><coordinates>26.707273,46.734365,0</coordinates></Point></Placemark>
<Placemark><name>Valea Mocanilor</name><description>Nume: Valea Mocanilor, Tip: mocani, Nivel: 2, Județ: Bacau, Formă: Vale, ID: 9152 <br /><b>Variante</b><br />Nume: Valea Mocanilor, Hartă: PDT, Limbă: Limba română</description><Point><coordinates>26.635984,46.671269,0</coordinates></Point></Placemark>
<Placemark><name>Poiana Țuțuianu</name><description>Nume: Poiana Țuțuianu, Tip: țuțuian, Nivel: 4, Județ: Bacau, Formă: Poiană, ID: 10794 <br /><b>Variante</b><br />Nume: Poiana Țuțuianu, Hartă: Moldova (1892-1898), Limbă: Limba română</description><Point><coordinates>26.114264,46.445791,0</coordinates></Point></Placemark>
<Placemark><name>Dealu Mocanu</name><description>Nume: Dealu Mocanu, Tip: mocani, Nivel: 2, Județ: Bihor, Formă: Deal, ID: 999 <br /><b>Variante</b><br />Nume: Dealu Mocanu, Hartă: Geomil 25000, Limbă: Limba română</description><Point><coordinates>22.571195,46.460456,0</coordinates></Point></Placemark>
<Placemark><name>Hârtopu Mocanului</name><description>Nume: Hârtopu Mocanului, Tip: mocan, Nivel: 3, Județ: Botosani, Formă: Înălțime, ID: 6675 <br /><b>Variante</b><br />Nume: Hârtopu Mocanului, Hartă: PDT, Limbă: Limba română</description><Point><coordinates>26.745594,48.049993,0</coordinates></Point></Placemark>
<Placemark><name>Valea Mocanului</name><description>Nume: Valea Mocanului, Tip: mocan, Nivel: 3, Județ: Botosani, Formă: Vale, ID: 1748 <br /><b>Variante</b><br />Nume: Valea Mocanului, Hartă: Geomil 25000, Limbă: Limba română</description><Point><coordinates>26.768981,47.532145,0</coordinates></Point></Placemark>
<Placemark><name>Valea Pârâu Mocanului</name><description>Nume: Valea Pârâu Mocanului, Tip: mocan, Nivel: 3, Județ: Botosani, Formă: Vale, ID: 9733 <br /><b>Variante</b><br />Nume: Valea Pârâu Mocanului, Hartă: Moldova (1892-1898), Limbă: Limba română</description><Point><coordinates>26.736982,47.650452,0</coordinates></Point></Placemark>
<Placemark><name>Crucea Mocanului</name><description>Nume: Crucea Mocanului, Tip: mocan, Nivel: 3, Județ: Braila, Formă: Altele, ID: 3599 <br /><b>Variante</b><br />Nume: Crucea Mocanului, Hartă: PDT, Limbă: Limba română</description><Point><coordinates>27.467248,44.789865,0</coordinates></Point></Placemark>
<Placemark><name>Puțul lui Jiga Mocanu</name><description>Nume: Puțul lui Jiga Mocanu, Tip: mocan, Nivel: 3, Județ: Braila, Formă: Altele, ID: 6737 <br /><b>Variante</b><br />Nume: Puțul lui Jiga Mocanu, Hartă: PDT, Limbă: Limba română</description><Point><coordinates>27.514624,44.922212,0</coordinates></Point></Placemark>
<Placemark><name>Târlele Mocanilor</name><description>Nume: Târlele Mocanilor, Tip: mocani, Nivel: 2, Județ: Braila, Formă: Localitate, ID: 6728 <br /><b>Variante</b><br />Nume: Târlele Mocanilor, Hartă: PDT, Limbă: Limba română</description><Point><coordinates>27.419607,45.001364,0</coordinates></Point></Placemark>
<Placemark><name>Movila Țuțuianului</name><description>Nume: Movila Țuțuianului, Tip: țuțuian, Nivel: 4, Județ: Braila, Formă: Înălțime, ID: 4015 <br /><b>Variante</b><br />Nume: Movila Țuțuianului, Hartă: Geomil 25000, Limbă: Limba română<br />Nume: Movila Țuțuianu, Hartă: PDT, Limbă: Limba română</description><Point><coordinates>27.255630,44.918293,0</coordinates></Point></Placemark>
<Placemark><name>Movila Țuțuenilor</name><description>Nume: Movila Țuțuenilor, Tip: țuțuieni, Nivel: 3, Județ: Braila, Formă: Înălțime, ID: 6721 <br /><b>Variante</b><br />Nume: Movila Țuțuenilor, Hartă: PDT, Limbă: Limba română</description><Point><coordinates>27.864187,44.973407,0</coordinates></Point></Placemark>
<Placemark><name>Piscul lui Mocanu</name><description>Nume: Piscul lui Mocanu, Tip: mocan, Nivel: 3, Județ: Brasov, Formă: Înălțime, ID: 6823 <br /><b>Variante</b><br />Nume: Piscul lui Mocanu, Hartă: PDT, Limbă: Limba română</description><Point><coordinates>25.299629,45.726325,0</coordinates></Point></Placemark>
<Placemark><name>Muchia Țuțueanului</name><description>Nume: Muchia Țuțueanului, Tip: țuțuian, Nivel: 4, Județ: Brasov, Formă: Înălțime, ID: 6847 <br /><b>Variante</b><br />Nume: Muchia Țuțueanului, Hartă: PDT, Limbă: Limba română</description><Point><coordinates>25.744781,45.577611,0</coordinates></Point></Placemark>
<Placemark><name>Pârâul Lazu Mocanului</name><description>Nume: Pârâul Lazu Mocanului, Tip: mocan, Nivel: 3, Județ: Buzau, Formă: Vale, ID: 11708 <br /><b>Variante</b><br />Nume: Pârâul Lazu Mocanului, Hartă: PDT, Limbă: Limba română</description><Point><coordinates>26.231901,45.348758,0</coordinates></Point></Placemark>
<Placemark><name>Puțul lui Mocanu</name><description>Nume: Puțul lui Mocanu, Tip: mocan, Nivel: 3, Județ: Buzau, Formă: Altele, ID: 3585 <br /><b>Variante</b><br />Nume: Puțul lui Mocanu, Hartă: PDT, Limbă: Limba română</description><Point><coordinates>27.117363,45.230165,0</coordinates></Point></Placemark>
<Placemark><name>Dealul Mocanca</name><description>Nume: Dealul Mocanca, Tip: mocani, Nivel: 2, Județ: Buzau, Formă: Deal, ID: 567 <br /><b>Variante</b><br />Nume: Dealul Mocanca, Hartă: Geomil 25000, Limbă: Limba română</description><Point><coordinates>26.969551,45.488179,0</coordinates></Point></Placemark>
<Placemark><name>Mokani</name><description>Nume: Mokani, Tip: mocani, Nivel: 2, Județ: Buzau, Formă: Localitate, ID: 5764 <br /><b>Variante</b><br />Nume: Mokani, Hartă: Austriacă, Limbă: Limba română</description><Point><coordinates>26.891706,45.388854,0</coordinates></Point></Placemark>
<Placemark><name>La Pâlcul Țuțueanului</name><description>Nume: La Pâlcul Țuțueanului, Tip: țuțuian, Nivel: 4, Județ: Buzau, Formă: Altele, ID: 4013 <br /><b>Variante</b><br />Nume: La Pâlcul Țuțueanului, Hartă: PDT, Limbă: Limba română</description><Point><coordinates>27.166262,44.911690,0</coordinates></Point></Placemark>
<Placemark><name>Crucea Mocanului</name><description>Nume: Crucea Mocanului, Tip: mocan, Nivel: 3, Județ: Calarasi, Formă: Altele, ID: 3234 <br /><b>Variante</b><br />Nume: Crucea Mocanului, Hartă: PDT, Limbă: Limba română<br />Nume: Crucea Mocanului, Hartă: Geomil 25000, Limbă: Limba română</description><Point><coordinates>27.092508,44.192946,0</coordinates></Point></Placemark>
<Placemark><name>Grindu Mocanu</name><description>Nume: Grindu Mocanu, Tip: mocan, Nivel: 3, Județ: Calarasi, Formă: Apă-deal-câmpie, ID: 11270 <br /><b>Variante</b><br />Nume: Grindu Mocanu, Hartă: Geomil 25000, Limbă: Limba română</description><Point><coordinates>27.489125,44.155960,0</coordinates></Point></Placemark>
<Placemark><name>Valea Mocanului</name><description>Nume: Valea Mocanului, Tip: mocan, Nivel: 3, Județ: Cluj, Formă: Vale, ID: 8954 <br /><b>Variante</b><br />Nume: Valea Mocanului, Hartă: PDT, Limbă: Limba română</description><Point><coordinates>23.787006,46.994836,0</coordinates></Point></Placemark>
<Placemark><name>Dealul Mocanului</name><description>Nume: Dealul Mocanului, Tip: mocan, Nivel: 3, Județ: Constanta, Formă: Deal, ID: 12006 <br /><b>Variante</b><br />Nume: Dealul Mocanului, Hartă: Geomil 25000, Limbă: Limba română</description><Point><coordinates>28.220331,44.367624,0</coordinates></Point></Placemark>
<Placemark><name>Valea lui Mocanu</name><description>Nume: Valea lui Mocanu, Tip: mocan, Nivel: 3, Județ: Constanta, Formă: Vale, ID: 2871 <br /><b>Variante</b><br />Nume: Valea lui Mocanu, Hartă: Geomil 25000, Limbă: Limba română</description><Point><coordinates>28.345914,44.313868,0</coordinates></Point></Placemark>
<Placemark><name>Valea Mocanului</name><description>Nume: Valea Mocanului, Tip: mocan, Nivel: 3, Județ: Constanta, Formă: Vale, ID: 2840 <br /><b>Variante</b><br />Nume: Valea Mocanului, Hartă: Geomil 25000, Limbă: Limba română</description><Point><coordinates>28.097967,44.359298,0</coordinates></Point></Placemark>
<Placemark><name>Valea Mocanului</name><description>Nume: Valea Mocanului, Tip: mocan, Nivel: 3, Județ: Constanta, Formă: Vale, ID: 14245 <br /><b>Variante</b><br />Nume: Valea Mocanului, Hartă: Geomil 25000, Limbă: Limba română</description><Point><coordinates>28.121482,44.006616,0</coordinates></Point></Placemark>
<Placemark><name>La Mocani</name><description>Nume: La Mocani, Tip: mocani, Nivel: 2, Județ: Constanta, Formă: Altele, ID: 9303 <br /><b>Variante</b><br />Nume: La Mocani, Hartă: Geomil 25000, Limbă: Limba română</description><Point><coordinates>28.602586,44.601866,0</coordinates></Point></Placemark>
<Placemark><name>Pădurea la Crucea Mocanului</name><description>Nume: Pădurea la Crucea Mocanului, Tip: mocan, Nivel: 3, Județ: Dambovita, Formă: Pădure, ID: 12828 <br /><b>Variante</b><br />Nume: Pădurea la Crucea Mocanului, Hartă: PDT, Limbă: Limba română</description><Point><coordinates>25.666867,45.023568,0</coordinates></Point></Placemark>
<Placemark><name>Pădurea Mocanul</name><description>Nume: Pădurea Mocanul, Tip: mocan, Nivel: 3, Județ: Dambovita, Formă: Pădure, ID: 3379 <br /><b>Variante</b><br />Nume: Pădurea Mocanul, Hartă: PDT, Limbă: Limba română<br />Nume: Pădurea Mocanu, Hartă: Geomil 25000, Limbă: Limba română</description><Point><coordinates>25.380117,44.628277,0</coordinates></Point></Placemark>
<Placemark><name>Piscul Mocanului</name><description>Nume: Piscul Mocanului, Tip: mocan, Nivel: 3, Județ: Dambovita, Formă: Înălțime, ID: 8822 <br /><b>Variante</b><br />Nume: Piscul Mocanului, Hartă: PDT, Limbă: Limba română</description><Point><coordinates>25.351587,45.086057,0</coordinates></Point></Placemark>
<Placemark><name>Valea Mocanului</name><description>Nume: Valea Mocanului, Tip: mocan, Nivel: 3, Județ: Dambovita, Formă: Vale, ID: 7451 <br /><b>Variante</b><br />Nume: Valea Mocanului, Hartă: Geomil 25000, Limbă: Limba română<br />Nume: Valea Mocanului, Hartă: PDT, Limbă: Limba română</description><Point><coordinates>25.380925,44.729879,0</coordinates></Point></Placemark>
<Placemark><name>Dorf Mokan (Satul Mocani)</name><description>Nume: Dorf Mokan (Satul Mocani), Tip: mocani, Nivel: 2, Județ: Dambovita, Formă: Localitate, ID: 12021 <br /><b>Variante</b><br />Nume: Dorf Mokan (Satul Mocani), Hartă: Oltenia-Muntenia (1790), Limbă: Limba română</description><Point><coordinates>25.389205,44.836120,0</coordinates></Point></Placemark>
<Placemark><name>Drumul Mocanilor</name><description>Nume: Drumul Mocanilor, Tip: mocani, Nivel: 2, Județ: Dambovita, Formă: Drum, ID: 3700 <br /><b>Variante</b><br />Nume: Drumul Mocanilor, Hartă: PDT, Limbă: Limba română</description><Point><coordinates>25.600988,44.829546,0</coordinates></Point></Placemark>
<Placemark><name>Puțul Mocanilor</name><description>Nume: Puțul Mocanilor, Tip: mocani, Nivel: 2, Județ: Dambovita, Formă: Altele, ID: 4240 <br /><b>Variante</b><br />Nume: Puțul Mocanilor, Hartă: PDT, Limbă: Limba română</description><Point><coordinates>25.611677,44.721040,0</coordinates></Point></Placemark>
<Placemark><name>Crucea Mocanului</name><description>Nume: Crucea Mocanului, Tip: mocan, Nivel: 3, Județ: Galati, Formă: Altele, ID: 10992 <br /><b>Variante</b><br />Nume: Crucea Mocanului, Hartă: Moldova (1892-1898), Limbă: Limba română</description><Point><coordinates>27.579607,45.778353,0</coordinates></Point></Placemark>
<Placemark><name>Valea Mocanului</name><description>Nume: Valea Mocanului, Tip: mocan, Nivel: 3, Județ: Galati, Formă: Vale, ID: 9641 <br /><b>Variante</b><br />Nume: Valea Mocanului, Hartă: Moldova (1892-1898), Limbă: Limba română<br />Nume: Valea Mocanului, Hartă: Geomil 25000, Limbă: Limba română</description><Point><coordinates>27.900136,45.890190,0</coordinates></Point></Placemark>
<Placemark><name>Via Mocanului</name><description>Nume: Via Mocanului, Tip: mocan, Nivel: 3, Județ: Galati, Formă: Altele, ID: 9609 <br /><b>Variante</b><br />Nume: Via Mocanului, Hartă: Moldova (1892-1898), Limbă: Limba română</description><Point><coordinates>27.605562,45.898499,0</coordinates></Point></Placemark>
<Placemark><name>La Mocănie</name><description>Nume: La Mocănie, Tip: mocănie, Nivel: 3, Județ: Galati, Formă: Altele, ID: 9615 <br /><b>Variante</b><br />Nume: La Mocănie, Hartă: Moldova (1892-1898), Limbă: Limba română</description><Point><coordinates>27.759200,46.103640,0</coordinates></Point></Placemark>
<Placemark><name>Mocăneasca</name><description>Nume: Mocăneasca, Tip: mocănească, Nivel: 3, Județ: Giurgiu, Formă: Apă-deal-câmpie, ID: 3630 <br /><b>Variante</b><br />Nume: Mocăneasca, Hartă: PDT, Limbă: Limba română<br />Nume: Mokanaska Arm, Hartă: Austriacă, Limbă: Limba română</description><Point><coordinates>26.205488,44.050125,0</coordinates></Point></Placemark>
<Placemark><name>Ostrovu Mocanu</name><description>Nume: Ostrovu Mocanu, Tip: mocani, Nivel: 2, Județ: Giurgiu, Formă: Altele, ID: 1338 <br /><b>Variante</b><br />Nume: Ostrovu Mocanu, Hartă: Geomil 25000, Limbă: Limba română<br />Nume: Ost. Mokan, Hartă: Austriacă, Limbă: Limba română</description><Point><coordinates>26.018553,43.900989,0</coordinates></Point></Placemark>
<Placemark><name>Valea Mocanului</name><description>Nume: Valea Mocanului, Tip: mocani, Nivel: 2, Județ: Giurgiu, Formă: Vale, ID: 460 <br /><b>Variante</b><br />Nume: Valea Mocanului, Hartă: Geomil 25000, Limbă: Limba română</description><Point><coordinates>26.053819,44.107763,0</coordinates></Point></Placemark>
<Placemark><name>Valea Țuțuianu</name><description>Nume: Valea Țuțuianu, Tip: țuțuian, Nivel: 4, Județ: Giurgiu, Formă: Vale, ID: 3158 <br /><b>Variante</b><br />Nume: Valea Țuțuianu, Hartă: Geomil 25000, Limbă: Limba română</description><Point><coordinates>25.788780,43.988742,0</coordinates></Point></Placemark>
<Placemark><name>Mov. Mokanului</name><description>Nume: Mov. Mokanului, Tip: mocan, Nivel: 3, Județ: Ialomita, Formă: Înălțime, ID: 12411 <br /><b>Variante</b><br />Nume: Mov. Mokanului, Hartă: Austriacă, Limbă: Limba română</description><Point><coordinates>27.399574,44.706219,0</coordinates></Point></Placemark>
<Placemark><name>Puțul Mocanului</name><description>Nume: Puțul Mocanului, Tip: mocan, Nivel: 3, Județ: Ialomita, Formă: Altele, ID: 3469 <br /><b>Variante</b><br />Nume: Puțul Mocanului, Hartă: PDT, Limbă: Limba română<br />Nume: Puzu Mokanului, Hartă: Austriacă, Limbă: Limba română</description><Point><coordinates>27.638976,44.411385,0</coordinates></Point></Placemark>
<Placemark><name>Fântâna Mocanului</name><description>Nume: Fântâna Mocanului, Tip: mocan, Nivel: 3, Județ: Iasi, Formă: Altele, ID: 8873 <br /><b>Variante</b><br />Nume: Fântâna Mocanului, Hartă: PDT, Limbă: Limba română</description><Point><coordinates>27.373080,47.139364,0</coordinates></Point></Placemark>
<Placemark><name>Fântâna Mocanului</name><description>Nume: Fântâna Mocanului, Tip: mocan, Nivel: 3, Județ: Iasi, Formă: Altele, ID: 9857 <br /><b>Variante</b><br />Nume: Fântâna Mocanului, Hartă: Moldova (1892-1898), Limbă: Limba română</description><Point><coordinates>27.469425,46.995952,0</coordinates></Point></Placemark>
<Placemark><name>Movila Mocanului</name><description>Nume: Movila Mocanului, Tip: mocan, Nivel: 3, Județ: Iasi, Formă: Înălțime, ID: 4863 <br /><b>Variante</b><br />Nume: Movila Mocanului, Hartă: PDT, Limbă: Limba română<br />Nume: Dealul Mocanului, Hartă: Geomil 25000, Limbă: Limba română</description><Point><coordinates>27.356567,47.403277,0</coordinates></Point></Placemark>
<Placemark><name>Hanu Mokanului</name><description>Nume: Hanu Mokanului, Tip: mocan, Nivel: 3, Județ: Ilfov, Formă: Altele, ID: 5773 <br /><b>Variante</b><br />Nume: Hanu Mokanului, Hartă: Austriacă, Limbă: Limba română</description><Point><coordinates>26.027592,44.593180,0</coordinates></Point></Placemark>
<Placemark><name>Valea Mocanului</name><description>Nume: Valea Mocanului, Tip: mocan, Nivel: 3, Județ: Ilfov, Formă: Vale, ID: 8785 <br /><b>Variante</b><br />Nume: Valea Mocanului, Hartă: PDT, Limbă: Limba română<br />Nume: Pârâu Mocanu, Hartă: Geomil 25000, Limbă: Limba română</description><Point><coordinates>25.983593,44.601028,0</coordinates></Point></Placemark>
<Placemark><name>Dealul Mocanului</name><description>Nume: Dealul Mocanului, Tip: mocan, Nivel: 3, Județ: Neamt, Formă: Deal, ID: 7299 <br /><b>Variante</b><br />Nume: Dealul Mocanului, Hartă: Geomil 25000, Limbă: Limba română</description><Point><coordinates>27.140531,47.008964,0</coordinates></Point></Placemark>
<Placemark><name>La Mocan</name><description>Nume: La Mocan, Tip: mocan, Nivel: 3, Județ: Neamt, Formă: Altele, ID: 9134 <br /><b>Variante</b><br />Nume: La Mocan, Hartă: Geomil 25000, Limbă: Limba română</description><Point><coordinates>26.262040,46.982168,0</coordinates></Point></Placemark>
<Placemark><name>Valea Mocanului</name><description>Nume: Valea Mocanului, Tip: mocan, Nivel: 3, Județ: Neamt, Formă: Vale, ID: 1617 <br /><b>Variante</b><br />Nume: Valea Mocanului, Hartă: Geomil 25000, Limbă: Limba română</description><Point><coordinates>27.089559,46.792288,0</coordinates></Point></Placemark>
<Placemark><name>La Mocanu</name><description>Nume: La Mocanu, Tip: mocani, Nivel: 2, Județ: Neamt, Formă: Altele, ID: 660 <br /><b>Variante</b><br />Nume: La Mocanu, Hartă: Geomil 25000, Limbă: Limba română</description><Point><coordinates>26.520141,47.198598,0</coordinates></Point></Placemark>
<Placemark><name>Dealul Mocănimea</name><description>Nume: Dealul Mocănimea, Tip: mocănime, Nivel: 3, Județ: Neamt, Formă: Deal, ID: 3894 <br /><b>Variante</b><br />Nume: Dealul Mocănimea, Hartă: PDT, Limbă: Limba română</description><Point><coordinates>26.784538,46.953432,0</coordinates></Point></Placemark>
<Placemark><name>Bâtca Țuțuianu</name><description>Nume: Bâtca Țuțuianu, Tip: țuțuian, Nivel: 4, Județ: Neamt, Formă: Înălțime, ID: 6518 <br /><b>Variante</b><br />Nume: Bâtca Țuțuianu, Hartă: Geomil 25000, Limbă: Limba română</description><Point><coordinates>26.094081,46.783551,0</coordinates></Point></Placemark>
<Placemark><name>Mormântu Țuțuianului</name><description>Nume: Mormântu Țuțuianului, Tip: țuțuian, Nivel: 4, Județ: Neamt, Formă: Altele, ID: 6442 <br /><b>Variante</b><br />Nume: Mormântu Țuțuianului, Hartă: PDT, Limbă: Limba română</description><Point><coordinates>25.762834,47.094889,0</coordinates></Point></Placemark>
<Placemark><name>Vâlceaua Mocanu</name><description>Nume: Vâlceaua Mocanu, Tip: mocan, Nivel: 3, Județ: Prahova, Formă: Vale, ID: 3984 <br /><b>Variante</b><br />Nume: Vâlceaua Mocanu, Hartă: PDT, Limbă: Limba română<br />Nume: Vâlceaua Mocanu, Hartă: Geomil 25000, Limbă: Limba română</description><Point><coordinates>25.885052,45.086146,0</coordinates></Point></Placemark>
<Placemark><name>Valea Mocanu</name><description>Nume: Valea Mocanu, Tip: mocan, Nivel: 3, Județ: Prahova, Formă: Vale, ID: 8837 <br /><b>Variante</b><br />Nume: Valea Mocanu, Hartă: PDT, Limbă: Limba română</description><Point><coordinates>25.911661,45.128417,0</coordinates></Point></Placemark>
<Placemark><name>Valea Mocanului</name><description>Nume: Valea Mocanului, Tip: mocan, Nivel: 3, Județ: Prahova, Formă: Vale, ID: 3995 <br /><b>Variante</b><br />Nume: Valea Mocanului, Hartă: PDT, Limbă: Limba română<br />Nume: Valea Mocanului, Hartă: Geomil 25000, Limbă: Limba română</description><Point><coordinates>26.281819,45.079386,0</coordinates></Point></Placemark>
<Placemark><name>Valea Mocanca</name><description>Nume: Valea Mocanca, Tip: mocanca, Nivel: 3, Județ: Prahova, Formă: Vale, ID: 8809 <br /><b>Variante</b><br />Nume: Valea Mocanca, Hartă: PDT, Limbă: Limba română</description><Point><coordinates>25.740209,45.034927,0</coordinates></Point></Placemark>
<Placemark><name>Mokani</name><description>Nume: Mokani, Tip: mocani, Nivel: 2, Județ: Prahova, Formă: Localitate, ID: 12009 <br /><b>Variante</b><br />Nume: Mokani, Hartă: Austriacă, Limbă: Limba română</description><Point><coordinates>26.164336,45.049452,0</coordinates></Point></Placemark>
<Placemark><name>Dealul Mocanului</name><description>Nume: Dealul Mocanului, Tip: mocan, Nivel: 3, Județ: Suceava, Formă: Deal, ID: 1766 <br /><b>Variante</b><br />Nume: Dealul Mocanului, Hartă: Geomil 25000, Limbă: Limba română</description><Point><coordinates>26.420504,47.449733,0</coordinates></Point></Placemark>
<Placemark><name>La Arșița Mocanului</name><description>Nume: La Arșița Mocanului, Tip: mocan, Nivel: 3, Județ: Suceava, Formă: Altele, ID: 8922 <br /><b>Variante</b><br />Nume: La Arșița Mocanului, Hartă: Geomil 25000, Limbă: Limba română</description><Point><coordinates>26.551540,47.393885,0</coordinates></Point></Placemark>
<Placemark><name>Găvanul Mocanului</name><description>Nume: Găvanul Mocanului, Tip: mocan, Nivel: 3, Județ: Teleorman, Formă: Apă-deal-câmpie, ID: 3423 <br /><b>Variante</b><br />Nume: Găvanul Mocanului, Hartă: PDT, Limbă: Limba română</description><Point><coordinates>25.301509,43.777221,0</coordinates></Point></Placemark>
<Placemark><name>Găvanul Mocanului</name><description>Nume: Găvanul Mocanului, Tip: mocan, Nivel: 3, Județ: Teleorman, Formă: Apă-deal-câmpie, ID: 12434 <br /><b>Variante</b><br />Nume: Găvanul Mocanului, Hartă: PDT, Limbă: Limba română</description><Point><coordinates>24.994423,43.843039,0</coordinates></Point></Placemark>
<Placemark><name>Gropanu Mocanului</name><description>Nume: Gropanu Mocanului, Tip: mocan, Nivel: 3, Județ: Teleorman, Formă: Altele, ID: 1383 <br /><b>Variante</b><br />Nume: Gropanu Mocanului, Hartă: Geomil 25000, Limbă: Limba română</description><Point><coordinates>25.097920,43.804082,0</coordinates></Point></Placemark>
<Placemark><name>Pădurea Mocanu</name><description>Nume: Pădurea Mocanu, Tip: mocan, Nivel: 3, Județ: Teleorman, Formă: Pădure, ID: 12200 <br /><b>Variante</b><br />Nume: Pădurea Mocanu, Hartă: PDT, Limbă: Limba română</description><Point><coordinates>24.907144,44.184194,0</coordinates></Point></Placemark>
<Placemark><name>Poiana Mocanului</name><description>Nume: Poiana Mocanului, Tip: mocan, Nivel: 3, Județ: Teleorman, Formă: Poiană, ID: 12198 <br /><b>Variante</b><br />Nume: Poiana Mocanului, Hartă: PDT, Limbă: Limba română</description><Point><coordinates>24.932025,44.214370,0</coordinates></Point></Placemark>
<Placemark><name>Valea Mocanului</name><description>Nume: Valea Mocanului, Tip: mocan, Nivel: 3, Județ: Teleorman, Formă: Vale, ID: 10974 <br /><b>Variante</b><br />Nume: Valea Mocanului, Hartă: Geomil 25000, Limbă: Limba română</description><Point><coordinates>24.946704,44.076476,0</coordinates></Point></Placemark>
<Placemark><name>Valea Mocanului</name><description>Nume: Valea Mocanului, Tip: mocan, Nivel: 3, Județ: Teleorman, Formă: Vale, ID: 10988 <br /><b>Variante</b><br />Nume: Valea Mocanului, Hartă: PDT, Limbă: Limba română</description><Point><coordinates>24.835817,44.353042,0</coordinates></Point></Placemark>
<Placemark><name>Pârâul Mocanului</name><description>Nume: Pârâul Mocanului, Tip: mocan, Nivel: 3, Județ: Timis, Formă: Vale, ID: 12839 <br /><b>Variante</b><br />Nume: Pârâul Mocanului, Hartă: PDT, Limbă: Limba română</description><Point><coordinates>22.365455,45.817968,0</coordinates></Point></Placemark>
<Placemark><name>Balta Mocanului</name><description>Nume: Balta Mocanului, Tip: mocan, Nivel: 3, Județ: Tulcea, Formă: Apă-deal-câmpie, ID: 6680 <br /><b>Variante</b><br />Nume: Balta Mocanului, Hartă: PDT, Limbă: Limba română</description><Point><coordinates>28.060314,45.354067,0</coordinates></Point></Placemark>
<Placemark><name>Dealul Mocanului</name><description>Nume: Dealul Mocanului, Tip: mocan, Nivel: 3, Județ: Tulcea, Formă: Deal, ID: 14281 <br /><b>Variante</b><br />Nume: Dealul Mocanului, Hartă: ANCPI, Limbă: Limba română</description><Point><coordinates>28.523446,44.968559,0</coordinates></Point></Placemark>
<Placemark><name>Movila Mocănașu</name><description>Nume: Movila Mocănașu, Tip: mocănaș, Nivel: 3, Județ: Tulcea, Formă: Înălțime, ID: 11591 <br /><b>Variante</b><br />Nume: Movila Mocănașu, Hartă: Geomil 25000, Limbă: Limba română</description><Point><coordinates>28.249829,45.000914,0</coordinates></Point></Placemark>
<Placemark><name>Botul Mocanului</name><description>Nume: Botul Mocanului, Tip: mocan, Nivel: 3, Județ: Vaslui, Formă: Înălțime, ID: 7279 <br /><b>Variante</b><br />Nume: Botul Mocanului, Hartă: Geomil 25000, Limbă: Limba română</description><Point><coordinates>27.587483,46.517885,0</coordinates></Point></Placemark>
<Placemark><name>Dealul Mocanului</name><description>Nume: Dealul Mocanului, Tip: mocan, Nivel: 3, Județ: Vaslui, Formă: Deal, ID: 1676 <br /><b>Variante</b><br />Nume: Dealul Mocanului, Hartă: Geomil 25000, Limbă: Limba română</description><Point><coordinates>27.731811,46.520224,0</coordinates></Point></Placemark>
<Placemark><name>Râpa Mocanului</name><description>Nume: Râpa Mocanului, Tip: mocan, Nivel: 3, Județ: Vaslui, Formă: Înălțime, ID: 12255 <br /><b>Variante</b><br />Nume: Râpa Mocanului, Hartă: Geomil 25000, Limbă: Limba română</description><Point><coordinates>27.692049,46.374837,0</coordinates></Point></Placemark>
<Placemark><name>Bărtălușu Mocani</name><description>Nume: Bărtălușu Mocani, Tip: mocani, Nivel: 2, Județ: Vaslui, Formă: Localitate, ID: 9636 <br /><b>Variante</b><br />Nume: Bărtălușu Mocani, Hartă: Moldova (1892-1898), Limbă: Limba română<br />Nume: Bărtăluș-Mocani, Hartă: Geomil 25000, Limbă: Limba română</description><Point><coordinates>27.454326,46.394525,0</coordinates></Point></Placemark>
<Placemark><name>Mocani</name><description>Nume: Mocani, Tip: mocani, Nivel: 2, Județ: Vaslui, Formă: Localitate, ID: 10917 <br /><b>Variante</b><br />Nume: Mocani, Hartă: Moldova (1892-1898), Limbă: Limba română</description><Point><coordinates>28.140648,46.302321,0</coordinates></Point></Placemark>
<Placemark><name>Dealul Mocanului</name><description>Nume: Dealul Mocanului, Tip: mocan, Nivel: 3, Județ: Vrancea, Formă: Deal, ID: 9533 <br /><b>Variante</b><br />Nume: Dealul Mocanului, Hartă: Moldova (1892-1898), Limbă: Limba română<br />Nume: Dealul Mocanului, Hartă: Geomil 25000, Limbă: Limba română</description><Point><coordinates>26.710865,45.782579,0</coordinates></Point></Placemark>
<Placemark><name>Dealul Mocanului</name><description>Nume: Dealul Mocanului, Tip: mocan, Nivel: 3, Județ: Vrancea, Formă: Deal, ID: 9638 <br /><b>Variante</b><br />Nume: Dealul Mocanului, Hartă: Geomil 25000, Limbă: Limba română<br />Nume: Dealul Mocanului, Hartă: Moldova (1892-1898), Limbă: Limba română</description><Point><coordinates>27.390937,46.173022,0</coordinates></Point></Placemark>
<Placemark><name>Pădurea Mocanului</name><description>Nume: Pădurea Mocanului, Tip: mocan, Nivel: 3, Județ: Vrancea, Formă: Pădure, ID: 12332 <br /><b>Variante</b><br />Nume: Pădurea Mocanului, Hartă: PDT, Limbă: Limba română</description><Point><coordinates>27.344615,46.119150,0</coordinates></Point></Placemark>
<Placemark><name>Pârâul Mocanului</name><description>Nume: Pârâul Mocanului, Tip: mocan, Nivel: 3, Județ: Vrancea, Formă: Vale, ID: 9537 <br /><b>Variante</b><br />Nume: Pârâul Mocanului, Hartă: Moldova (1892-1898), Limbă: Limba română</description><Point><coordinates>26.677768,46.070070,0</coordinates></Point></Placemark>
<Placemark><name>Mocăneasca</name><description>Nume: Mocăneasca, Tip: mocănească, Nivel: 3, Județ: Vrancea, Formă: Altele, ID: 2157 <br /><b>Variante</b><br />Nume: Mocăneasca, Hartă: Geomil 25000, Limbă: Limba română</description><Point><coordinates>27.210521,45.595412,0</coordinates></Point></Placemark>
<Placemark><name>Mocani</name><description>Nume: Mocani, Tip: mocani, Nivel: 2, Județ: Vrancea, Formă: Altele, ID: 11446 <br /><b>Variante</b><br />Nume: Mocani, Hartă: Geomil 25000, Limbă: Limba română</description><Point><coordinates>27.386698,45.511405,0</coordinates></Point></Placemark></Document></kml>