<?xml version="1.0" encoding="UTF-8"?><kml xmlns="http://www.opengis.net/kml/2.2"><Document><Placemark><name>Fântâna Beșeneu</name><description>Nume: Fântâna Beșeneu, Tip: beșeneu, Nivel: 3, Județ: Bihor, Formă: Altele, ID: 11868, ID Părinte: 11867 <br /><b>Variante</b><br />Nume: Fântâna Beșeneu, Hartă: Geomil 25000, Limbă: Limba română</description><Point><coordinates>22.019836,47.321066,0</coordinates></Point></Placemark>
<Placemark><LineString id="11868_11867"><tessellate>1</tessellate><coordinates>22.019836,47.321066,0.
22.012070,47.325909,0</coordinates></LineString><Style><LineStyle><width>3</width></LineStyle></Style></Placemark>
<Placemark><name>Dealul Bejeneu</name><description>Nume: Dealul Bejeneu, Tip: bejeneu, Nivel: 4, Județ: Bistrita Nasaud, Formă: Deal, ID: 6362 <br /><b>Variante</b><br />Nume: Dealul Bejeneu, Hartă: Geomil 25000, Limbă: Limba română</description><Point><coordinates>24.756823,47.336307,0</coordinates></Point></Placemark>
<Placemark><name>Bese</name><description>Nume: Bese, Tip: beșe, Nivel: 4, Județ: Mures, Formă: Localitate, ID: 14511 <br /><b>Variante</b><br />Nume: Bese, Hartă: PDT, Limbă: Limba română</description><Point><coordinates>24.510942,46.575667,0</coordinates></Point></Placemark>
<Placemark><name>Pârâul Beșa</name><description>Nume: Pârâul Beșa, Tip: beșe, Nivel: 4, Județ: Mures, Formă: Vale, ID: 14512, ID Părinte: 14511 <br /><b>Variante</b><br />Nume: Pârâul Beșa, Hartă: PDT, Limbă: Limba română</description><Point><coordinates>24.531100,46.567714,0</coordinates></Point></Placemark>
<Placemark><LineString id="14512_14511"><tessellate>1</tessellate><coordinates>24.531100,46.567714,0.
24.510942,46.575667,0</coordinates></LineString><Style><LineStyle><width>3</width></LineStyle></Style></Placemark>
<Placemark><name>Alt Bessenova (Beșenova Veche)</name><description>Nume: Alt Bessenova (Beșenova Veche), Tip: beșenova, Nivel: 4, Județ: Timis, Formă: Localitate, ID: 7629 <br /><b>Variante</b><br />Nume: Alt Bessenova (Beșenova Veche), Hartă: PDT, Limbă: Limba germană</description><Point><coordinates>20.474540,46.044361,0</coordinates></Point></Placemark>
<Placemark><name>Beșenova Nouă</name><description>Nume: Beșenova Nouă, Tip: beșenova, Nivel: 4, Județ: Timis, Formă: Localitate, ID: 7639 <br /><b>Variante</b><br />Nume: Beșenova Nouă, Hartă: PDT, Limbă: Limba română</description><Point><coordinates>21.097671,45.838330,0</coordinates></Point></Placemark>
<Placemark><name>Dealul Bușina</name><description>Nume: Dealul Bușina, Tip: bușina, Nivel: 3, Județ: Timis, Formă: Deal, ID: 15930 <br /><b>Variante</b><br />Nume: Dealul Bușina, Hartă: PDT, Limbă: Limba română</description><Point><coordinates>21.661337,45.912512,0</coordinates></Point></Placemark></Document></kml>