<?xml version="1.0" encoding="UTF-8"?><kml xmlns="http://www.opengis.net/kml/2.2"><Document><Placemark><name>Vârful Veveriței</name><description>Nume: Vârful Veveriței, Tip: veveriță, Nivel: 2, Județ: Maramures, Formă: Înălțime, ID: 917 <br /><b>Variante</b><br />Nume: Vârful Veveriței, Hartă: Geomil 25000, Limbă: Limba română</description><Point><coordinates>24.164034,47.774078</coordinates></Point></Placemark>
<Placemark><name>Vârful Veveriței</name><description>Nume: Vârful Veveriței, Tip: veveriță, Nivel: 2, Județ: Valcea, Formă: Înălțime, ID: 1170 <br /><b>Variante</b><br />Nume: Vârful Veveriței, Hartă: Geomil 25000, Limbă: Limba română</description><Point><coordinates>24.189042,45.430747</coordinates></Point></Placemark>
<Placemark><name>Dealul Veverița</name><description>Nume: Dealul Veverița, Tip: veveriță, Nivel: 2, Județ: Galati, Formă: Deal, ID: 2189 <br /><b>Variante</b><br />Nume: Dealul Veverița, Hartă: Geomil 25000, Limbă: Limba română<br />Nume: Dealul Veverița, Hartă: PDT, Limbă: Limba română</description><Point><coordinates>27.820392,45.802632</coordinates></Point></Placemark>
<Placemark><name>Culmea Veveriței</name><description>Nume: Culmea Veveriței, Tip: veveriță, Nivel: 2, Județ: Gorj, Formă: Înălțime, ID: 2918 <br /><b>Variante</b><br />Nume: Culmea Veveriței, Hartă: Geomil 25000, Limbă: Limba română</description><Point><coordinates>23.451665,45.285374</coordinates></Point></Placemark>
<Placemark><name>Valea Veverița</name><description>Nume: Valea Veverița, Tip: veveriță, Nivel: 2, Județ: Olt, Formă: Vale, ID: 3047 <br /><b>Variante</b><br />Nume: Valea Veverița, Hartă: Geomil 25000, Limbă: Limba română</description><Point><coordinates>24.590012,44.617680</coordinates></Point></Placemark>
<Placemark><name>Bâtca Veveriței</name><description>Nume: Bâtca Veveriței, Tip: veveriță, Nivel: 2, Județ: Neamt, Formă: Înălțime, ID: 6526 <br /><b>Variante</b><br />Nume: Bâtca Veveriței, Hartă: PDT, Limbă: Limba română</description><Point><coordinates>26.141128,46.754569</coordinates></Point></Placemark>
<Placemark><name>Dealul Veveriței</name><description>Nume: Dealul Veveriței, Tip: veveriță, Nivel: 2, Județ: Buzau, Formă: Deal, ID: 9247 <br /><b>Variante</b><br />Nume: Dealul Veveriței, Hartă: PDT, Limbă: Limba română</description><Point><coordinates>26.759363,45.511693</coordinates></Point></Placemark>
<Placemark><name>Plaiul Veveriței</name><description>Nume: Plaiul Veveriței, Tip: veveriță, Nivel: 2, Județ: Dambovita, Formă: Înălțime, ID: 12402 <br /><b>Variante</b><br />Nume: Plaiul Veveriței, Hartă: PDT, Limbă: Limba română</description><Point><coordinates>25.605239,44.976960</coordinates></Point></Placemark>
<Placemark><name>Isvoru Veveriței</name><description>Nume: Isvoru Veveriței, Tip: veveriță, Nivel: 2, Județ: Buzau, Formă: Vale, ID: 13617 <br /><b>Variante</b><br />Nume: Isvoru Veveriței, Hartă: PDT, Limbă: Limba română</description><Point><coordinates>26.505995,45.182891</coordinates></Point></Placemark></Document></kml>