<?xml version="1.0" encoding="UTF-8"?><kml xmlns="http://www.opengis.net/kml/2.2"><Document><Placemark><name>Lunca Dochiei</name><description>Nume: Lunca Dochiei, Tip: dochia, Nivel: 2, Județ: Bacau, Formă: Apă-deal-câmpie, ID: 5336 <br /><b>Variante</b><br />Nume: Lunca Dochiei, Hartă: Geomil 25000, Limbă: Limba română<br />Nume: Lunca Dochiei, Hartă: PDT, Limbă: Limba română</description><Point><coordinates>27.065704,46.117673,0</coordinates></Point></Placemark>
<Placemark><name>Dochia</name><description>Nume: Dochia, Tip: dochia, Nivel: 2, Județ: Iasi, Formă: Altele, ID: 12926 <br /><b>Variante</b><br />Nume: Dochia, Hartă: Geomil 25000, Limbă: Limba română</description><Point><coordinates>27.284513,47.312820,0</coordinates></Point></Placemark>
<Placemark><name>Dochia</name><description>Nume: Dochia, Tip: dochia, Nivel: 2, Județ: Neamt, Formă: Localitate, ID: 9623 <br /><b>Variante</b><br />Nume: Dochia, Hartă: Geomil 25000, Limbă: Limba română<br />Nume: Dochia, Hartă: Moldova (1892-1898), Limbă: Limba română</description><Point><coordinates>26.565435,46.908617,0</coordinates></Point></Placemark>
<Placemark><name>Jgheabul Dochiei</name><description>Nume: Jgheabul Dochiei, Tip: dochia, Nivel: 2, Județ: Neamt, Formă: Vale, ID: 6507 <br /><b>Variante</b><br />Nume: Jgheabul Dochiei, Hartă: PDT, Limbă: Limba română</description><Point><coordinates>25.986171,46.896059,0</coordinates></Point></Placemark>
<Placemark><name>La Dochia</name><description>Nume: La Dochia, Tip: dochia, Nivel: 2, Județ: Neamt, Formă: Altele, ID: 6474 <br /><b>Variante</b><br />Nume: La Dochia, Hartă: PDT, Limbă: Limba română</description><Point><coordinates>25.963362,46.975069,0</coordinates></Point></Placemark>
<Placemark><name>Muchia Dochiei</name><description>Nume: Muchia Dochiei, Tip: dochia, Nivel: 2, Județ: Vrancea, Formă: Înălțime, ID: 5255 <br /><b>Variante</b><br />Nume: Muchia Dochiei, Hartă: Geomil 25000, Limbă: Limba română</description><Point><coordinates>27.012445,45.592631,0</coordinates></Point></Placemark></Document></kml>