<?xml version="1.0" encoding="UTF-8"?><kml xmlns="http://www.opengis.net/kml/2.2"><Document><Placemark><name>Tătăroaia</name><description>Nume: Tătăroaia, Tip: tătăroaie, Nivel: 3, Județ: Alba, Formă: Altele, ID: 1921 <br /><b>Variante</b><br />Nume: Tătăroaia, Hartă: Geomil 25000, Limbă: Limba română</description><Point><coordinates>23.968959,46.195486,0</coordinates></Point></Placemark>
<Placemark><name>Tătăroaia</name><description>Nume: Tătăroaia, Tip: tătăroaie, Nivel: 3, Județ: Bihor, Formă: Înălțime, ID: 1003 <br /><b>Variante</b><br />Nume: Tătăroaia, Hartă: Geomil 25000, Limbă: Limba română</description><Point><coordinates>22.618240,46.563058,0</coordinates></Point></Placemark>
<Placemark><name>Tătarca</name><description>Nume: Tătarca, Tip: tătarcă, Nivel: 4, Județ: Bistrita Nasaud, Formă: Înălțime, ID: 10642 <br /><b>Variante</b><br />Nume: Tătarca, Hartă: Geomil 25000, Limbă: Limba română</description><Point><coordinates>24.804241,47.158496,0</coordinates></Point></Placemark>
<Placemark><name>Dealul Tătarcei</name><description>Nume: Dealul Tătarcei, Tip: tătarcă, Nivel: 4, Județ: Botosani, Formă: Deal, ID: 2312 <br /><b>Variante</b><br />Nume: Dealul Tătarcei, Hartă: Geomil 25000, Limbă: Limba română</description><Point><coordinates>26.454569,47.930919,0</coordinates></Point></Placemark>
<Placemark><name>Tătarca</name><description>Nume: Tătarca, Tip: tătarcă, Nivel: 4, Județ: Galati, Formă: Localitate, ID: 10905 <br /><b>Variante</b><br />Nume: Tătarca, Hartă: Geomil 25000, Limbă: Limba română<br />Nume: Tătarca, Hartă: Moldova (1892-1898), Limbă: Limba română</description><Point><coordinates>28.050333,45.598545,0</coordinates></Point></Placemark>
<Placemark><name>Dealu Tătăroaia</name><description>Nume: Dealu Tătăroaia, Tip: tătăroaie, Nivel: 3, Județ: Hunedoara, Formă: Deal, ID: 6223 <br /><b>Variante</b><br />Nume: Dealu Tătăroaia, Hartă: Geomil 25000, Limbă: Limba română</description><Point><coordinates>22.469403,46.118611,0</coordinates></Point></Placemark>
<Placemark><name>Munții Tătarca</name><description>Nume: Munții Tătarca, Tip: tătarcă, Nivel: 4, Județ: Mures, Formă: Înălțime, ID: 5399 <br /><b>Variante</b><br />Nume: Munții Tătarca, Hartă: Geomil 25000, Limbă: Limba română</description><Point><coordinates>25.286269,46.699657,0</coordinates></Point></Placemark>
<Placemark><name>Dealu Tătărcii</name><description>Nume: Dealu Tătărcii, Tip: tătarcă, Nivel: 4, Județ: Sibiu, Formă: Deal, ID: 11703 <br /><b>Variante</b><br />Nume: Dealu Tătărcii, Hartă: Geomil 25000, Limbă: Limba română</description><Point><coordinates>23.945751,46.013897,0</coordinates></Point></Placemark>
<Placemark><name>Pârâul Tătarca Mare</name><description>Nume: Pârâul Tătarca Mare, Tip: tătarcă, Nivel: 4, Județ: Suceava, Formă: Vale, ID: 7242 <br /><b>Variante</b><br />Nume: Pârâul Tătarca Mare, Hartă: PDT, Limbă: Limba română<br />Nume: Tătarca Mare, Hartă: Geomil 25000, Limbă: Limba română</description><Point><coordinates>25.195866,47.623898,0</coordinates></Point></Placemark>
<Placemark><name>Tătărcuța</name><description>Nume: Tătărcuța, Tip: tătărcuță, Nivel: 4, Județ: Suceava, Formă: Vale, ID: 12898 <br /><b>Variante</b><br />Nume: Tătărcuța, Hartă: Geomil 25000, Limbă: Limba română</description><Point><coordinates>25.284771,47.657577,0</coordinates></Point></Placemark>
<Placemark><name>Tătăroaia</name><description>Nume: Tătăroaia, Tip: tătăroaie, Nivel: 3, Județ: Valcea, Formă: Localitate, ID: 4792 <br /><b>Variante</b><br />Nume: Tătăroaia, Hartă: PDT, Limbă: Limba română</description><Point><coordinates>24.241590,44.747714,0</coordinates></Point></Placemark>
<Placemark><name>Dealul Tătarcei</name><description>Nume: Dealul Tătarcei, Tip: tătarcă, Nivel: 4, Județ: Vaslui, Formă: Deal, ID: 7805 <br /><b>Variante</b><br />Nume: Dealul Tătarcei, Hartă: Geomil 25000, Limbă: Limba română</description><Point><coordinates>27.226165,46.762327,0</coordinates></Point></Placemark></Document></kml>