<?xml version="1.0" encoding="UTF-8"?><kml xmlns="http://www.opengis.net/kml/2.2"><Document><Placemark><name>Pădurea Cioroiului</name><description>Nume: Pădurea Cioroiului, Tip: cioroi, Nivel: 3, Județ: Neamt, Formă: Pădure, ID: 658 <br /><b>Variante</b><br />Nume: Pădurea Cioroiului, Hartă: Geomil 25000, Limbă: Limba română</description><Point><coordinates>26.393427,47.246805</coordinates></Point></Placemark>
<Placemark><name>Valea Cioroiului</name><description>Nume: Valea Cioroiului, Tip: cioroi, Nivel: 3, Județ: Maramures, Formă: Vale, ID: 916 <br /><b>Variante</b><br />Nume: Valea Cioroiului, Hartă: Geomil 25000, Limbă: Limba română</description><Point><coordinates>24.061865,47.705226</coordinates></Point></Placemark>
<Placemark><name>Valea Cioroilor</name><description>Nume: Valea Cioroilor, Tip: cioroi, Nivel: 3, Județ: Bihor, Formă: Vale, ID: 1082 <br /><b>Variante</b><br />Nume: Valea Cioroilor, Hartă: Geomil 25000, Limbă: Limba română</description><Point><coordinates>22.094387,46.862082</coordinates></Point></Placemark>
<Placemark><name>Ostrovu Cioroiu</name><description>Nume: Ostrovu Cioroiu, Tip: cioroi, Nivel: 3, Județ: Teleorman, Formă: Altele, ID: 1346 <br /><b>Variante</b><br />Nume: Ostrovu Cioroiu, Hartă: Geomil 25000, Limbă: Limba română</description><Point><coordinates>25.018109,43.724720</coordinates></Point></Placemark>
<Placemark><name>Tarlaua Cioroi</name><description>Nume: Tarlaua Cioroi, Tip: cioroi, Nivel: 3, Județ: Olt, Formă: Altele, ID: 1354 <br /><b>Variante</b><br />Nume: Tarlaua Cioroi, Hartă: Geomil 25000, Limbă: Limba română</description><Point><coordinates>24.550763,43.917668</coordinates></Point></Placemark>
<Placemark><name>Plaiul Cioroiului</name><description>Nume: Plaiul Cioroiului, Tip: cioroi, Nivel: 3, Județ: Valcea, Formă: Înălțime, ID: 2933 <br /><b>Variante</b><br />Nume: Plaiul Cioroiului, Hartă: Geomil 25000, Limbă: Limba română</description><Point><coordinates>24.136152,45.340583</coordinates></Point></Placemark>
<Placemark><name>Cioroiu</name><description>Nume: Cioroiu, Tip: cioroi, Nivel: 3, Județ: Olt, Formă: Localitate, ID: 3010 <br /><b>Variante</b><br />Nume: Cioroiu, Hartă: Geomil 25000, Limbă: Limba română</description><Point><coordinates>24.377962,44.238436</coordinates></Point></Placemark>
<Placemark><name>Cioroiu</name><description>Nume: Cioroiu, Tip: cioroi, Nivel: 3, Județ: Braila, Formă: Altele, ID: 3193 <br /><b>Variante</b><br />Nume: Cioroiu, Hartă: Geomil 25000, Limbă: Limba română</description><Point><coordinates>27.901587,44.874977</coordinates></Point></Placemark>
<Placemark><name>Pădurea Cioroiu</name><description>Nume: Pădurea Cioroiu, Tip: cioroi, Nivel: 3, Județ: Braila, Formă: Pădure, ID: 3196 <br /><b>Variante</b><br />Nume: Pădurea Cioroiu, Hartă: Geomil 25000, Limbă: Limba română</description><Point><coordinates>27.918839,44.922426</coordinates></Point></Placemark>
<Placemark><name>Valea Cioroiului</name><description>Nume: Valea Cioroiului, Tip: cioroi, Nivel: 3, Județ: Arges, Formă: Vale, ID: 3397 <br /><b>Variante</b><br />Nume: Valea Cioroiului, Hartă: Geomil 25000, Limbă: Limba română<br />Nume: Valea Cioroiului, Hartă: PDT, Limbă: Limba română</description><Point><coordinates>24.865110,44.475747</coordinates></Point></Placemark>
<Placemark><name>Valea Cioroilor</name><description>Nume: Valea Cioroilor, Tip: cioroi, Nivel: 3, Județ: Bihor, Formă: Vale, ID: 4158 <br /><b>Variante</b><br />Nume: Valea Cioroilor, Hartă: PDT, Limbă: Limba română</description><Point><coordinates>22.349249,46.976137</coordinates></Point></Placemark>
<Placemark><name>Valea Cioroiu</name><description>Nume: Valea Cioroiu, Tip: cioroi, Nivel: 3, Județ: Gorj, Formă: Vale, ID: 5082 <br /><b>Variante</b><br />Nume: Valea Cioroiu, Hartă: PDT, Limbă: Limba română</description><Point><coordinates>23.688103,44.950569</coordinates></Point></Placemark>
<Placemark><name>Pârâu Cioroiului</name><description>Nume: Pârâu Cioroiului, Tip: cioroi, Nivel: 3, Județ: Hunedoara, Formă: Vale, ID: 6270 <br /><b>Variante</b><br />Nume: Pârâu Cioroiului, Hartă: Geomil 25000, Limbă: Limba română</description><Point><coordinates>22.692805,46.134140</coordinates></Point></Placemark>
<Placemark><name>Cioroiul</name><description>Nume: Cioroiul, Tip: cioroi, Nivel: 3, Județ: Salaj, Formă: Înălțime, ID: 7556 <br /><b>Variante</b><br />Nume: Cioroiul, Hartă: PDT, Limbă: Limba română</description><Point><coordinates>23.091506,47.156740</coordinates></Point></Placemark>
<Placemark><name>Cioroiul</name><description>Nume: Cioroiul, Tip: cioroi, Nivel: 3, Județ: Olt, Formă: Altele, ID: 8115 <br /><b>Variante</b><br />Nume: Cioroiul, Hartă: PDT, Limbă: Limba română</description><Point><coordinates>24.413339,44.230204</coordinates></Point></Placemark>
<Placemark><name>Pârâul Cioroiul</name><description>Nume: Pârâul Cioroiul, Tip: cioroi, Nivel: 3, Județ: Dambovita, Formă: Vale, ID: 8382 <br /><b>Variante</b><br />Nume: Pârâul Cioroiul, Hartă: PDT, Limbă: Limba română</description><Point><coordinates>25.406695,44.972658</coordinates></Point></Placemark>
<Placemark><name>La Gitul Cioroiului</name><description>Nume: La Gitul Cioroiului, Tip: cioroi, Nivel: 3, Județ: Ialomita, Formă: Altele, ID: 9276 <br /><b>Variante</b><br />Nume: La Gitul Cioroiului, Hartă: Geomil 25000, Limbă: Limba română</description><Point><coordinates>28.073713,44.450736</coordinates></Point></Placemark>
<Placemark><name>Valea Cioroiu</name><description>Nume: Valea Cioroiu, Tip: cioroi, Nivel: 3, Județ: Bihor, Formă: Vale, ID: 9939 <br /><b>Variante</b><br />Nume: Valea Cioroiu, Hartă: Geomil 25000, Limbă: Limba română</description><Point><coordinates>22.425134,47.007668</coordinates></Point></Placemark>
<Placemark><name>Valea Cioroiului</name><description>Nume: Valea Cioroiului, Tip: cioroi, Nivel: 3, Județ: Bihor, Formă: Vale, ID: 10274 <br /><b>Variante</b><br />Nume: Valea Cioroiului, Hartă: PDT, Limbă: Limba română</description><Point><coordinates>22.487750,46.978557</coordinates></Point></Placemark>
<Placemark><name>Bâtca cioroiului</name><description>Nume: Bâtca cioroiului, Tip: cioroi, Nivel: 3, Județ: Harghita, Formă: Înălțime, ID: 10606 <br /><b>Variante</b><br />Nume: Bâtca cioroiului, Hartă: Imperiul Habsburgic (1887), Limbă: Limba română</description><Point><coordinates>25.420336,46.949891</coordinates></Point></Placemark>
<Placemark><name>Pădurea Cioroiul</name><description>Nume: Pădurea Cioroiul, Tip: cioroi, Nivel: 3, Județ: Dolj, Formă: Pădure, ID: 12170 <br /><b>Variante</b><br />Nume: Pădurea Cioroiul, Hartă: PDT, Limbă: Limba română</description><Point><coordinates>23.849661,44.225632</coordinates></Point></Placemark></Document></kml>