<?xml version="1.0" encoding="UTF-8"?><kml xmlns="http://www.opengis.net/kml/2.2"><Document><Placemark><name>Valea Mangalăriei</name><description>Nume: Valea Mangalăriei, Tip: măngălărie, Nivel: 3, Județ: Bacau, Formă: Vale, ID: 12635 <br /><b>Variante</b><br />Nume: Valea Mangalăriei, Hartă: Moldova (1892-1898), Limbă: Limba română</description><Point><coordinates>27.058671,46.584057,0</coordinates></Point></Placemark>
<Placemark><name>Măngălăria</name><description>Nume: Măngălăria, Tip: măngălărie, Nivel: 3, Județ: Botosani, Formă: Altele, ID: 9584 <br /><b>Variante</b><br />Nume: Măngălăria, Hartă: Moldova (1892-1898), Limbă: Limba română</description><Point><coordinates>26.625647,47.639941,0</coordinates></Point></Placemark>
<Placemark><name>Valea Măngălăria</name><description>Nume: Valea Măngălăria, Tip: măngălărie, Nivel: 3, Județ: Botosani, Formă: Vale, ID: 3567 <br /><b>Variante</b><br />Nume: Valea Măngălăria, Hartă: PDT, Limbă: Limba română</description><Point><coordinates>26.595809,47.663900,0</coordinates></Point></Placemark>
<Placemark><name>Dealul Măngălăria</name><description>Nume: Dealul Măngălăria, Tip: măngălărie, Nivel: 3, Județ: Iasi, Formă: Deal, ID: 12923 <br /><b>Variante</b><br />Nume: Dealul Măngălăria, Hartă: Geomil 25000, Limbă: Limba română</description><Point><coordinates>26.781089,47.456605,0</coordinates></Point></Placemark>
<Placemark><name>Dealul Măngălăriei</name><description>Nume: Dealul Măngălăriei, Tip: măngălărie, Nivel: 3, Județ: Iasi, Formă: Deal, ID: 6625 <br /><b>Variante</b><br />Nume: Dealul Măngălăriei, Hartă: Geomil 25000, Limbă: Limba română</description><Point><coordinates>26.799781,47.389043,0</coordinates></Point></Placemark>
<Placemark><name>La Măngălărie</name><description>Nume: La Măngălărie, Tip: măngălărie, Nivel: 3, Județ: Iasi, Formă: Altele, ID: 7301 <br /><b>Variante</b><br />Nume: La Măngălărie, Hartă: Geomil 25000, Limbă: Limba română</description><Point><coordinates>27.167023,47.088217,0</coordinates></Point></Placemark>
<Placemark><name>La Mângălărie</name><description>Nume: La Mângălărie, Tip: măngălărie, Nivel: 3, Județ: Iasi, Formă: Altele, ID: 12288 <br /><b>Variante</b><br />Nume: La Mângălărie, Hartă: Geomil 25000, Limbă: Limba română</description><Point><coordinates>27.224257,47.036208,0</coordinates></Point></Placemark>
<Placemark><name>Măngălăria</name><description>Nume: Măngălăria, Tip: măngălărie, Nivel: 3, Județ: Iasi, Formă: Înălțime, ID: 6596 <br /><b>Variante</b><br />Nume: Măngălăria, Hartă: PDT, Limbă: Limba română</description><Point><coordinates>27.627231,47.046038,0</coordinates></Point></Placemark>
<Placemark><name>La Măngălărie</name><description>Nume: La Măngălărie, Tip: măngălărie, Nivel: 3, Județ: Neamt, Formă: Altele, ID: 9133 <br /><b>Variante</b><br />Nume: La Măngălărie, Hartă: Geomil 25000, Limbă: Limba română</description><Point><coordinates>26.269869,46.964100,0</coordinates></Point></Placemark>
<Placemark><name>Plaiul Măngălăriei</name><description>Nume: Plaiul Măngălăriei, Tip: măngălărie, Nivel: 3, Județ: Neamt, Formă: Înălțime, ID: 9596 <br /><b>Variante</b><br />Nume: Plaiul Măngălăriei, Hartă: Moldova (1892-1898), Limbă: Limba română</description><Point><coordinates>26.313616,46.960191,0</coordinates></Point></Placemark>
<Placemark><name>Vârful Măngălăriei</name><description>Nume: Vârful Măngălăriei, Tip: măngălărie, Nivel: 3, Județ: Neamt, Formă: Înălțime, ID: 4611 <br /><b>Variante</b><br />Nume: Vârful Măngălăriei, Hartă: PDT, Limbă: Limba română</description><Point><coordinates>26.398302,46.827875,0</coordinates></Point></Placemark>
<Placemark><name>Vârful Măngălăriei</name><description>Nume: Vârful Măngălăriei, Tip: măngălărie, Nivel: 3, Județ: Neamt, Formă: Înălțime, ID: 4612 <br /><b>Variante</b><br />Nume: Vârful Măngălăriei, Hartă: PDT, Limbă: Limba română</description><Point><coordinates>26.343024,46.828959,0</coordinates></Point></Placemark>
<Placemark><name>Pârâul de la Măngălărie</name><description>Nume: Pârâul de la Măngălărie, Tip: măngălărie, Nivel: 3, Județ: Suceava, Formă: Vale, ID: 7266 <br /><b>Variante</b><br />Nume: Pârâul de la Măngălărie, Hartă: PDT, Limbă: Limba română</description><Point><coordinates>26.144079,47.868409,0</coordinates></Point></Placemark>
<Placemark><name>Valea Măngălăriei</name><description>Nume: Valea Măngălăriei, Tip: măngălărie, Nivel: 3, Județ: Suceava, Formă: Vale, ID: 4924 <br /><b>Variante</b><br />Nume: Valea Măngălăriei, Hartă: PDT, Limbă: Limba română</description><Point><coordinates>26.447662,47.534679,0</coordinates></Point></Placemark>
<Placemark><name>La Măngălarie</name><description>Nume: La Măngălarie, Tip: măngălărie, Nivel: 3, Județ: Tulcea, Formă: Altele, ID: 14279 <br /><b>Variante</b><br />Nume: La Măngălarie, Hartă: ANCPI, Limbă: Limba română</description><Point><coordinates>28.364422,45.129124,0</coordinates></Point></Placemark>
<Placemark><name>Dealul Mângăralia</name><description>Nume: Dealul Mângăralia, Tip: măngălărie, Nivel: 3, Județ: Vaslui, Formă: Deal, ID: 4625 <br /><b>Variante</b><br />Nume: Dealul Mângăralia, Hartă: Geomil 25000, Limbă: Limba română</description><Point><coordinates>27.448588,46.604689,0</coordinates></Point></Placemark></Document></kml>