<?xml version="1.0" encoding="UTF-8"?><kml xmlns="http://www.opengis.net/kml/2.2"><Document><Placemark><name>Valea Limpede</name><description>Nume: Valea Limpede, Tip: limpede, Nivel: 2, Județ: Arges, Formă: Vale, ID: 12956 <br /><b>Variante</b><br />Nume: Valea Limpede, Hartă: Geomil 25000, Limbă: Limba română</description><Point><coordinates>24.664109,45.348190,0</coordinates></Point></Placemark>
<Placemark><name>Valea Limpede</name><description>Nume: Valea Limpede, Tip: limpede, Nivel: 2, Județ: Arges, Formă: Vale, ID: 13125 <br /><b>Variante</b><br />Nume: Valea Limpede, Hartă: Geomil 25000, Limbă: Limba română</description><Point><coordinates>25.014836,45.158035,0</coordinates></Point></Placemark>
<Placemark><name>Bâtca Limpede</name><description>Nume: Bâtca Limpede, Tip: limpede, Nivel: 2, Județ: Bacau, Formă: Vale, ID: 13043 <br /><b>Variante</b><br />Nume: Bâtca Limpede, Hartă: Geomil 25000, Limbă: Limba română</description><Point><coordinates>26.915430,46.109575,0</coordinates></Point></Placemark>
<Placemark><name>Pârâul Limpede</name><description>Nume: Pârâul Limpede, Tip: limpede, Nivel: 2, Județ: Bacau, Formă: Vale, ID: 13592 <br /><b>Variante</b><br />Nume: Pârâul Limpede, Hartă: Moldova (1892-1898), Limbă: Limba română</description><Point><coordinates>26.963003,46.237018,0</coordinates></Point></Placemark>
<Placemark><name>Lacul Limpede</name><description>Nume: Lacul Limpede, Tip: limpede, Nivel: 2, Județ: Buzau, Formă: Lac, ID: 13781 <br /><b>Variante</b><br />Nume: Lacul Limpede, Hartă: Geomil 25000, Limbă: Limba română</description><Point><coordinates>26.573579,45.566765,0</coordinates></Point></Placemark>
<Placemark><name>Pârâul Limpede</name><description>Nume: Pârâul Limpede, Tip: limpede, Nivel: 2, Județ: Buzau, Formă: Vale, ID: 13565 <br /><b>Variante</b><br />Nume: Pârâul Limpede, Hartă: Geomil 25000, Limbă: Limba română</description><Point><coordinates>26.453005,45.211632,0</coordinates></Point></Placemark>
<Placemark><name>Lacul Limpede</name><description>Nume: Lacul Limpede, Tip: limpede, Nivel: 2, Județ: Dolj, Formă: Lac, ID: 14374 <br /><b>Variante</b><br />Nume: Lacul Limpede, Hartă: PDT, Limbă: Limba română</description><Point><coordinates>23.786690,44.118181,0</coordinates></Point></Placemark>
<Placemark><name>Lacul Limpede</name><description>Nume: Lacul Limpede, Tip: limpede, Nivel: 2, Județ: Giurgiu, Formă: Lac, ID: 15430 <br /><b>Variante</b><br />Nume: Lacul Limpede, Hartă: PDT, Limbă: Limba română</description><Point><coordinates>26.101805,44.014640,0</coordinates></Point></Placemark>
<Placemark><name>Valea Limpezii</name><description>Nume: Valea Limpezii, Tip: limpede, Nivel: 2, Județ: Hunedoara, Formă: Vale, ID: 13437 <br /><b>Variante</b><br />Nume: Valea Limpezii, Hartă: Imperiul Habsburgic (1887), Limbă: Limba română</description><Point><coordinates>22.873427,45.683328,0</coordinates></Point></Placemark>
<Placemark><name>Pârâul Limpede</name><description>Nume: Pârâul Limpede, Tip: limpede, Nivel: 2, Județ: Maramures, Formă: Vale, ID: 14105 <br /><b>Variante</b><br />Nume: Pârâul Limpede, Hartă: Geomil 25000, Limbă: Limba română</description><Point><coordinates>23.512494,47.743898,0</coordinates></Point></Placemark>
<Placemark><name>Valea Limpede</name><description>Nume: Valea Limpede, Tip: limpede, Nivel: 2, Județ: Maramures, Formă: Vale, ID: 14104 <br /><b>Variante</b><br />Nume: Valea Limpede, Hartă: Geomil 25000, Limbă: Limba română</description><Point><coordinates>23.730572,47.676557,0</coordinates></Point></Placemark>
<Placemark><name>Valea Limpede</name><description>Nume: Valea Limpede, Tip: limpede, Nivel: 2, Județ: Maramures, Formă: Vale, ID: 14452 <br /><b>Variante</b><br />Nume: Valea Limpede, Hartă: PDT, Limbă: Limba română</description><Point><coordinates>23.651317,47.708008,0</coordinates></Point></Placemark>
<Placemark><name>Valea Limpedea</name><description>Nume: Valea Limpedea, Tip: limpedea, Nivel: 3, Județ: Mehedinti, Formă: Vale, ID: 13537 <br /><b>Variante</b><br />Nume: Valea Limpedea, Hartă: Geomil 25000, Limbă: Limba română</description><Point><coordinates>22.838032,44.913309,0</coordinates></Point></Placemark>
<Placemark><name>Izvorul Limpede</name><description>Nume: Izvorul Limpede, Tip: limpede, Nivel: 2, Județ: Prahova, Formă: Vale, ID: 13806 <br /><b>Variante</b><br />Nume: Izvorul Limpede, Hartă: PDT, Limbă: Limba română</description><Point><coordinates>26.434902,45.127142,0</coordinates></Point></Placemark>
<Placemark><name>Pârâul Limpedea</name><description>Nume: Pârâul Limpedea, Tip: limpedea, Nivel: 3, Județ: Suceava, Formă: Vale, ID: 15065 <br /><b>Variante</b><br />Nume: Pârâul Limpedea, Hartă: Munții noștri, Limbă: Limba română</description><Point><coordinates>25.585003,47.483148,0</coordinates></Point></Placemark>
<Placemark><name>Dealul Poiana Limpede</name><description>Nume: Dealul Poiana Limpede, Tip: limpede, Nivel: 2, Județ: Valcea, Formă: Deal, ID: 13572 <br /><b>Variante</b><br />Nume: Dealul Poiana Limpede, Hartă: ANCPI, Limbă: Limba română</description><Point><coordinates>24.345231,45.160007,0</coordinates></Point></Placemark>
<Placemark><name>Pârâul Limpede</name><description>Nume: Pârâul Limpede, Tip: limpede, Nivel: 2, Județ: Valcea, Formă: Vale, ID: 12973 <br /><b>Variante</b><br />Nume: Pârâul Limpede, Hartă: Geomil 25000, Limbă: Limba română</description><Point><coordinates>24.006088,45.195410,0</coordinates></Point></Placemark>
<Placemark><name>Pârâul Limpede</name><description>Nume: Pârâul Limpede, Tip: limpede, Nivel: 2, Județ: Vrancea, Formă: Vale, ID: 13299 <br /><b>Variante</b><br />Nume: Pârâul Limpede, Hartă: Geomil 25000, Limbă: Limba română</description><Point><coordinates>26.592802,45.880601,0</coordinates></Point></Placemark>
<Placemark><name>Pârâul Limpede</name><description>Nume: Pârâul Limpede, Tip: limpede, Nivel: 2, Județ: Vrancea, Formă: Vale, ID: 15995 <br /><b>Variante</b><br />Nume: Pârâul Limpede, Hartă: PDT, Limbă: Limba română</description><Point><coordinates>26.979922,45.729850,0</coordinates></Point></Placemark>
<Placemark><name>Limpejoara</name><description>Nume: Limpejoara, Tip: limpejoara, Nivel: 3, Județ: Vrancea, Formă: Vale, ID: 14205 <br /><b>Variante</b><br />Nume: Limpejoara, Hartă: Geomil 25000, Limbă: Limba română</description><Point><coordinates>26.903453,45.991720,0</coordinates></Point></Placemark>
<Placemark><name>Pârâul Limpejoara</name><description>Nume: Pârâul Limpejoara, Tip: limpejoara, Nivel: 3, Județ: Vrancea, Formă: Vale, ID: 14207 <br /><b>Variante</b><br />Nume: Pârâul Limpejoara, Hartă: Geomil 25000, Limbă: Limba română</description><Point><coordinates>26.834248,46.033049,0</coordinates></Point></Placemark></Document></kml>