<?xml version="1.0" encoding="UTF-8"?><kml xmlns="http://www.opengis.net/kml/2.2"><Document><Placemark><name>Vârful Turturica</name><description>Nume: Vârful Turturica, Tip: turturică, Nivel: 2, Județ: Prahova, Formă: Înălțime, ID: 810 <br /><b>Variante</b><br />Nume: Vârful Turturica, Hartă: Geomil 25000, Limbă: Limba română</description><Point><coordinates>25.987239,45.210381</coordinates></Point></Placemark>
<Placemark><name>La Turturica</name><description>Nume: La Turturica, Tip: turturică, Nivel: 2, Județ: Ialomita, Formă: Altele, ID: 3204 <br /><b>Variante</b><br />Nume: La Turturica, Hartă: Geomil 25000, Limbă: Limba română</description><Point><coordinates>27.912735,44.579151</coordinates></Point></Placemark>
<Placemark><name>Câmpul Turturicii</name><description>Nume: Câmpul Turturicii, Tip: turturică, Nivel: 2, Județ: Mehedinti, Formă: Câmp, ID: 8389 <br /><b>Variante</b><br />Nume: Câmpul Turturicii, Hartă: Geomil 25000, Limbă: Limba română</description><Point><coordinates>23.179892,44.438644</coordinates></Point></Placemark>
<Placemark><name>Valea Turtureaua</name><description>Nume: Valea Turtureaua, Tip: turturică, Nivel: 2, Județ: Caras Severin, Formă: Vale, ID: 8532 <br /><b>Variante</b><br />Nume: Valea Turtureaua, Hartă: Geomil 25000, Limbă: Limba română</description><Point><coordinates>21.444182,44.842877</coordinates></Point></Placemark>
<Placemark><name>Poiana Turturelelor</name><description>Nume: Poiana Turturelelor, Tip: turturică, Nivel: 2, Județ: Teleorman, Formă: Poiană, ID: 9480 <br /><b>Variante</b><br />Nume: Poiana Turturelelor, Hartă: PDT, Limbă: Limba română</description><Point><coordinates>24.648711,43.948393</coordinates></Point></Placemark>
<Placemark><name>Dealul Turturelei</name><description>Nume: Dealul Turturelei, Tip: turturică, Nivel: 2, Județ: Valcea, Formă: Deal, ID: 11031 <br /><b>Variante</b><br />Nume: Dealul Turturelei, Hartă: PDT, Limbă: Limba română</description><Point><coordinates>23.758120,44.717472</coordinates></Point></Placemark></Document></kml>