<?xml version="1.0" encoding="UTF-8"?><kml xmlns="http://www.opengis.net/kml/2.2"><Document><Placemark><name>Valea Căprioara</name><description>Nume: Valea Căprioara, Tip: căprioară, Nivel: 3, Județ: Alba, Formă: Vale, ID: 5911 <br /><b>Variante</b><br />Nume: Valea Căprioara, Hartă: Geomil 25000, Limbă: Limba română</description><Point><coordinates>22.816217,46.539805,0</coordinates></Point></Placemark>
<Placemark><name>Cerbu</name><description>Nume: Cerbu, Tip: cerb, Nivel: 2, Județ: Alba, Formă: Înălțime, ID: 1932 <br /><b>Variante</b><br />Nume: Cerbu, Hartă: Geomil 25000, Limbă: Limba română</description><Point><coordinates>22.982484,46.443248,0</coordinates></Point></Placemark>
<Placemark><name>Cerbu</name><description>Nume: Cerbu, Tip: cerb, Nivel: 2, Județ: Alba, Formă: Localitate, ID: 5583, ID Părinte: 5581 <br /><b>Variante</b><br />Nume: Cerbu, Hartă: Geomil 25000, Limbă: Limba română</description><Point><coordinates>23.104991,46.246738,0</coordinates></Point></Placemark>
<Placemark><LineString id="5583_5581"><tessellate>1</tessellate><coordinates>23.104991,46.246738,0.
23.115857,46.239698,0</coordinates></LineString><Style><LineStyle><width>3</width></LineStyle></Style></Placemark>
<Placemark><name>Dealu Cerbului</name><description>Nume: Dealu Cerbului, Tip: cerb, Nivel: 2, Județ: Alba, Formă: Deal, ID: 5616 <br /><b>Variante</b><br />Nume: Dealu Cerbului, Hartă: Geomil 25000, Limbă: Limba română</description><Point><coordinates>22.744114,46.512013,0</coordinates></Point></Placemark>
<Placemark><name>Valea Cerbului</name><description>Nume: Valea Cerbului, Tip: cerb, Nivel: 2, Județ: Alba, Formă: Localitate, ID: 5581 <br /><b>Variante</b><br />Nume: Valea Cerbului, Hartă: Geomil 25000, Limbă: Limba română</description><Point><coordinates>23.115857,46.239698,0</coordinates></Point></Placemark>
<Placemark><name>Valea Cerbului</name><description>Nume: Valea Cerbului, Tip: cerb, Nivel: 2, Județ: Alba, Formă: Vale, ID: 12552, ID Părinte: 5616 <br /><b>Variante</b><br />Nume: Valea Cerbului, Hartă: PDT, Limbă: Limba română</description><Point><coordinates>22.747769,46.506688,0</coordinates></Point></Placemark>
<Placemark><LineString id="12552_5616"><tessellate>1</tessellate><coordinates>22.747769,46.506688,0.
22.744114,46.512013,0</coordinates></LineString><Style><LineStyle><width>3</width></LineStyle></Style></Placemark>
<Placemark><name>Dealu Ciuta</name><description>Nume: Dealu Ciuta, Tip: ciută, Nivel: 3, Județ: Alba, Formă: Deal, ID: 5584, ID Părinte: 5582 <br /><b>Variante</b><br />Nume: Dealu Ciuta, Hartă: Geomil 25000, Limbă: Limba română</description><Point><coordinates>23.088184,46.253398,0</coordinates></Point></Placemark>
<Placemark><LineString id="5584_5582"><tessellate>1</tessellate><coordinates>23.088184,46.253398,0.
23.085654,46.244890,0</coordinates></LineString><Style><LineStyle><width>3</width></LineStyle></Style></Placemark>
<Placemark><name>Valea Ciutei</name><description>Nume: Valea Ciutei, Tip: ciută, Nivel: 3, Județ: Alba, Formă: Vale, ID: 5582 <br /><b>Variante</b><br />Nume: Valea Ciutei, Hartă: Geomil 25000, Limbă: Limba română</description><Point><coordinates>23.085654,46.244890,0</coordinates></Point></Placemark>
<Placemark><name>Căprioara</name><description>Nume: Căprioara, Tip: căprioară, Nivel: 3, Județ: Arad, Formă: Localitate, ID: 10361 <br /><b>Variante</b><br />Nume: Căprioara, Hartă: Geomil 25000, Limbă: Limba română</description><Point><coordinates>22.278642,45.982057,0</coordinates></Point></Placemark>
<Placemark><name>Vârful Cerbului</name><description>Nume: Vârful Cerbului, Tip: cerb, Nivel: 2, Județ: Arad, Formă: Înălțime, ID: 7652 <br /><b>Variante</b><br />Nume: Vârful Cerbului, Hartă: PDT, Limbă: Limba română</description><Point><coordinates>22.325836,46.380907,0</coordinates></Point></Placemark>
<Placemark><name>Vârfu Cerboaia</name><description>Nume: Vârfu Cerboaia, Tip: cerboaie, Nivel: 3, Județ: Arad, Formă: Înălțime, ID: 1946 <br /><b>Variante</b><br />Nume: Vârfu Cerboaia, Hartă: Geomil 25000, Limbă: Limba română</description><Point><coordinates>22.121037,46.250285,0</coordinates></Point></Placemark>
<Placemark><name>Culmea Căprioarei</name><description>Nume: Culmea Căprioarei, Tip: căprioară, Nivel: 3, Județ: Arges, Formă: Înălțime, ID: 626 <br /><b>Variante</b><br />Nume: Culmea Căprioarei, Hartă: Geomil 25000, Limbă: Limba română</description><Point><coordinates>25.111299,45.542607,0</coordinates></Point></Placemark>
<Placemark><name>Dealul Căprioarei</name><description>Nume: Dealul Căprioarei, Tip: căprioară, Nivel: 3, Județ: Arges, Formă: Deal, ID: 10071 <br /><b>Variante</b><br />Nume: Dealul Căprioarei, Hartă: Geomil 25000, Limbă: Limba română</description><Point><coordinates>25.023534,45.314806,0</coordinates></Point></Placemark>
<Placemark><name>Dealul Căprioarei</name><description>Nume: Dealul Căprioarei, Tip: căprioară, Nivel: 3, Județ: Arges, Formă: Deal, ID: 11174 <br /><b>Variante</b><br />Nume: Dealul Căprioarei, Hartă: ANCPI, Limbă: Limba română</description><Point><coordinates>24.739206,45.141432,0</coordinates></Point></Placemark>
<Placemark><name>Muntele Căprioarei</name><description>Nume: Muntele Căprioarei, Tip: căprioară, Nivel: 3, Județ: Arges, Formă: Înălțime, ID: 4983 <br /><b>Variante</b><br />Nume: Muntele Căprioarei, Hartă: Geomil 25000, Limbă: Limba română</description><Point><coordinates>24.581963,45.358543,0</coordinates></Point></Placemark>
<Placemark><name>Valea Căprioarei</name><description>Nume: Valea Căprioarei, Tip: căprioară, Nivel: 3, Județ: Arges, Formă: Vale, ID: 601 <br /><b>Variante</b><br />Nume: Valea Căprioarei, Hartă: Geomil 25000, Limbă: Limba română</description><Point><coordinates>25.201173,45.487540,0</coordinates></Point></Placemark>
<Placemark><name>Valea Căprioarei</name><description>Nume: Valea Căprioarei, Tip: căprioară, Nivel: 3, Județ: Arges, Formă: Vale, ID: 5075 <br /><b>Variante</b><br />Nume: Valea Căprioarei, Hartă: PDT, Limbă: Limba română</description><Point><coordinates>24.792465,45.348136,0</coordinates></Point></Placemark>
<Placemark><name>Valea Căprioarei</name><description>Nume: Valea Căprioarei, Tip: căprioară, Nivel: 3, Județ: Arges, Formă: Vale, ID: 8828 <br /><b>Variante</b><br />Nume: Valea Căprioarei, Hartă: PDT, Limbă: Limba română</description><Point><coordinates>25.074011,45.207953,0</coordinates></Point></Placemark>
<Placemark><name>Valea Căprioarei</name><description>Nume: Valea Căprioarei, Tip: căprioară, Nivel: 3, Județ: Arges, Formă: Vale, ID: 10072, ID Părinte: 10071 <br /><b>Variante</b><br />Nume: Valea Căprioarei, Hartă: Geomil 25000, Limbă: Limba română</description><Point><coordinates>25.022935,45.317600,0</coordinates></Point></Placemark>
<Placemark><LineString id="10072_10071"><tessellate>1</tessellate><coordinates>25.022935,45.317600,0.
25.023534,45.314806,0</coordinates></LineString><Style><LineStyle><width>3</width></LineStyle></Style></Placemark>
<Placemark><name>Cerbu</name><description>Nume: Cerbu, Tip: cerb, Nivel: 2, Județ: Arges, Formă: , ID: 4779 <br /><b>Variante</b><br />Nume: Cerbu, Hartă: Geomil 25000, Limbă: Limba română<br />Nume: Cerbu, Hartă: PDT, Limbă: Limba română</description><Point><coordinates>24.819707,44.757899,0</coordinates></Point></Placemark>
<Placemark><name>Cerbul Mare</name><description>Nume: Cerbul Mare, Tip: cerb, Nivel: 2, Județ: Arges, Formă: Vale, ID: 10197, ID Părinte: 10196 <br /><b>Variante</b><br />Nume: Cerbul Mare, Hartă: Geomil 25000, Limbă: Limba română</description><Point><coordinates>24.566670,45.400649,0</coordinates></Point></Placemark>
<Placemark><LineString id="10197_10196"><tessellate>1</tessellate><coordinates>24.566670,45.400649,0.
24.560943,45.396243,0</coordinates></LineString><Style><LineStyle><width>3</width></LineStyle></Style></Placemark>
<Placemark><name>Cerbul Mic</name><description>Nume: Cerbul Mic, Tip: cerb, Nivel: 2, Județ: Arges, Formă: Vale, ID: 10198, ID Părinte: 10196 <br /><b>Variante</b><br />Nume: Cerbul Mic, Hartă: Geomil 25000, Limbă: Limba română</description><Point><coordinates>24.571862,45.399212,0</coordinates></Point></Placemark>
<Placemark><LineString id="10198_10196"><tessellate>1</tessellate><coordinates>24.571862,45.399212,0.
24.560943,45.396243,0</coordinates></LineString><Style><LineStyle><width>3</width></LineStyle></Style></Placemark>
<Placemark><name>Dealu Cerbului</name><description>Nume: Dealu Cerbului, Tip: cerb, Nivel: 2, Județ: Arges, Formă: Deal, ID: 3071 <br /><b>Variante</b><br />Nume: Dealu Cerbului, Hartă: Geomil 25000, Limbă: Limba română</description><Point><coordinates>24.738955,44.902457,0</coordinates></Point></Placemark>
<Placemark><name>Dealu Cerbului</name><description>Nume: Dealu Cerbului, Tip: cerb, Nivel: 2, Județ: Arges, Formă: Deal, ID: 11697 <br /><b>Variante</b><br />Nume: Dealu Cerbului, Hartă: Geomil 25000, Limbă: Limba română</description><Point><coordinates>24.870236,44.799206,0</coordinates></Point></Placemark>
<Placemark><name>Dealul Cerbului</name><description>Nume: Dealul Cerbului, Tip: cerb, Nivel: 2, Județ: Arges, Formă: Deal, ID: 10163 <br /><b>Variante</b><br />Nume: Dealul Cerbului, Hartă: Geomil 25000, Limbă: Limba română</description><Point><coordinates>25.112848,45.062696,0</coordinates></Point></Placemark>
<Placemark><name>Lacul Cerbului</name><description>Nume: Lacul Cerbului, Tip: cerb, Nivel: 2, Județ: Arges, Formă: Lac, ID: 10186 <br /><b>Variante</b><br />Nume: Lacul Cerbului, Hartă: Geomil 25000, Limbă: Limba română</description><Point><coordinates>24.553379,45.525593,0</coordinates></Point></Placemark>
<Placemark><name>Muchia Cerbului</name><description>Nume: Muchia Cerbului, Tip: cerb, Nivel: 2, Județ: Arges, Formă: Înălțime, ID: 1452 <br /><b>Variante</b><br />Nume: Muchia Cerbului, Hartă: Geomil 25000, Limbă: Limba română</description><Point><coordinates>24.472550,45.417106,0</coordinates></Point></Placemark>
<Placemark><name>Muntele Cerbului</name><description>Nume: Muntele Cerbului, Tip: cerb, Nivel: 2, Județ: Arges, Formă: Înălțime, ID: 10196 <br /><b>Variante</b><br />Nume: Muntele Cerbului, Hartă: Geomil 25000, Limbă: Limba română</description><Point><coordinates>24.560943,45.396243,0</coordinates></Point></Placemark>
<Placemark><name>Poiana Cerbului</name><description>Nume: Poiana Cerbului, Tip: cerb, Nivel: 2, Județ: Arges, Formă: Poiană, ID: 5017 <br /><b>Variante</b><br />Nume: Poiana Cerbului, Hartă: Geomil 25000, Limbă: Limba română</description><Point><coordinates>24.801769,45.419086,0</coordinates></Point></Placemark>
<Placemark><name>Valea Cerbului</name><description>Nume: Valea Cerbului, Tip: cerb, Nivel: 2, Județ: Arges, Formă: Vale, ID: 81 <br /><b>Variante</b><br />Nume: Valea Cerbului, Hartă: Geomil 25000, Limbă: Limba română</description><Point><coordinates>24.758412,44.857277,0</coordinates></Point></Placemark>
<Placemark><name>Valea Cerbului</name><description>Nume: Valea Cerbului, Tip: cerb, Nivel: 2, Județ: Arges, Formă: Vale, ID: 1409 <br /><b>Variante</b><br />Nume: Valea Cerbului, Hartă: Geomil 25000, Limbă: Limba română</description><Point><coordinates>24.801124,44.778539,0</coordinates></Point></Placemark>
<Placemark><name>Valea Cerbului</name><description>Nume: Valea Cerbului, Tip: cerb, Nivel: 2, Județ: Arges, Formă: Vale, ID: 9365 <br /><b>Variante</b><br />Nume: Valea Cerbului, Hartă: PDT, Limbă: Limba română</description><Point><coordinates>24.695646,44.917164,0</coordinates></Point></Placemark>
<Placemark><name>Valea Cerbului</name><description>Nume: Valea Cerbului, Tip: cerb, Nivel: 2, Județ: Arges, Formă: Vale, ID: 10164, ID Părinte: 10163 <br /><b>Variante</b><br />Nume: Valea Cerbului, Hartă: Geomil 25000, Limbă: Limba română</description><Point><coordinates>25.109108,45.059204,0</coordinates></Point></Placemark>
<Placemark><LineString id="10164_10163"><tessellate>1</tessellate><coordinates>25.109108,45.059204,0.
25.112848,45.062696,0</coordinates></LineString><Style><LineStyle><width>3</width></LineStyle></Style></Placemark>
<Placemark><name>Valea Cerbului</name><description>Nume: Valea Cerbului, Tip: cerb, Nivel: 2, Județ: Arges, Formă: Vale, ID: 10195 <br /><b>Variante</b><br />Nume: Valea Cerbului, Hartă: Geomil 25000, Limbă: Limba română</description><Point><coordinates>24.556486,45.450992,0</coordinates></Point></Placemark>
<Placemark><name>Dealul Cerbului</name><description>Nume: Dealul Cerbului, Tip: cerb, Nivel: 2, Județ: Bacau, Formă: Deal, ID: 9673 <br /><b>Variante</b><br />Nume: Dealul Cerbului, Hartă: Moldova (1892-1898), Limbă: Limba română</description><Point><coordinates>26.950920,46.258138,0</coordinates></Point></Placemark>
<Placemark><name>Dealul Cerbului</name><description>Nume: Dealul Cerbului, Tip: cerb, Nivel: 2, Județ: Bacau, Formă: Deal, ID: 13862 <br /><b>Variante</b><br />Nume: Dealul Cerbului, Hartă: PDT, Limbă: Limba română</description><Point><coordinates>26.716091,46.408705,0</coordinates></Point></Placemark>
<Placemark><name>Piciorul Cerbului</name><description>Nume: Piciorul Cerbului, Tip: cerb, Nivel: 2, Județ: Bacau, Formă: Înălțime, ID: 10892, ID Părinte: 9673 <br /><b>Variante</b><br />Nume: Piciorul Cerbului, Hartă: Geomil 25000, Limbă: Limba română</description><Point><coordinates>26.960868,46.261581,0</coordinates></Point></Placemark>
<Placemark><LineString id="10892_9673"><tessellate>1</tessellate><coordinates>26.960868,46.261581,0.
26.950920,46.258138,0</coordinates></LineString><Style><LineStyle><width>3</width></LineStyle></Style></Placemark>
<Placemark><name>Valea Cerbului</name><description>Nume: Valea Cerbului, Tip: cerb, Nivel: 2, Județ: Bacau, Formă: Vale, ID: 9674, ID Părinte: 9673 <br /><b>Variante</b><br />Nume: Valea Cerbului, Hartă: Moldova (1892-1898), Limbă: Limba română</description><Point><coordinates>26.958726,46.255856,0</coordinates></Point></Placemark>
<Placemark><LineString id="9674_9673"><tessellate>1</tessellate><coordinates>26.958726,46.255856,0.
26.950920,46.258138,0</coordinates></LineString><Style><LineStyle><width>3</width></LineStyle></Style></Placemark>
<Placemark><name>Valea Cerbului</name><description>Nume: Valea Cerbului, Tip: cerb, Nivel: 2, Județ: Bacau, Formă: Vale, ID: 13863, ID Părinte: 13862 <br /><b>Variante</b><br />Nume: Valea Cerbului, Hartă: PDT, Limbă: Limba română</description><Point><coordinates>26.715576,46.410818,0</coordinates></Point></Placemark>
<Placemark><LineString id="13863_13862"><tessellate>1</tessellate><coordinates>26.715576,46.410818,0.
26.716091,46.408705,0</coordinates></LineString><Style><LineStyle><width>3</width></LineStyle></Style></Placemark>
<Placemark><name>Vârful Cerbului</name><description>Nume: Vârful Cerbului, Tip: cerb, Nivel: 2, Județ: Bacau, Formă: Înălțime, ID: 688 <br /><b>Variante</b><br />Nume: Vârful Cerbului, Hartă: Geomil 25000, Limbă: Limba română</description><Point><coordinates>26.448957,46.201093,0</coordinates></Point></Placemark>
<Placemark><name>Poiana Ciutei</name><description>Nume: Poiana Ciutei, Tip: ciută, Nivel: 3, Județ: Bacau, Formă: Poiană, ID: 5322 <br /><b>Variante</b><br />Nume: Poiana Ciutei, Hartă: PDT, Limbă: Limba română</description><Point><coordinates>26.531175,46.308426,0</coordinates></Point></Placemark>
<Placemark><name>Căprioara</name><description>Nume: Căprioara, Tip: căprioară, Nivel: 3, Județ: Bihor, Formă: Altele, ID: 8204 <br /><b>Variante</b><br />Nume: Căprioara, Hartă: PDT, Limbă: Limba română</description><Point><coordinates>22.350902,47.092137,0</coordinates></Point></Placemark>
<Placemark><name>Dealu Căprioarei</name><description>Nume: Dealu Căprioarei, Tip: căprioară, Nivel: 3, Județ: Bihor, Formă: Deal, ID: 5983 <br /><b>Variante</b><br />Nume: Dealu Căprioarei, Hartă: Geomil 25000, Limbă: Limba română</description><Point><coordinates>22.010590,46.886396,0</coordinates></Point></Placemark>
<Placemark><name>Pădurea Căpriorile</name><description>Nume: Pădurea Căpriorile, Tip: căprioară, Nivel: 3, Județ: Bihor, Formă: Pădure, ID: 9936, ID Părinte: 5983 <br /><b>Variante</b><br />Nume: Pădurea Căpriorile, Hartă: Geomil 25000, Limbă: Limba română</description><Point><coordinates>22.020989,46.867210,0</coordinates></Point></Placemark>
<Placemark><LineString id="9936_5983"><tessellate>1</tessellate><coordinates>22.020989,46.867210,0.
22.010590,46.886396,0</coordinates></LineString><Style><LineStyle><width>3</width></LineStyle></Style></Placemark>
<Placemark><name>Cerbu</name><description>Nume: Cerbu, Tip: cerb, Nivel: 2, Județ: Bihor, Formă: Altele, ID: 4179 <br /><b>Variante</b><br />Nume: Cerbu, Hartă: PDT, Limbă: Limba română</description><Point><coordinates>22.376973,47.184492,0</coordinates></Point></Placemark>
<Placemark><name>Dâmbu Cerbului</name><description>Nume: Dâmbu Cerbului, Tip: cerb, Nivel: 2, Județ: Bihor, Formă: Înălțime, ID: 1934 <br /><b>Variante</b><br />Nume: Dâmbu Cerbului, Hartă: Geomil 25000, Limbă: Limba română<br />Nume: Dâmbul Cerbului, Hartă: PDT, Limbă: Limba română</description><Point><coordinates>22.640660,46.396297,0</coordinates></Point></Placemark>
<Placemark><name>Dealu Fața Cerbului</name><description>Nume: Dealu Fața Cerbului, Tip: cerb, Nivel: 2, Județ: Bihor, Formă: Deal, ID: 987 <br /><b>Variante</b><br />Nume: Dealu Fața Cerbului, Hartă: Geomil 25000, Limbă: Limba română</description><Point><coordinates>22.226830,46.577622,0</coordinates></Point></Placemark>
<Placemark><name>Dealul Fața Cerbului</name><description>Nume: Dealul Fața Cerbului, Tip: cerb, Nivel: 2, Județ: Bihor, Formă: Deal, ID: 4083 <br /><b>Variante</b><br />Nume: Dealul Fața Cerbului, Hartă: PDT, Limbă: Limba română</description><Point><coordinates>22.220448,46.575456,0</coordinates></Point></Placemark>
<Placemark><name>Gruiu Ciutei</name><description>Nume: Gruiu Ciutei, Tip: ciută, Nivel: 3, Județ: Bihor, Formă: Înălțime, ID: 1077 <br /><b>Variante</b><br />Nume: Gruiu Ciutei, Hartă: Geomil 25000, Limbă: Limba română</description><Point><coordinates>22.260430,46.927731,0</coordinates></Point></Placemark>
<Placemark><name>Pădurea Ciuta</name><description>Nume: Pădurea Ciuta, Tip: ciută, Nivel: 3, Județ: Bihor, Formă: Pădure, ID: 981 <br /><b>Variante</b><br />Nume: Pădurea Ciuta, Hartă: Geomil 25000, Limbă: Limba română</description><Point><coordinates>22.075901,46.626647,0</coordinates></Point></Placemark>
<Placemark><name>Valea Gruiu Ciutei</name><description>Nume: Valea Gruiu Ciutei, Tip: ciută, Nivel: 3, Județ: Bihor, Formă: Vale, ID: 1076, ID Părinte: 1077 <br /><b>Variante</b><br />Nume: Valea Gruiu Ciutei, Hartă: Geomil 25000, Limbă: Limba română</description><Point><coordinates>22.253470,46.931782,0</coordinates></Point></Placemark>
<Placemark><LineString id="1076_1077"><tessellate>1</tessellate><coordinates>22.253470,46.931782,0.
22.260430,46.927731,0</coordinates></LineString><Style><LineStyle><width>3</width></LineStyle></Style></Placemark>
<Placemark><name>Căprioara</name><description>Nume: Căprioara, Tip: căprioară, Nivel: 3, Județ: Bistrita Nasaud, Formă: Vale, ID: 12891 <br /><b>Variante</b><br />Nume: Căprioara, Hartă: Geomil 25000, Limbă: Limba română</description><Point><coordinates>24.488747,47.452542,0</coordinates></Point></Placemark>
<Placemark><name>Pășunea Căprioara</name><description>Nume: Pășunea Căprioara, Tip: căprioară, Nivel: 3, Județ: Bistrita Nasaud, Formă: Altele, ID: 13736 <br /><b>Variante</b><br />Nume: Pășunea Căprioara, Hartă: PDT, Limbă: Limba română</description><Point><coordinates>24.287788,46.880301,0</coordinates></Point></Placemark>
<Placemark><name>Dealul Cerbului</name><description>Nume: Dealul Cerbului, Tip: cerb, Nivel: 2, Județ: Bistrita Nasaud, Formă: Deal, ID: 4515 <br /><b>Variante</b><br />Nume: Dealul Cerbului, Hartă: Geomil 25000, Limbă: Limba română</description><Point><coordinates>24.459835,47.246072,0</coordinates></Point></Placemark>
<Placemark><name>Valea Cerbului</name><description>Nume: Valea Cerbului, Tip: cerb, Nivel: 2, Județ: Bistrita Nasaud, Formă: Vale, ID: 1021 <br /><b>Variante</b><br />Nume: Valea Cerbului, Hartă: Geomil 25000, Limbă: Limba română</description><Point><coordinates>24.408605,47.390704,0</coordinates></Point></Placemark>
<Placemark><name>Dealul Cerbăriei</name><description>Nume: Dealul Cerbăriei, Tip: cerbărie, Nivel: 3, Județ: Bistrita Nasaud, Formă: Deal, ID: 5863 <br /><b>Variante</b><br />Nume: Dealul Cerbăriei, Hartă: Geomil 25000, Limbă: Limba română</description><Point><coordinates>24.180149,46.976028,0</coordinates></Point></Placemark>
<Placemark><name>Cerbu</name><description>Nume: Cerbu, Tip: cerb, Nivel: 2, Județ: Botosani, Formă: Localitate, ID: 2422, ID Părinte: 2421 <br /><b>Variante</b><br />Nume: Cerbu, Hartă: Geomil 25000, Limbă: Limba română</description><Point><coordinates>26.885618,47.618088,0</coordinates></Point></Placemark>
<Placemark><LineString id="2422_2421"><tessellate>1</tessellate><coordinates>26.885618,47.618088,0.
26.876879,47.616757,0</coordinates></LineString><Style><LineStyle><width>3</width></LineStyle></Style></Placemark>
<Placemark><name>Cerbul</name><description>Nume: Cerbul, Tip: cerb, Nivel: 2, Județ: Botosani, Formă: Înălțime, ID: 2421 <br /><b>Variante</b><br />Nume: Cerbul, Hartă: Geomil 25000, Limbă: Limba română</description><Point><coordinates>26.876879,47.616757,0</coordinates></Point></Placemark>
<Placemark><name>Movila Cerbu</name><description>Nume: Movila Cerbu, Tip: cerb, Nivel: 2, Județ: Braila, Formă: Înălțime, ID: 6726 <br /><b>Variante</b><br />Nume: Movila Cerbu, Hartă: Geomil 25000, Limbă: Limba română</description><Point><coordinates>27.527045,45.019542,0</coordinates></Point></Placemark>
<Placemark><name>Dealul Cerbului</name><description>Nume: Dealul Cerbului, Tip: cerb, Nivel: 2, Județ: Brasov, Formă: Deal, ID: 2697 <br /><b>Variante</b><br />Nume: Dealul Cerbului, Hartă: Geomil 25000, Limbă: Limba română</description><Point><coordinates>25.392706,45.883773,0</coordinates></Point></Placemark>
<Placemark><name>Dealul Cerbului</name><description>Nume: Dealul Cerbului, Tip: cerb, Nivel: 2, Județ: Brasov, Formă: Deal, ID: 2698 <br /><b>Variante</b><br />Nume: Dealul Cerbului, Hartă: Geomil 25000, Limbă: Limba română</description><Point><coordinates>25.365762,45.882649,0</coordinates></Point></Placemark>
<Placemark><name>Dealul Cerbului</name><description>Nume: Dealul Cerbului, Tip: cerb, Nivel: 2, Județ: Brasov, Formă: Deal, ID: 8553 <br /><b>Variante</b><br />Nume: Dealul Cerbului, Hartă: PDT, Limbă: Limba română</description><Point><coordinates>25.215394,45.729588,0</coordinates></Point></Placemark>
<Placemark><name>Grădina Cerbului</name><description>Nume: Grădina Cerbului, Tip: cerb, Nivel: 2, Județ: Brasov, Formă: Altele, ID: 4945 <br /><b>Variante</b><br />Nume: Grădina Cerbului, Hartă: Geomil 25000, Limbă: Limba română</description><Point><coordinates>24.905773,45.939357,0</coordinates></Point></Placemark>
<Placemark><name>Pădurea Cerbului</name><description>Nume: Pădurea Cerbului, Tip: cerb, Nivel: 2, Județ: Brasov, Formă: Pădure, ID: 8552, ID Părinte: 8553 <br /><b>Variante</b><br />Nume: Pădurea Cerbului, Hartă: PDT, Limbă: Limba română</description><Point><coordinates>25.216080,45.734362,0</coordinates></Point></Placemark>
<Placemark><LineString id="8552_8553"><tessellate>1</tessellate><coordinates>25.216080,45.734362,0.
25.215394,45.729588,0</coordinates></LineString><Style><LineStyle><width>3</width></LineStyle></Style></Placemark>
<Placemark><name>Piscul Cerbului</name><description>Nume: Piscul Cerbului, Tip: cerb, Nivel: 2, Județ: Brasov, Formă: Înălțime, ID: 2673 <br /><b>Variante</b><br />Nume: Piscul Cerbului, Hartă: Geomil 25000, Limbă: Limba română</description><Point><coordinates>24.681443,45.811713,0</coordinates></Point></Placemark>
<Placemark><name>Piscul Cerbului</name><description>Nume: Piscul Cerbului, Tip: cerb, Nivel: 2, Județ: Brasov, Formă: Înălțime, ID: 6814 <br /><b>Variante</b><br />Nume: Piscul Cerbului, Hartă: Geomil 25000, Limbă: Limba română</description><Point><coordinates>25.270110,45.796680,0</coordinates></Point></Placemark>
<Placemark><name>Piscul Cerbului</name><description>Nume: Piscul Cerbului, Tip: cerb, Nivel: 2, Județ: Brasov, Formă: Înălțime, ID: 6825 <br /><b>Variante</b><br />Nume: Piscul Cerbului, Hartă: PDT, Limbă: Limba română</description><Point><coordinates>25.311903,45.726134,0</coordinates></Point></Placemark>
<Placemark><name>Valea Cerbul</name><description>Nume: Valea Cerbul, Tip: cerb, Nivel: 2, Județ: Brasov, Formă: Vale, ID: 8572 <br /><b>Variante</b><br />Nume: Valea Cerbul, Hartă: PDT, Limbă: Limba română</description><Point><coordinates>25.525893,45.567055,0</coordinates></Point></Placemark>
<Placemark><name>Valea Cerbului</name><description>Nume: Valea Cerbului, Tip: cerb, Nivel: 2, Județ: Brasov, Formă: Vale, ID: 6824, ID Părinte: 6825 <br /><b>Variante</b><br />Nume: Valea Cerbului, Hartă: PDT, Limbă: Limba română</description><Point><coordinates>25.300224,45.732400,0</coordinates></Point></Placemark>
<Placemark><LineString id="6824_6825"><tessellate>1</tessellate><coordinates>25.300224,45.732400,0.
25.311903,45.726134,0</coordinates></LineString><Style><LineStyle><width>3</width></LineStyle></Style></Placemark>
<Placemark><name>Valea Cerbului</name><description>Nume: Valea Cerbului, Tip: cerb, Nivel: 2, Județ: Brasov, Formă: Vale, ID: 11451 <br /><b>Variante</b><br />Nume: Valea Cerbului, Hartă: Geomil 25000, Limbă: Limba română</description><Point><coordinates>25.921504,45.604924,0</coordinates></Point></Placemark>
<Placemark><name>Piscul Ciutii</name><description>Nume: Piscul Ciutii, Tip: ciută, Nivel: 3, Județ: Brasov, Formă: Înălțime, ID: 4025 <br /><b>Variante</b><br />Nume: Piscul Ciutii, Hartă: PDT, Limbă: Limba română</description><Point><coordinates>25.141955,45.727488,0</coordinates></Point></Placemark>
<Placemark><name>Culmea Cerbului</name><description>Nume: Culmea Cerbului, Tip: cerb, Nivel: 2, Județ: Buzau, Formă: Înălțime, ID: 79, ID Părinte: 78 <br /><b>Variante</b><br />Nume: Culmea Cerbului, Hartă: Geomil 25000, Limbă: Limba română</description><Point><coordinates>26.612623,45.250894,0</coordinates></Point></Placemark>
<Placemark><LineString id="79_78"><tessellate>1</tessellate><coordinates>26.612623,45.250894,0.
26.617758,45.253355,0</coordinates></LineString><Style><LineStyle><width>3</width></LineStyle></Style></Placemark>
<Placemark><name>Dealul Cerbului</name><description>Nume: Dealul Cerbului, Tip: cerb, Nivel: 2, Județ: Buzau, Formă: Deal, ID: 77, ID Părinte: 78 <br /><b>Variante</b><br />Nume: Dealul Cerbului, Hartă: Geomil 25000, Limbă: Limba română<br />Nume: Dealul Cerbului, Hartă: PDT, Limbă: Limba română<br />Nume: ур. Дялул-Чербулуи (Dealul Cerbului), Hartă: Sovietică, Limbă: Limba română</description><Point><coordinates>26.628099,45.236884,0</coordinates></Point></Placemark>
<Placemark><LineString id="77_78"><tessellate>1</tessellate><coordinates>26.628099,45.236884,0.
26.617758,45.253355,0</coordinates></LineString><Style><LineStyle><width>3</width></LineStyle></Style></Placemark>
<Placemark><name>Dealul Cerbului</name><description>Nume: Dealul Cerbului, Tip: cerb, Nivel: 2, Județ: Buzau, Formă: Deal, ID: 12265 <br /><b>Variante</b><br />Nume: Dealul Cerbului, Hartă: Geomil 25000, Limbă: Limba română</description><Point><coordinates>26.648451,45.509865,0</coordinates></Point></Placemark>
<Placemark><name>Fața Cerbului</name><description>Nume: Fața Cerbului, Tip: cerb, Nivel: 2, Județ: Buzau, Formă: Înălțime, ID: 2095, ID Părinte: 5243 <br /><b>Variante</b><br />Nume: Fața Cerbului, Hartă: Geomil 25000, Limbă: Limba română</description><Point><coordinates>26.716833,45.585450,0</coordinates></Point></Placemark>
<Placemark><LineString id="2095_5243"><tessellate>1</tessellate><coordinates>26.716833,45.585450,0.
26.715781,45.595499,0</coordinates></LineString><Style><LineStyle><width>3</width></LineStyle></Style></Placemark>
<Placemark><name>Muchia la Cerbi</name><description>Nume: Muchia la Cerbi, Tip: cerb, Nivel: 2, Județ: Buzau, Formă: Înălțime, ID: 6120 <br /><b>Variante</b><br />Nume: Muchia la Cerbi, Hartă: Geomil 25000, Limbă: Limba română</description><Point><coordinates>26.469266,45.329575,0</coordinates></Point></Placemark>
<Placemark><name>Pârâul Cerbu</name><description>Nume: Pârâul Cerbu, Tip: cerb, Nivel: 2, Județ: Buzau, Formă: Vale, ID: 9816 <br /><b>Variante</b><br />Nume: Pârâul Cerbu, Hartă: Geomil 25000, Limbă: Limba română</description><Point><coordinates>26.256045,45.245390,0</coordinates></Point></Placemark>
<Placemark><name>Pârâul Cerbului</name><description>Nume: Pârâul Cerbului, Tip: cerb, Nivel: 2, Județ: Buzau, Formă: Vale, ID: 2804 <br /><b>Variante</b><br />Nume: Pârâul Cerbului, Hartă: Geomil 25000, Limbă: Limba română</description><Point><coordinates>26.489170,45.649613,0</coordinates></Point></Placemark>
<Placemark><name>Pârâul Cerbului</name><description>Nume: Pârâul Cerbului, Tip: cerb, Nivel: 2, Județ: Buzau, Formă: Vale, ID: 13340 <br /><b>Variante</b><br />Nume: Pârâul Cerbului, Hartă: Geomil 25000, Limbă: Limba română</description><Point><coordinates>26.489891,45.442042,0</coordinates></Point></Placemark>
<Placemark><name>Vârful Cerbului</name><description>Nume: Vârful Cerbului, Tip: cerb, Nivel: 2, Județ: Buzau, Formă: Înălțime, ID: 78 <br /><b>Variante</b><br />Nume: Vârful Cerbului, Hartă: Geomil 25000, Limbă: Limba română<br />Nume: г. Черб (Cerb), Hartă: Sovietică, Limbă: Limba română</description><Point><coordinates>26.617758,45.253355,0</coordinates></Point></Placemark>
<Placemark><name>Grindul Ciutii</name><description>Nume: Grindul Ciutii, Tip: ciută, Nivel: 3, Județ: Calarasi, Formă: Altele, ID: 3307 <br /><b>Variante</b><br />Nume: Grindul Ciutii, Hartă: Geomil 25000, Limbă: Limba română</description><Point><coordinates>27.448217,44.341226,0</coordinates></Point></Placemark>
<Placemark><name>Cerbul</name><description>Nume: Cerbul, Tip: cerb, Nivel: 2, Județ: Caras Severin, Formă: Altele, ID: 11490 <br /><b>Variante</b><br />Nume: Cerbul, Hartă: ANCPI, Limbă: Limba română</description><Point><coordinates>21.877632,44.684382,0</coordinates></Point></Placemark>
<Placemark><name>Cracu Cerbului</name><description>Nume: Cracu Cerbului, Tip: cerb, Nivel: 2, Județ: Caras Severin, Formă: Înălțime, ID: 1225 <br /><b>Variante</b><br />Nume: Cracu Cerbului, Hartă: Geomil 25000, Limbă: Limba română</description><Point><coordinates>22.101793,45.090786,0</coordinates></Point></Placemark>
<Placemark><name>Cracul Cerbului</name><description>Nume: Cracul Cerbului, Tip: cerb, Nivel: 2, Județ: Caras Severin, Formă: Înălțime, ID: 8678, ID Părinte: 8677 <br /><b>Variante</b><br />Nume: Cracul Cerbului, Hartă: PDT, Limbă: Limba română</description><Point><coordinates>22.485751,44.987788,0</coordinates></Point></Placemark>
<Placemark><LineString id="8678_8677"><tessellate>1</tessellate><coordinates>22.485751,44.987788,0.
22.472429,45.004349,0</coordinates></LineString><Style><LineStyle><width>3</width></LineStyle></Style></Placemark>
<Placemark><name>Cracul Cerbului</name><description>Nume: Cracul Cerbului, Tip: cerb, Nivel: 2, Județ: Caras Severin, Formă: Înălțime, ID: 13484, ID Părinte: 13483 <br /><b>Variante</b><br />Nume: Cracul Cerbului, Hartă: PDT, Limbă: Limba română</description><Point><coordinates>21.985034,45.034933,0</coordinates></Point></Placemark>
<Placemark><LineString id="13484_13483"><tessellate>1</tessellate><coordinates>21.985034,45.034933,0.
21.986231,45.043346,0</coordinates></LineString><Style><LineStyle><width>3</width></LineStyle></Style></Placemark>
<Placemark><name>Dealu Cerbului</name><description>Nume: Dealu Cerbului, Tip: cerb, Nivel: 2, Județ: Caras Severin, Formă: Deal, ID: 6132 <br /><b>Variante</b><br />Nume: Dealu Cerbului, Hartă: Geomil 25000, Limbă: Limba română</description><Point><coordinates>22.231649,45.150896,0</coordinates></Point></Placemark>
<Placemark><name>Dialu Cerbului</name><description>Nume: Dialu Cerbului, Tip: cerb, Nivel: 2, Județ: Caras Severin, Formă: Deal, ID: 10325 <br /><b>Variante</b><br />Nume: Dialu Cerbului, Hartă: Ungară 1869, Limbă: Limba română</description><Point><coordinates>22.369526,45.363799,0</coordinates></Point></Placemark>
<Placemark><name>Izvorul Cerbului</name><description>Nume: Izvorul Cerbului, Tip: cerb, Nivel: 2, Județ: Caras Severin, Formă: Vale, ID: 13485, ID Părinte: 13483 <br /><b>Variante</b><br />Nume: Izvorul Cerbului, Hartă: PDT, Limbă: Limba română</description><Point><coordinates>21.989211,45.033125,0</coordinates></Point></Placemark>
<Placemark><LineString id="13485_13483"><tessellate>1</tessellate><coordinates>21.989211,45.033125,0.
21.986231,45.043346,0</coordinates></LineString><Style><LineStyle><width>3</width></LineStyle></Style></Placemark>
<Placemark><name>Lacu Cerbului</name><description>Nume: Lacu Cerbului, Tip: cerb, Nivel: 2, Județ: Caras Severin, Formă: Lac, ID: 5726, ID Părinte: 5725 <br /><b>Variante</b><br />Nume: Lacu Cerbului, Hartă: Geomil 25000, Limbă: Limba română<br />Nume: Lacul Cerbului, Hartă: PDT, Limbă: Limba română</description><Point><coordinates>22.120878,45.024494,0</coordinates></Point></Placemark>
<Placemark><LineString id="5726_5725"><tessellate>1</tessellate><coordinates>22.120878,45.024494,0.
22.134457,45.024442,0</coordinates></LineString><Style><LineStyle><width>3</width></LineStyle></Style></Placemark>
<Placemark><name>Locu Cerbului</name><description>Nume: Locu Cerbului, Tip: cerb, Nivel: 2, Județ: Caras Severin, Formă: Altele, ID: 1216 <br /><b>Variante</b><br />Nume: Locu Cerbului, Hartă: Geomil 25000, Limbă: Limba română</description><Point><coordinates>22.411622,45.138049,0</coordinates></Point></Placemark>
<Placemark><name>Ogașu Cerbului</name><description>Nume: Ogașu Cerbului, Tip: cerb, Nivel: 2, Județ: Caras Severin, Formă: Vale, ID: 5727, ID Părinte: 5725 <br /><b>Variante</b><br />Nume: Ogașu Cerbului, Hartă: Geomil 25000, Limbă: Limba română</description><Point><coordinates>22.134265,45.033413,0</coordinates></Point></Placemark>
<Placemark><LineString id="5727_5725"><tessellate>1</tessellate><coordinates>22.134265,45.033413,0.
22.134457,45.024442,0</coordinates></LineString><Style><LineStyle><width>3</width></LineStyle></Style></Placemark>
<Placemark><name>Ogașu Cerbului</name><description>Nume: Ogașu Cerbului, Tip: cerb, Nivel: 2, Județ: Caras Severin, Formă: Vale, ID: 6131, ID Părinte: 6132 <br /><b>Variante</b><br />Nume: Ogașu Cerbului, Hartă: Geomil 25000, Limbă: Limba română</description><Point><coordinates>22.242288,45.146286,0</coordinates></Point></Placemark>
<Placemark><LineString id="6131_6132"><tessellate>1</tessellate><coordinates>22.242288,45.146286,0.
22.231649,45.150896,0</coordinates></LineString><Style><LineStyle><width>3</width></LineStyle></Style></Placemark>
<Placemark><name>Ogașu Cerbului</name><description>Nume: Ogașu Cerbului, Tip: cerb, Nivel: 2, Județ: Caras Severin, Formă: Vale, ID: 8507, ID Părinte: 8509 <br /><b>Variante</b><br />Nume: Ogașu Cerbului, Hartă: Geomil 25000, Limbă: Limba română</description><Point><coordinates>21.690928,44.839362,0</coordinates></Point></Placemark>
<Placemark><LineString id="8507_8509"><tessellate>1</tessellate><coordinates>21.690928,44.839362,0.
21.720517,44.837451,0</coordinates></LineString><Style><LineStyle><width>3</width></LineStyle></Style></Placemark>
<Placemark><name>Piatra Cerbului</name><description>Nume: Piatra Cerbului, Tip: cerb, Nivel: 2, Județ: Caras Severin, Formă: Înălțime, ID: 8677 <br /><b>Variante</b><br />Nume: Piatra Cerbului, Hartă: PDT, Limbă: Limba română</description><Point><coordinates>22.472429,45.004349,0</coordinates></Point></Placemark>
<Placemark><name>Poiana Balta Cerbului</name><description>Nume: Poiana Balta Cerbului, Tip: cerb, Nivel: 2, Județ: Caras Severin, Formă: Poiană, ID: 843 <br /><b>Variante</b><br />Nume: Poiana Balta Cerbului, Hartă: Geomil 25000, Limbă: Limba română</description><Point><coordinates>22.487120,44.946250,0</coordinates></Point></Placemark>
<Placemark><name>Poiana Cerbilor</name><description>Nume: Poiana Cerbilor, Tip: cerb, Nivel: 2, Județ: Caras Severin, Formă: Poiană, ID: 12163 <br /><b>Variante</b><br />Nume: Poiana Cerbilor, Hartă: PDT, Limbă: Limba română</description><Point><coordinates>21.817118,45.037094,0</coordinates></Point></Placemark>
<Placemark><name>Poiana Cerbului</name><description>Nume: Poiana Cerbului, Tip: cerb, Nivel: 2, Județ: Caras Severin, Formă: Poiană, ID: 5725 <br /><b>Variante</b><br />Nume: Poiana Cerbului, Hartă: Geomil 25000, Limbă: Limba română</description><Point><coordinates>22.134457,45.024442,0</coordinates></Point></Placemark>
<Placemark><name>Tâlva Cerbului</name><description>Nume: Tâlva Cerbului, Tip: cerb, Nivel: 2, Județ: Caras Severin, Formă: Înălțime, ID: 8509 <br /><b>Variante</b><br />Nume: Tâlva Cerbului, Hartă: Geomil 25000, Limbă: Limba română<br />Nume: Tâlva Cerbului, Hartă: PDT, Limbă: Limba română</description><Point><coordinates>21.720517,44.837451,0</coordinates></Point></Placemark>
<Placemark><name>Tâlva Cerbului</name><description>Nume: Tâlva Cerbului, Tip: cerb, Nivel: 2, Județ: Caras Severin, Formă: Înălțime, ID: 8683, ID Părinte: 5725 <br /><b>Variante</b><br />Nume: Tâlva Cerbului, Hartă: PDT, Limbă: Limba română</description><Point><coordinates>22.133588,45.051694,0</coordinates></Point></Placemark>
<Placemark><LineString id="8683_5725"><tessellate>1</tessellate><coordinates>22.133588,45.051694,0.
22.134457,45.024442,0</coordinates></LineString><Style><LineStyle><width>3</width></LineStyle></Style></Placemark>
<Placemark><name>Tâlva Cerbului</name><description>Nume: Tâlva Cerbului, Tip: cerb, Nivel: 2, Județ: Caras Severin, Formă: Înălțime, ID: 13483 <br /><b>Variante</b><br />Nume: Tâlva Cerbului, Hartă: PDT, Limbă: Limba română</description><Point><coordinates>21.986231,45.043346,0</coordinates></Point></Placemark>
<Placemark><name>Valea Cerbului</name><description>Nume: Valea Cerbului, Tip: cerb, Nivel: 2, Județ: Caras Severin, Formă: Vale, ID: 6096 <br /><b>Variante</b><br />Nume: Valea Cerbului, Hartă: Geomil 25000, Limbă: Limba română</description><Point><coordinates>22.542727,45.468625,0</coordinates></Point></Placemark>
<Placemark><name>Poiana Ciutei</name><description>Nume: Poiana Ciutei, Tip: ciută, Nivel: 3, Județ: Caras Severin, Formă: Poiană, ID: 13478 <br /><b>Variante</b><br />Nume: Poiana Ciutei, Hartă: PDT, Limbă: Limba română</description><Point><coordinates>22.171618,45.181528,0</coordinates></Point></Placemark>
<Placemark><name>Tâlva Ciutii</name><description>Nume: Tâlva Ciutii, Tip: ciută, Nivel: 3, Județ: Caras Severin, Formă: Înălțime, ID: 8501 <br /><b>Variante</b><br />Nume: Tâlva Ciutii, Hartă: PDT, Limbă: Limba română<br />Nume: Tâlva Ciutii, Hartă: Geomil 25000, Limbă: Limba română</description><Point><coordinates>22.012500,44.751625,0</coordinates></Point></Placemark>
<Placemark><name>Căprioara</name><description>Nume: Căprioara, Tip: căprioară, Nivel: 3, Județ: Cluj, Formă: Localitate, ID: 1106 <br /><b>Variante</b><br />Nume: Căprioara, Hartă: Geomil 25000, Limbă: Limba română</description><Point><coordinates>23.528003,47.102728,0</coordinates></Point></Placemark>
<Placemark><name>Pleșa Căprioarei</name><description>Nume: Pleșa Căprioarei, Tip: căprioară, Nivel: 3, Județ: Cluj, Formă: Înălțime, ID: 1105 <br /><b>Variante</b><br />Nume: Pleșa Căprioarei, Hartă: Geomil 25000, Limbă: Limba română</description><Point><coordinates>23.543365,47.095973,0</coordinates></Point></Placemark>
<Placemark><name>Valea Căprioarei</name><description>Nume: Valea Căprioarei, Tip: căprioară, Nivel: 3, Județ: Cluj, Formă: Vale, ID: 7055 <br /><b>Variante</b><br />Nume: Valea Căprioarei, Hartă: Geomil 25000, Limbă: Limba română</description><Point><coordinates>23.603942,46.697208,0</coordinates></Point></Placemark>
<Placemark><name>Dâmbul Tăul Cerbului</name><description>Nume: Dâmbul Tăul Cerbului, Tip: cerb, Nivel: 2, Județ: Cluj, Formă: Înălțime, ID: 12351 <br /><b>Variante</b><br />Nume: Dâmbul Tăul Cerbului, Hartă: PDT, Limbă: Limba română</description><Point><coordinates>22.695566,46.972631,0</coordinates></Point></Placemark>
<Placemark><name>Valea Cerbului</name><description>Nume: Valea Cerbului, Tip: cerb, Nivel: 2, Județ: Cluj, Formă: Vale, ID: 1116 <br /><b>Variante</b><br />Nume: Valea Cerbului, Hartă: Geomil 25000, Limbă: Limba română</description><Point><coordinates>22.739896,46.725761,0</coordinates></Point></Placemark>
<Placemark><name>Dealul Săritura Cerbului</name><description>Nume: Dealul Săritura Cerbului, Tip: cerb, Nivel: 2, Județ: Covasna, Formă: Deal, ID: 6060 <br /><b>Variante</b><br />Nume: Dealul Săritura Cerbului, Hartă: Geomil 25000, Limbă: Limba română</description><Point><coordinates>25.783064,46.050539,0</coordinates></Point></Placemark>
<Placemark><name>Dealu Cerbului</name><description>Nume: Dealu Cerbului, Tip: cerb, Nivel: 2, Județ: Dambovita, Formă: Deal, ID: 7455 <br /><b>Variante</b><br />Nume: Dealu Cerbului, Hartă: Geomil 25000, Limbă: Limba română</description><Point><coordinates>25.290647,44.828488,0</coordinates></Point></Placemark>
<Placemark><name>Valea Cerbului Mare</name><description>Nume: Valea Cerbului Mare, Tip: cerb, Nivel: 2, Județ: Dambovita, Formă: Vale, ID: 12019 <br /><b>Variante</b><br />Nume: Valea Cerbului Mare, Hartă: PDT, Limbă: Limba română</description><Point><coordinates>25.371193,44.814179,0</coordinates></Point></Placemark>
<Placemark><name>Valea Gura Cerbului</name><description>Nume: Valea Gura Cerbului, Tip: cerb, Nivel: 2, Județ: Dambovita, Formă: Vale, ID: 7456, ID Părinte: 7455 <br /><b>Variante</b><br />Nume: Valea Gura Cerbului, Hartă: Geomil 25000, Limbă: Limba română</description><Point><coordinates>25.290598,44.817937,0</coordinates></Point></Placemark>
<Placemark><LineString id="7456_7455"><tessellate>1</tessellate><coordinates>25.290598,44.817937,0.
25.290647,44.828488,0</coordinates></LineString><Style><LineStyle><width>3</width></LineStyle></Style></Placemark>
<Placemark><name>Dealu Ciutei</name><description>Nume: Dealu Ciutei, Tip: ciută, Nivel: 3, Județ: Dambovita, Formă: Deal, ID: 7460, ID Părinte: 1530 <br /><b>Variante</b><br />Nume: Dealu Ciutei, Hartă: Geomil 25000, Limbă: Limba română</description><Point><coordinates>25.319115,44.964880,0</coordinates></Point></Placemark>
<Placemark><LineString id="7460_1530"><tessellate>1</tessellate><coordinates>25.319115,44.964880,0.
25.317039,44.979729,0</coordinates></LineString><Style><LineStyle><width>3</width></LineStyle></Style></Placemark>
<Placemark><name>Vârfu Ciutei</name><description>Nume: Vârfu Ciutei, Tip: ciută, Nivel: 3, Județ: Dambovita, Formă: Înălțime, ID: 1530 <br /><b>Variante</b><br />Nume: Vârfu Ciutei, Hartă: Geomil 25000, Limbă: Limba română</description><Point><coordinates>25.317039,44.979729,0</coordinates></Point></Placemark>
<Placemark><name>Dealul Căprioarei</name><description>Nume: Dealul Căprioarei, Tip: căprioară, Nivel: 3, Județ: Dolj, Formă: Deal, ID: 3359 <br /><b>Variante</b><br />Nume: Dealul Căprioarei, Hartă: Geomil 25000, Limbă: Limba română</description><Point><coordinates>23.619504,44.240241,0</coordinates></Point></Placemark>
<Placemark><name>La Căprioare</name><description>Nume: La Căprioare, Tip: căprioară, Nivel: 3, Județ: Dolj, Formă: Altele, ID: 5177 <br /><b>Variante</b><br />Nume: La Căprioare, Hartă: Geomil 25000, Limbă: Limba română</description><Point><coordinates>23.582116,44.197653,0</coordinates></Point></Placemark>
<Placemark><name>Pădurea Căprioarei</name><description>Nume: Pădurea Căprioarei, Tip: căprioară, Nivel: 3, Județ: Dolj, Formă: Înălțime, ID: 1299, ID Părinte: 1300 <br /><b>Variante</b><br />Nume: Pădurea Căprioarei, Hartă: Geomil 25000, Limbă: Limba română</description><Point><coordinates>23.569317,44.169139,0</coordinates></Point></Placemark>
<Placemark><LineString id="1299_1300"><tessellate>1</tessellate><coordinates>23.569317,44.169139,0.
23.578711,44.170014,0</coordinates></LineString><Style><LineStyle><width>3</width></LineStyle></Style></Placemark>
<Placemark><name>Pădurea Căprioarei</name><description>Nume: Pădurea Căprioarei, Tip: căprioară, Nivel: 3, Județ: Dolj, Formă: Pădure, ID: 1300 <br /><b>Variante</b><br />Nume: Pădurea Căprioarei, Hartă: Geomil 25000, Limbă: Limba română</description><Point><coordinates>23.578711,44.170014,0</coordinates></Point></Placemark>
<Placemark><name>Măgura Cerbului</name><description>Nume: Măgura Cerbului, Tip: cerb, Nivel: 2, Județ: Dolj, Formă: Înălțime, ID: 150 <br /><b>Variante</b><br />Nume: Măgura Cerbului, Hartă: Geomil 25000, Limbă: Limba română</description><Point><coordinates>23.436130,44.133676,0</coordinates></Point></Placemark>
<Placemark><name>Pădurea Cerbului</name><description>Nume: Pădurea Cerbului, Tip: cerb, Nivel: 2, Județ: Dolj, Formă: Pădure, ID: 1311 <br /><b>Variante</b><br />Nume: Pădurea Cerbului, Hartă: Geomil 25000, Limbă: Limba română</description><Point><coordinates>23.065244,43.882265,0</coordinates></Point></Placemark>
<Placemark><name>Valea Cerbului</name><description>Nume: Valea Cerbului, Tip: cerb, Nivel: 2, Județ: Dolj, Formă: Vale, ID: 4735 <br /><b>Variante</b><br />Nume: Valea Cerbului, Hartă: Geomil 25000, Limbă: Limba română</description><Point><coordinates>23.815921,44.603320,0</coordinates></Point></Placemark>
<Placemark><name>Dealul Cerboaiei</name><description>Nume: Dealul Cerboaiei, Tip: cerboaie, Nivel: 3, Județ: Dolj, Formă: Deal, ID: 385 <br /><b>Variante</b><br />Nume: Dealul Cerboaiei, Hartă: Geomil 25000, Limbă: Limba română</description><Point><coordinates>23.884358,44.579321,0</coordinates></Point></Placemark>
<Placemark><name>Valea Cerboaiei</name><description>Nume: Valea Cerboaiei, Tip: cerboaie, Nivel: 3, Județ: Dolj, Formă: Vale, ID: 386, ID Părinte: 385 <br /><b>Variante</b><br />Nume: Valea Cerboaiei, Hartă: Geomil 25000, Limbă: Limba română</description><Point><coordinates>23.883923,44.572906,0</coordinates></Point></Placemark>
<Placemark><LineString id="386_385"><tessellate>1</tessellate><coordinates>23.883923,44.572906,0.
23.884358,44.579321,0</coordinates></LineString><Style><LineStyle><width>3</width></LineStyle></Style></Placemark>
<Placemark><name>Valea Cerboaiei</name><description>Nume: Valea Cerboaiei, Tip: cerboaie, Nivel: 3, Județ: Dolj, Formă: Vale, ID: 4704 <br /><b>Variante</b><br />Nume: Valea Cerboaiei, Hartă: Geomil 25000, Limbă: Limba română</description><Point><coordinates>23.640450,44.404451,0</coordinates></Point></Placemark>
<Placemark><name>Ciuta</name><description>Nume: Ciuta, Tip: ciută, Nivel: 3, Județ: Dolj, Formă: Înălțime, ID: 1303 <br /><b>Variante</b><br />Nume: Ciuta, Hartă: Geomil 25000, Limbă: Limba română</description><Point><coordinates>23.709115,43.939793,0</coordinates></Point></Placemark>
<Placemark><name>Dealul Ciutei</name><description>Nume: Dealul Ciutei, Tip: ciută, Nivel: 3, Județ: Dolj, Formă: Deal, ID: 122 <br /><b>Variante</b><br />Nume: Dealul Ciutei, Hartă: Geomil 25000, Limbă: Limba română</description><Point><coordinates>23.220879,44.430848,0</coordinates></Point></Placemark>
<Placemark><name>Dealul Căprioarei</name><description>Nume: Dealul Căprioarei, Tip: căprioară, Nivel: 3, Județ: Galati, Formă: Deal, ID: 3500 <br /><b>Variante</b><br />Nume: Dealul Căprioarei, Hartă: Geomil 25000, Limbă: Limba română</description><Point><coordinates>27.936885,45.543184,0</coordinates></Point></Placemark>
<Placemark><name>Grindul Căprioarei</name><description>Nume: Grindul Căprioarei, Tip: căprioară, Nivel: 3, Județ: Galati, Formă: Altele, ID: 3948, ID Părinte: 3947 <br /><b>Variante</b><br />Nume: Grindul Căprioarei, Hartă: PDT, Limbă: Limba română</description><Point><coordinates>27.535214,45.876700,0</coordinates></Point></Placemark>
<Placemark><LineString id="3948_3947"><tessellate>1</tessellate><coordinates>27.535214,45.876700,0.
27.538878,45.879553,0</coordinates></LineString><Style><LineStyle><width>3</width></LineStyle></Style></Placemark>
<Placemark><name>Pădurea Căprioara</name><description>Nume: Pădurea Căprioara, Tip: căprioară, Nivel: 3, Județ: Galati, Formă: Pădure, ID: 752 <br /><b>Variante</b><br />Nume: Pădurea Căprioara, Hartă: Geomil 25000, Limbă: Limba română</description><Point><coordinates>27.664183,45.477793,0</coordinates></Point></Placemark>
<Placemark><name>Valea Căprioarei</name><description>Nume: Valea Căprioarei, Tip: căprioară, Nivel: 3, Județ: Galati, Formă: Vale, ID: 3947 <br /><b>Variante</b><br />Nume: Valea Căprioarei, Hartă: PDT, Limbă: Limba română</description><Point><coordinates>27.538878,45.879553,0</coordinates></Point></Placemark>
<Placemark><name>Lunca Cerbului</name><description>Nume: Lunca Cerbului, Tip: cerb, Nivel: 2, Județ: Galati, Formă: Vale, ID: 9744 <br /><b>Variante</b><br />Nume: Lunca Cerbului, Hartă: Moldova (1892-1898), Limbă: Limba română<br />Nume: Valea Cerbului, Hartă: Geomil 25000, Limbă: Limba română</description><Point><coordinates>27.876352,45.960142,0</coordinates></Point></Placemark>
<Placemark><name>Râpa Cerbului</name><description>Nume: Râpa Cerbului, Tip: cerb, Nivel: 2, Județ: Galati, Formă: Altele, ID: 704 <br /><b>Variante</b><br />Nume: Râpa Cerbului, Hartă: Geomil 25000, Limbă: Limba română<br />Nume: Râpa Cerbului, Hartă: PDT, Limbă: Limba română</description><Point><coordinates>28.095469,45.884176,0</coordinates></Point></Placemark>
<Placemark><name>Rediul Cerbului</name><description>Nume: Rediul Cerbului, Tip: cerb, Nivel: 2, Județ: Galati, Formă: Altele, ID: 3512 <br /><b>Variante</b><br />Nume: Rediul Cerbului, Hartă: Geomil 25000, Limbă: Limba română</description><Point><coordinates>27.968701,46.028366,0</coordinates></Point></Placemark>
<Placemark><name>Dealul Ciutei</name><description>Nume: Dealul Ciutei, Tip: ciută, Nivel: 3, Județ: Galati, Formă: Deal, ID: 9749 <br /><b>Variante</b><br />Nume: Dealul Ciutei, Hartă: Geomil 25000, Limbă: Limba română</description><Point><coordinates>27.815368,46.077949,0</coordinates></Point></Placemark>
<Placemark><name>Valea Ciutei</name><description>Nume: Valea Ciutei, Tip: ciută, Nivel: 3, Județ: Galati, Formă: Vale, ID: 9750, ID Părinte: 9749 <br /><b>Variante</b><br />Nume: Valea Ciutei, Hartă: Geomil 25000, Limbă: Limba română</description><Point><coordinates>27.814902,46.072432,0</coordinates></Point></Placemark>
<Placemark><LineString id="9750_9749"><tessellate>1</tessellate><coordinates>27.814902,46.072432,0.
27.815368,46.077949,0</coordinates></LineString><Style><LineStyle><width>3</width></LineStyle></Style></Placemark>
<Placemark><name>D. Kâprioaele</name><description>Nume: D. Kâprioaele, Tip: căprioară, Nivel: 3, Județ: Gorj, Formă: Deal, ID: 5097 <br /><b>Variante</b><br />Nume: D. Kâprioaele, Hartă: Austriacă, Limbă: Limba română</description><Point><coordinates>23.776807,45.016154,0</coordinates></Point></Placemark>
<Placemark><name>Valea Căprioara</name><description>Nume: Valea Căprioara, Tip: căprioară, Nivel: 3, Județ: Gorj, Formă: Vale, ID: 10693 <br /><b>Variante</b><br />Nume: Valea Căprioara, Hartă: Geomil 25000, Limbă: Limba română</description><Point><coordinates>23.676264,44.733384,0</coordinates></Point></Placemark>
<Placemark><name>Dealu Cerbu</name><description>Nume: Dealu Cerbu, Tip: cerb, Nivel: 2, Județ: Gorj, Formă: Deal, ID: 221 <br /><b>Variante</b><br />Nume: Dealu Cerbu, Hartă: Geomil 25000, Limbă: Limba română</description><Point><coordinates>22.841975,45.051277,0</coordinates></Point></Placemark>
<Placemark><name>Piscul Cerbului</name><description>Nume: Piscul Cerbului, Tip: cerb, Nivel: 2, Județ: Gorj, Formă: Înălțime, ID: 8401 <br /><b>Variante</b><br />Nume: Piscul Cerbului, Hartă: PDT, Limbă: Limba română</description><Point><coordinates>23.623113,44.992197,0</coordinates></Point></Placemark>
<Placemark><name>Poiana Cerbu</name><description>Nume: Poiana Cerbu, Tip: cerb, Nivel: 2, Județ: Gorj, Formă: Poiană, ID: 11576 <br /><b>Variante</b><br />Nume: Poiana Cerbu, Hartă: Geomil 25000, Limbă: Limba română</description><Point><coordinates>23.704575,45.204814,0</coordinates></Point></Placemark>
<Placemark><name>Valea Cerbului</name><description>Nume: Valea Cerbului, Tip: cerb, Nivel: 2, Județ: Gorj, Formă: Vale, ID: 3119 <br /><b>Variante</b><br />Nume: Valea Cerbului, Hartă: Geomil 25000, Limbă: Limba română</description><Point><coordinates>23.301022,44.948530,0</coordinates></Point></Placemark>
<Placemark><name>Valea Cerbului</name><description>Nume: Valea Cerbului, Tip: cerb, Nivel: 2, Județ: Gorj, Formă: Vale, ID: 5085 <br /><b>Variante</b><br />Nume: Valea Cerbului, Hartă: PDT, Limbă: Limba română</description><Point><coordinates>23.582791,44.900107,0</coordinates></Point></Placemark>
<Placemark><name>Valea Cerbului</name><description>Nume: Valea Cerbului, Tip: cerb, Nivel: 2, Județ: Gorj, Formă: Vale, ID: 5088 <br /><b>Variante</b><br />Nume: Valea Cerbului, Hartă: Geomil 25000, Limbă: Limba română<br />Nume: Valea Cerbului, Hartă: PDT, Limbă: Limba română</description><Point><coordinates>23.589922,44.689893,0</coordinates></Point></Placemark>
<Placemark><name>Valea Cerbului</name><description>Nume: Valea Cerbului, Tip: cerb, Nivel: 2, Județ: Gorj, Formă: Vale, ID: 8400, ID Părinte: 8401 <br /><b>Variante</b><br />Nume: Valea Cerbului, Hartă: PDT, Limbă: Limba română</description><Point><coordinates>23.623161,44.988858,0</coordinates></Point></Placemark>
<Placemark><LineString id="8400_8401"><tessellate>1</tessellate><coordinates>23.623161,44.988858,0.
23.623113,44.992197,0</coordinates></LineString><Style><LineStyle><width>3</width></LineStyle></Style></Placemark>
<Placemark><name>Valea Ciuta</name><description>Nume: Valea Ciuta, Tip: ciută, Nivel: 3, Județ: Gorj, Formă: Vale, ID: 224 <br /><b>Variante</b><br />Nume: Valea Ciuta, Hartă: Geomil 25000, Limbă: Limba română</description><Point><coordinates>22.817871,45.113143,0</coordinates></Point></Placemark>
<Placemark><name>Valea Ciutei</name><description>Nume: Valea Ciutei, Tip: ciută, Nivel: 3, Județ: Gorj, Formă: Vale, ID: 3674 <br /><b>Variante</b><br />Nume: Valea Ciutei, Hartă: PDT, Limbă: Limba română</description><Point><coordinates>22.978571,44.847617,0</coordinates></Point></Placemark>
<Placemark><name>Dealul Căprioarelor</name><description>Nume: Dealul Căprioarelor, Tip: căprioară, Nivel: 3, Județ: Harghita, Formă: Deal, ID: 6783 <br /><b>Variante</b><br />Nume: Dealul Căprioarelor, Hartă: Geomil 25000, Limbă: Limba română</description><Point><coordinates>25.550725,46.273108,0</coordinates></Point></Placemark>
<Placemark><name>Câmpul Cerbilor</name><description>Nume: Câmpul Cerbilor, Tip: cerb, Nivel: 2, Județ: Harghita, Formă: Câmp, ID: 4282 <br /><b>Variante</b><br />Nume: Câmpul Cerbilor, Hartă: Geomil 25000, Limbă: Limba română</description><Point><coordinates>25.339349,46.355959,0</coordinates></Point></Placemark>
<Placemark><name>Căprioara</name><description>Nume: Căprioara, Tip: căprioară, Nivel: 3, Județ: Hunedoara, Formă: Înălțime, ID: 9020 <br /><b>Variante</b><br />Nume: Căprioara, Hartă: Geomil 25000, Limbă: Limba română</description><Point><coordinates>22.824870,45.631525,0</coordinates></Point></Placemark>
<Placemark><name>Căpriora</name><description>Nume: Căpriora, Tip: căprioară, Nivel: 3, Județ: Hunedoara, Formă: Altele, ID: 5555 <br /><b>Variante</b><br />Nume: Căpriora, Hartă: PDT, Limbă: Limba română<br />Nume: Dealul Căprioara, Hartă: Geomil 25000, Limbă: Limba română</description><Point><coordinates>23.138298,45.734028,0</coordinates></Point></Placemark>
<Placemark><name>Cerbu</name><description>Nume: Cerbu, Tip: cerb, Nivel: 2, Județ: Hunedoara, Formă: Înălțime, ID: 6168 <br /><b>Variante</b><br />Nume: Cerbu, Hartă: Geomil 25000, Limbă: Limba română</description><Point><coordinates>22.809510,45.929396,0</coordinates></Point></Placemark>
<Placemark><name>Dealul Cerbului</name><description>Nume: Dealul Cerbului, Tip: cerb, Nivel: 2, Județ: Hunedoara, Formă: Deal, ID: 1127 <br /><b>Variante</b><br />Nume: Dealul Cerbului, Hartă: Geomil 25000, Limbă: Limba română</description><Point><coordinates>23.275937,45.495603,0</coordinates></Point></Placemark>
<Placemark><name>Dealul Cerbului</name><description>Nume: Dealul Cerbului, Tip: cerb, Nivel: 2, Județ: Hunedoara, Formă: Deal, ID: 1194 <br /><b>Variante</b><br />Nume: Dealul Cerbului, Hartă: Geomil 25000, Limbă: Limba română</description><Point><coordinates>23.493266,45.481682,0</coordinates></Point></Placemark>
<Placemark><name>Gruiu Cerbului</name><description>Nume: Gruiu Cerbului, Tip: cerb, Nivel: 2, Județ: Hunedoara, Formă: Înălțime, ID: 6231 <br /><b>Variante</b><br />Nume: Gruiu Cerbului, Hartă: Geomil 25000, Limbă: Limba română</description><Point><coordinates>22.531515,46.121367,0</coordinates></Point></Placemark>
<Placemark><name>Pârâul Cerbului</name><description>Nume: Pârâul Cerbului, Tip: cerb, Nivel: 2, Județ: Hunedoara, Formă: Vale, ID: 14198, ID Părinte: 1194 <br /><b>Variante</b><br />Nume: Pârâul Cerbului, Hartă: Geomil 25000, Limbă: Limba română</description><Point><coordinates>23.483712,45.483871,0</coordinates></Point></Placemark>
<Placemark><LineString id="14198_1194"><tessellate>1</tessellate><coordinates>23.483712,45.483871,0.
23.493266,45.481682,0</coordinates></LineString><Style><LineStyle><width>3</width></LineStyle></Style></Placemark>
<Placemark><name>Piatra Cerbului</name><description>Nume: Piatra Cerbului, Tip: cerb, Nivel: 2, Județ: Hunedoara, Formă: Înălțime, ID: 5588 <br /><b>Variante</b><br />Nume: Piatra Cerbului, Hartă: Geomil 25000, Limbă: Limba română</description><Point><coordinates>22.875725,46.306405,0</coordinates></Point></Placemark>
<Placemark><name>Piatra Cerbului</name><description>Nume: Piatra Cerbului, Tip: cerb, Nivel: 2, Județ: Hunedoara, Formă: Înălțime, ID: 6169 <br /><b>Variante</b><br />Nume: Piatra Cerbului, Hartă: Geomil 25000, Limbă: Limba română<br />Nume: Piatra Cerbului, Hartă: PDT, Limbă: Limba română</description><Point><coordinates>22.649200,45.843454,0</coordinates></Point></Placemark>
<Placemark><name>Piscul Cerbului</name><description>Nume: Piscul Cerbului, Tip: cerb, Nivel: 2, Județ: Hunedoara, Formă: Înălțime, ID: 9827 <br /><b>Variante</b><br />Nume: Piscul Cerbului, Hartă: PDT, Limbă: Limba română</description><Point><coordinates>23.197535,45.709491,0</coordinates></Point></Placemark>
<Placemark><name>Valea Cerbului</name><description>Nume: Valea Cerbului, Tip: cerb, Nivel: 2, Județ: Hunedoara, Formă: Vale, ID: 937 <br /><b>Variante</b><br />Nume: Valea Cerbului, Hartă: Geomil 25000, Limbă: Limba română</description><Point><coordinates>22.686259,45.989991,0</coordinates></Point></Placemark>
<Placemark><name>Valea Cerbului</name><description>Nume: Valea Cerbului, Tip: cerb, Nivel: 2, Județ: Hunedoara, Formă: Vale, ID: 1128, ID Părinte: 1127 <br /><b>Variante</b><br />Nume: Valea Cerbului, Hartă: Geomil 25000, Limbă: Limba română</description><Point><coordinates>23.260197,45.504438,0</coordinates></Point></Placemark>
<Placemark><LineString id="1128_1127"><tessellate>1</tessellate><coordinates>23.260197,45.504438,0.
23.275937,45.495603,0</coordinates></LineString><Style><LineStyle><width>3</width></LineStyle></Style></Placemark>
<Placemark><name>Valea Cerbului</name><description>Nume: Valea Cerbului, Tip: cerb, Nivel: 2, Județ: Hunedoara, Formă: Vale, ID: 6221, ID Părinte: 6220 <br /><b>Variante</b><br />Nume: Valea Cerbului, Hartă: Geomil 25000, Limbă: Limba română</description><Point><coordinates>22.524176,46.041769,0</coordinates></Point></Placemark>
<Placemark><LineString id="6221_6220"><tessellate>1</tessellate><coordinates>22.524176,46.041769,0.
22.518271,46.039658,0</coordinates></LineString><Style><LineStyle><width>3</width></LineStyle></Style></Placemark>
<Placemark><name>Valea Cerbului</name><description>Nume: Valea Cerbului, Tip: cerb, Nivel: 2, Județ: Hunedoara, Formă: Vale, ID: 6230, ID Părinte: 6231 <br /><b>Variante</b><br />Nume: Valea Cerbului, Hartă: Geomil 25000, Limbă: Limba română</description><Point><coordinates>22.526293,46.123817,0</coordinates></Point></Placemark>
<Placemark><LineString id="6230_6231"><tessellate>1</tessellate><coordinates>22.526293,46.123817,0.
22.531515,46.121367,0</coordinates></LineString><Style><LineStyle><width>3</width></LineStyle></Style></Placemark>
<Placemark><name>Vârfu Cerbului</name><description>Nume: Vârfu Cerbului, Tip: cerb, Nivel: 2, Județ: Hunedoara, Formă: Înălțime, ID: 5133 <br /><b>Variante</b><br />Nume: Vârfu Cerbului, Hartă: Geomil 25000, Limbă: Limba română<br />Nume: Vurvu Tscherbuli, Hartă: Transilvania (1769-1773), Limbă: Limba română</description><Point><coordinates>22.749880,45.560146,0</coordinates></Point></Placemark>
<Placemark><name>Vârful Cerbului</name><description>Nume: Vârful Cerbului, Tip: cerb, Nivel: 2, Județ: Hunedoara, Formă: Înălțime, ID: 6220 <br /><b>Variante</b><br />Nume: Vârful Cerbului, Hartă: PDT, Limbă: Limba română</description><Point><coordinates>22.518271,46.039658,0</coordinates></Point></Placemark>
<Placemark><name>Pârâu Cerboaia</name><description>Nume: Pârâu Cerboaia, Tip: cerboaie, Nivel: 3, Județ: Hunedoara, Formă: Vale, ID: 10231, ID Părinte: 6231 <br /><b>Variante</b><br />Nume: Pârâu Cerboaia, Hartă: Geomil 25000, Limbă: Limba română</description><Point><coordinates>22.538217,46.123959,0</coordinates></Point></Placemark>
<Placemark><LineString id="10231_6231"><tessellate>1</tessellate><coordinates>22.538217,46.123959,0.
22.531515,46.121367,0</coordinates></LineString><Style><LineStyle><width>3</width></LineStyle></Style></Placemark>
<Placemark><name>Culmea Cerbului</name><description>Nume: Culmea Cerbului, Tip: cerb, Nivel: 2, Județ: Maramures, Formă: Înălțime, ID: 7194 <br /><b>Variante</b><br />Nume: Culmea Cerbului, Hartă: Geomil 25000, Limbă: Limba română</description><Point><coordinates>24.826895,47.790691,0</coordinates></Point></Placemark>
<Placemark><name>Poiana Cerbului</name><description>Nume: Poiana Cerbului, Tip: cerb, Nivel: 2, Județ: Maramures, Formă: Poiană, ID: 11158 <br /><b>Variante</b><br />Nume: Poiana Cerbului, Hartă: Geomil 25000, Limbă: Limba română</description><Point><coordinates>24.675174,47.817233,0</coordinates></Point></Placemark>
<Placemark><name>Valea Cerbului</name><description>Nume: Valea Cerbului, Tip: cerb, Nivel: 2, Județ: Maramures, Formă: Vale, ID: 1043 <br /><b>Variante</b><br />Nume: Valea Cerbului, Hartă: Geomil 25000, Limbă: Limba română</description><Point><coordinates>23.442358,47.454736,0</coordinates></Point></Placemark>
<Placemark><name>Valea Cerbului</name><description>Nume: Valea Cerbului, Tip: cerb, Nivel: 2, Județ: Maramures, Formă: Vale, ID: 8248 <br /><b>Variante</b><br />Nume: Valea Cerbului, Hartă: Geomil 25000, Limbă: Limba română</description><Point><coordinates>24.004004,47.468234,0</coordinates></Point></Placemark>
<Placemark><name>Dealu Cerboaia</name><description>Nume: Dealu Cerboaia, Tip: cerboaie, Nivel: 3, Județ: Maramures, Formă: Deal, ID: 9928 <br /><b>Variante</b><br />Nume: Dealu Cerboaia, Hartă: Geomil 25000, Limbă: Limba română</description><Point><coordinates>23.380414,47.413171,0</coordinates></Point></Placemark>
<Placemark><name>Valea Ciutei</name><description>Nume: Valea Ciutei, Tip: ciută, Nivel: 3, Județ: Maramures, Formă: Vale, ID: 910 <br /><b>Variante</b><br />Nume: Valea Ciutei, Hartă: Geomil 25000, Limbă: Limba română</description><Point><coordinates>23.986448,47.761383,0</coordinates></Point></Placemark>
<Placemark><name>Dealul Cerbului</name><description>Nume: Dealul Cerbului, Tip: cerb, Nivel: 2, Județ: Mehedinti, Formă: Deal, ID: 141 <br /><b>Variante</b><br />Nume: Dealul Cerbului, Hartă: Geomil 25000, Limbă: Limba română<br />Nume: De. Cerbului, Hartă: Austriacă, Limbă: Limba română</description><Point><coordinates>23.179465,44.321073,0</coordinates></Point></Placemark>
<Placemark><name>Ogașu Cerbului</name><description>Nume: Ogașu Cerbului, Tip: cerb, Nivel: 2, Județ: Mehedinti, Formă: Vale, ID: 11486 <br /><b>Variante</b><br />Nume: Ogașu Cerbului, Hartă: Geomil 25000, Limbă: Limba română</description><Point><coordinates>22.956294,44.627776,0</coordinates></Point></Placemark>
<Placemark><name>Poiana Cerbului</name><description>Nume: Poiana Cerbului, Tip: cerb, Nivel: 2, Județ: Mehedinti, Formă: Poiană, ID: 11223 <br /><b>Variante</b><br />Nume: Poiana Cerbului, Hartă: ANCPI, Limbă: Limba română</description><Point><coordinates>22.620463,44.993374,0</coordinates></Point></Placemark>
<Placemark><name>Valea Cerbului</name><description>Nume: Valea Cerbului, Tip: cerb, Nivel: 2, Județ: Mehedinti, Formă: Vale, ID: 12190 <br /><b>Variante</b><br />Nume: Valea Cerbului, Hartă: PDT, Limbă: Limba română</description><Point><coordinates>23.041752,44.332079,0</coordinates></Point></Placemark>
<Placemark><name>Culmea Ciutei</name><description>Nume: Culmea Ciutei, Tip: ciută, Nivel: 3, Județ: Mehedinti, Formă: Înălțime, ID: 434 <br /><b>Variante</b><br />Nume: Culmea Ciutei, Hartă: Geomil 25000, Limbă: Limba română</description><Point><coordinates>23.014150,44.525565,0</coordinates></Point></Placemark>
<Placemark><name>Dealu Ciuta</name><description>Nume: Dealu Ciuta, Tip: ciută, Nivel: 3, Județ: Mehedinti, Formă: Deal, ID: 197 <br /><b>Variante</b><br />Nume: Dealu Ciuta, Hartă: Geomil 25000, Limbă: Limba română</description><Point><coordinates>22.832615,44.984344,0</coordinates></Point></Placemark>
<Placemark><name>Valea Ciutei</name><description>Nume: Valea Ciutei, Tip: ciută, Nivel: 3, Județ: Mehedinti, Formă: Vale, ID: 435, ID Părinte: 434 <br /><b>Variante</b><br />Nume: Valea Ciutei, Hartă: Geomil 25000, Limbă: Limba română</description><Point><coordinates>23.013200,44.522612,0</coordinates></Point></Placemark>
<Placemark><LineString id="435_434"><tessellate>1</tessellate><coordinates>23.013200,44.522612,0.
23.014150,44.525565,0</coordinates></LineString><Style><LineStyle><width>3</width></LineStyle></Style></Placemark>
<Placemark><name>Dealul Cerbului</name><description>Nume: Dealul Cerbului, Tip: cerb, Nivel: 2, Județ: Mures, Formă: Deal, ID: 13999 <br /><b>Variante</b><br />Nume: Dealul Cerbului, Hartă: PDT, Limbă: Limba română</description><Point><coordinates>24.575374,46.360908,0</coordinates></Point></Placemark>
<Placemark><name>Pădurea Cerbăria</name><description>Nume: Pădurea Cerbăria, Tip: cerbărie, Nivel: 3, Județ: Mures, Formă: Pădure, ID: 11908 <br /><b>Variante</b><br />Nume: Pădurea Cerbăria, Hartă: PDT, Limbă: Limba română<br />Nume: Pădurea Cerbăria, Hartă: Geomil 25000, Limbă: Limba română</description><Point><coordinates>24.190296,46.275622,0</coordinates></Point></Placemark>
<Placemark><name>Valea Cerbăria</name><description>Nume: Valea Cerbăria, Tip: cerbărie, Nivel: 3, Județ: Mures, Formă: Vale, ID: 11909, ID Părinte: 11908 <br /><b>Variante</b><br />Nume: Valea Cerbăria, Hartă: Geomil 25000, Limbă: Limba română<br />Nume: Pârâul Cerbăria, Hartă: PDT, Limbă: Limba română</description><Point><coordinates>24.195342,46.275528,0</coordinates></Point></Placemark>
<Placemark><LineString id="11909_11908"><tessellate>1</tessellate><coordinates>24.195342,46.275528,0.
24.190296,46.275622,0</coordinates></LineString><Style><LineStyle><width>3</width></LineStyle></Style></Placemark>
<Placemark><name>Culmea Căprioarei</name><description>Nume: Culmea Căprioarei, Tip: căprioară, Nivel: 3, Județ: Neamt, Formă: Înălțime, ID: 674 <br /><b>Variante</b><br />Nume: Culmea Căprioarei, Hartă: Geomil 25000, Limbă: Limba română</description><Point><coordinates>26.202477,46.984163,0</coordinates></Point></Placemark>
<Placemark><name>Cerbul</name><description>Nume: Cerbul, Tip: cerb, Nivel: 2, Județ: Neamt, Formă: Vale, ID: 9136 <br /><b>Variante</b><br />Nume: Cerbul, Hartă: Geomil 25000, Limbă: Limba română</description><Point><coordinates>26.166868,47.044531,0</coordinates></Point></Placemark>
<Placemark><name>Piatra Cerbului</name><description>Nume: Piatra Cerbului, Tip: cerb, Nivel: 2, Județ: Neamt, Formă: Înălțime, ID: 9051 <br /><b>Variante</b><br />Nume: Piatra Cerbului, Hartă: Geomil 25000, Limbă: Limba română</description><Point><coordinates>25.887194,46.756963,0</coordinates></Point></Placemark>
<Placemark><name>Piciorul Cerbului</name><description>Nume: Piciorul Cerbului, Tip: cerb, Nivel: 2, Județ: Neamt, Formă: Înălțime, ID: 6454 <br /><b>Variante</b><br />Nume: Piciorul Cerbului, Hartă: PDT, Limbă: Limba română</description><Point><coordinates>25.843748,47.215045,0</coordinates></Point></Placemark>
<Placemark><name>Poiana Cerbului</name><description>Nume: Poiana Cerbului, Tip: cerb, Nivel: 2, Județ: Neamt, Formă: Poiană, ID: 678 <br /><b>Variante</b><br />Nume: Poiana Cerbului, Hartă: Geomil 25000, Limbă: Limba română</description><Point><coordinates>26.018744,46.808305,0</coordinates></Point></Placemark>
<Placemark><name>Măgura Căprioarei</name><description>Nume: Măgura Căprioarei, Tip: căprioară, Nivel: 3, Județ: Olt, Formă: Înălțime, ID: 1286 <br /><b>Variante</b><br />Nume: Măgura Căprioarei, Hartă: Geomil 25000, Limbă: Limba română</description><Point><coordinates>24.593019,44.200330,0</coordinates></Point></Placemark>
<Placemark><name>Valea Căprioarei</name><description>Nume: Valea Căprioarei, Tip: căprioară, Nivel: 3, Județ: Olt, Formă: Vale, ID: 304 <br /><b>Variante</b><br />Nume: Valea Căprioarei, Hartă: Geomil 25000, Limbă: Limba română</description><Point><coordinates>24.468859,44.521059,0</coordinates></Point></Placemark>
<Placemark><name>Poiana Lacul Cerbului</name><description>Nume: Poiana Lacul Cerbului, Tip: cerb, Nivel: 2, Județ: Olt, Formă: Poiană, ID: 12528 <br /><b>Variante</b><br />Nume: Poiana Lacul Cerbului, Hartă: PDT, Limbă: Limba română</description><Point><coordinates>24.344275,44.248945,0</coordinates></Point></Placemark>
<Placemark><name>Valea Cerboaiei</name><description>Nume: Valea Cerboaiei, Tip: cerb, Nivel: 2, Județ: Olt, Formă: Vale, ID: 268 <br /><b>Variante</b><br />Nume: Valea Cerboaiei, Hartă: Geomil 25000, Limbă: Limba română</description><Point><coordinates>23.985999,44.526695,0</coordinates></Point></Placemark>
<Placemark><name>Valea Cerbului</name><description>Nume: Valea Cerbului, Tip: cerb, Nivel: 2, Județ: Olt, Formă: Vale, ID: 1993 <br /><b>Variante</b><br />Nume: Valea Cerbului, Hartă: Geomil 25000, Limbă: Limba română</description><Point><coordinates>24.401617,44.748701,0</coordinates></Point></Placemark>
<Placemark><name>Valea Cerbului</name><description>Nume: Valea Cerbului, Tip: cerb, Nivel: 2, Județ: Olt, Formă: Vale, ID: 4787 <br /><b>Variante</b><br />Nume: Valea Cerbului, Hartă: PDT, Limbă: Limba română</description><Point><coordinates>24.380992,44.736010,0</coordinates></Point></Placemark>
<Placemark><name>Valea Cerboaica</name><description>Nume: Valea Cerboaica, Tip: cerboaică, Nivel: 3, Județ: Olt, Formă: Vale, ID: 9331 <br /><b>Variante</b><br />Nume: Valea Cerboaica, Hartă: Geomil 25000, Limbă: Limba română</description><Point><coordinates>24.173280,44.376888,0</coordinates></Point></Placemark>
<Placemark><name>Măgura Ciutei</name><description>Nume: Măgura Ciutei, Tip: ciută, Nivel: 3, Județ: Olt, Formă: Înălțime, ID: 3029 <br /><b>Variante</b><br />Nume: Măgura Ciutei, Hartă: Geomil 25000, Limbă: Limba română</description><Point><coordinates>24.415116,43.769895,0</coordinates></Point></Placemark>
<Placemark><name>Poiana Căprioarei</name><description>Nume: Poiana Căprioarei, Tip: căprioară, Nivel: 3, Județ: Prahova, Formă: Poiană, ID: 3974 <br /><b>Variante</b><br />Nume: Poiana Căprioarei, Hartă: Geomil 25000, Limbă: Limba română<br />Nume: Poiana Căprioarei, Hartă: PDT, Limbă: Limba română</description><Point><coordinates>26.404089,45.122441,0</coordinates></Point></Placemark>
<Placemark><name>Dealul Cerbului</name><description>Nume: Dealul Cerbului, Tip: cerb, Nivel: 2, Județ: Prahova, Formă: Deal, ID: 12455 <br /><b>Variante</b><br />Nume: Dealul Cerbului, Hartă: PDT, Limbă: Limba română</description><Point><coordinates>26.242455,45.127331,0</coordinates></Point></Placemark>
<Placemark><name>La Râpa Cerbului</name><description>Nume: La Râpa Cerbului, Tip: cerb, Nivel: 2, Județ: Prahova, Formă: Înălțime, ID: 7474 <br /><b>Variante</b><br />Nume: La Râpa Cerbului, Hartă: PDT, Limbă: Limba română</description><Point><coordinates>25.790839,45.182349,0</coordinates></Point></Placemark>
<Placemark><name>Valea Cerbului</name><description>Nume: Valea Cerbului, Tip: cerb, Nivel: 2, Județ: Prahova, Formă: Vale, ID: 584 <br /><b>Variante</b><br />Nume: Valea Cerbului, Hartă: Geomil 25000, Limbă: Limba română</description><Point><coordinates>25.527251,45.440799,0</coordinates></Point></Placemark>
<Placemark><name>Valea Cerbului</name><description>Nume: Valea Cerbului, Tip: cerb, Nivel: 2, Județ: Prahova, Formă: Vale, ID: 585 <br /><b>Variante</b><br />Nume: Valea Cerbului, Hartă: Geomil 25000, Limbă: Limba română</description><Point><coordinates>25.476314,45.439799,0</coordinates></Point></Placemark>
<Placemark><name>Valea Cerbului</name><description>Nume: Valea Cerbului, Tip: cerb, Nivel: 2, Județ: Prahova, Formă: Vale, ID: 3990 <br /><b>Variante</b><br />Nume: Valea Cerbului, Hartă: PDT, Limbă: Limba română</description><Point><coordinates>25.749256,45.250025,0</coordinates></Point></Placemark>
<Placemark><name>Valea Cerbului</name><description>Nume: Valea Cerbului, Tip: cerb, Nivel: 2, Județ: Prahova, Formă: Vale, ID: 8818 <br /><b>Variante</b><br />Nume: Valea Cerbului, Hartă: PDT, Limbă: Limba română</description><Point><coordinates>25.668710,45.236009,0</coordinates></Point></Placemark>
<Placemark><name>Valea Cerbului</name><description>Nume: Valea Cerbului, Tip: cerb, Nivel: 2, Județ: Prahova, Formă: Vale, ID: 12454, ID Părinte: 12455 <br /><b>Variante</b><br />Nume: Valea Cerbului, Hartă: PDT, Limbă: Limba română</description><Point><coordinates>26.249297,45.128607,0</coordinates></Point></Placemark>
<Placemark><LineString id="12454_12455"><tessellate>1</tessellate><coordinates>26.249297,45.128607,0.
26.242455,45.127331,0</coordinates></LineString><Style><LineStyle><width>3</width></LineStyle></Style></Placemark>
<Placemark><name>Culmea Ciutei</name><description>Nume: Culmea Ciutei, Tip: ciută, Nivel: 3, Județ: Prahova, Formă: Înălțime, ID: 577 <br /><b>Variante</b><br />Nume: Culmea Ciutei, Hartă: Geomil 25000, Limbă: Limba română</description><Point><coordinates>25.604757,45.365875,0</coordinates></Point></Placemark>
<Placemark><name>Dealul Cerbului</name><description>Nume: Dealul Cerbului, Tip: cerb, Nivel: 2, Județ: Salaj, Formă: Deal, ID: 8189 <br /><b>Variante</b><br />Nume: Dealul Cerbului, Hartă: PDT, Limbă: Limba română</description><Point><coordinates>22.816441,47.243828,0</coordinates></Point></Placemark>
<Placemark><name>Dosul Cerboaei</name><description>Nume: Dosul Cerboaei, Tip: cerboaie, Nivel: 3, Județ: Salaj, Formă: Înălțime, ID: 10384 <br /><b>Variante</b><br />Nume: Dosul Cerboaei, Hartă: PDT, Limbă: Limba română</description><Point><coordinates>23.152634,47.117951,0</coordinates></Point></Placemark>
<Placemark><name>Culmea Căprioarei</name><description>Nume: Culmea Căprioarei, Tip: căprioară, Nivel: 3, Județ: Sibiu, Formă: Înălțime, ID: 2501 <br /><b>Variante</b><br />Nume: Culmea Căprioarei, Hartă: Geomil 25000, Limbă: Limba română</description><Point><coordinates>24.082779,45.614431,0</coordinates></Point></Placemark>
<Placemark><name>Culmea Căprioarelor</name><description>Nume: Culmea Căprioarelor, Tip: căprioară, Nivel: 3, Județ: Sibiu, Formă: Înălțime, ID: 2518 <br /><b>Variante</b><br />Nume: Culmea Căprioarelor, Hartă: Geomil 25000, Limbă: Limba română</description><Point><coordinates>23.806019,45.661769,0</coordinates></Point></Placemark>
<Placemark><name>Dealu Căprioarei</name><description>Nume: Dealu Căprioarei, Tip: căprioară, Nivel: 3, Județ: Sibiu, Formă: Deal, ID: 2545, ID Părinte: 2544 <br /><b>Variante</b><br />Nume: Dealu Căprioarei, Hartă: Geomil 25000, Limbă: Limba română<br />Nume: Dealul Căprioarei, Hartă: PDT, Limbă: Limba română</description><Point><coordinates>23.946725,45.839388,0</coordinates></Point></Placemark>
<Placemark><LineString id="2545_2544"><tessellate>1</tessellate><coordinates>23.946725,45.839388,0.
23.946086,45.838081,0</coordinates></LineString><Style><LineStyle><width>3</width></LineStyle></Style></Placemark>
<Placemark><name>Valea Căprioarei</name><description>Nume: Valea Căprioarei, Tip: căprioară, Nivel: 3, Județ: Sibiu, Formă: Vale, ID: 2544 <br /><b>Variante</b><br />Nume: Valea Căprioarei, Hartă: Geomil 25000, Limbă: Limba română<br />Nume: Valea Căprioarei, Hartă: PDT, Limbă: Limba română</description><Point><coordinates>23.946086,45.838081,0</coordinates></Point></Placemark>
<Placemark><name>Cerbul</name><description>Nume: Cerbul, Tip: cerb, Nivel: 2, Județ: Sibiu, Formă: Vale, ID: 1168, ID Părinte: 1166 <br /><b>Variante</b><br />Nume: Cerbul, Hartă: Geomil 25000, Limbă: Limba română</description><Point><coordinates>24.192133,45.584689,0</coordinates></Point></Placemark>
<Placemark><LineString id="1168_1166"><tessellate>1</tessellate><coordinates>24.192133,45.584689,0.
24.165473,45.591202,0</coordinates></LineString><Style><LineStyle><width>3</width></LineStyle></Style></Placemark>
<Placemark><name>Culmea Cerbului</name><description>Nume: Culmea Cerbului, Tip: cerb, Nivel: 2, Județ: Sibiu, Formă: Înălțime, ID: 1167, ID Părinte: 1166 <br /><b>Variante</b><br />Nume: Culmea Cerbului, Hartă: Geomil 25000, Limbă: Limba română</description><Point><coordinates>24.178783,45.587216,0</coordinates></Point></Placemark>
<Placemark><LineString id="1167_1166"><tessellate>1</tessellate><coordinates>24.178783,45.587216,0.
24.165473,45.591202,0</coordinates></LineString><Style><LineStyle><width>3</width></LineStyle></Style></Placemark>
<Placemark><name>Dealul Cerbului</name><description>Nume: Dealul Cerbului, Tip: cerb, Nivel: 2, Județ: Sibiu, Formă: Deal, ID: 1166 <br /><b>Variante</b><br />Nume: Dealul Cerbului, Hartă: Geomil 25000, Limbă: Limba română</description><Point><coordinates>24.165473,45.591202,0</coordinates></Point></Placemark>
<Placemark><name>Pârâul Cerbului</name><description>Nume: Pârâul Cerbului, Tip: cerb, Nivel: 2, Județ: Sibiu, Formă: Vale, ID: 4038 <br /><b>Variante</b><br />Nume: Pârâul Cerbului, Hartă: PDT, Limbă: Limba română</description><Point><coordinates>24.258745,45.622080,0</coordinates></Point></Placemark>
<Placemark><name>Pârâul Cerbului</name><description>Nume: Pârâul Cerbului, Tip: cerb, Nivel: 2, Județ: Sibiu, Formă: Vale, ID: 7513 <br /><b>Variante</b><br />Nume: Pârâul Cerbului, Hartă: PDT, Limbă: Limba română</description><Point><coordinates>24.284087,45.655272,0</coordinates></Point></Placemark>
<Placemark><name>Piscul Cerbului</name><description>Nume: Piscul Cerbului, Tip: cerb, Nivel: 2, Județ: Sibiu, Formă: Înălțime, ID: 1456 <br /><b>Variante</b><br />Nume: Piscul Cerbului, Hartă: Geomil 25000, Limbă: Limba română</description><Point><coordinates>24.328619,45.587305,0</coordinates></Point></Placemark>
<Placemark><name>Valea Cerbu</name><description>Nume: Valea Cerbu, Tip: cerb, Nivel: 2, Județ: Sibiu, Formă: Vale, ID: 11212 <br /><b>Variante</b><br />Nume: Valea Cerbu, Hartă: ANCPI, Limbă: Limba română</description><Point><coordinates>23.665072,45.501161,0</coordinates></Point></Placemark>
<Placemark><name>Valea Cerbului</name><description>Nume: Valea Cerbului, Tip: cerb, Nivel: 2, Județ: Sibiu, Formă: Vale, ID: 2662 <br /><b>Variante</b><br />Nume: Valea Cerbului, Hartă: Geomil 25000, Limbă: Limba română</description><Point><coordinates>24.817693,45.981206,0</coordinates></Point></Placemark>
<Placemark><name>Arșița Cerbului</name><description>Nume: Arșița Cerbului, Tip: cerb, Nivel: 2, Județ: Suceava, Formă: Altele, ID: 2075, ID Părinte: 6411 <br /><b>Variante</b><br />Nume: Arșița Cerbului, Hartă: Geomil 25000, Limbă: Limba română<br />Nume: Arșița Cerbului, Hartă: PDT, Limbă: Limba română</description><Point><coordinates>25.693137,47.200351,0</coordinates></Point></Placemark>
<Placemark><LineString id="2075_6411"><tessellate>1</tessellate><coordinates>25.693137,47.200351,0.
25.688634,47.186527,0</coordinates></LineString><Style><LineStyle><width>3</width></LineStyle></Style></Placemark>
<Placemark><name>Cerbul</name><description>Nume: Cerbul, Tip: cerb, Nivel: 2, Județ: Suceava, Formă: Înălțime, ID: 9100 <br /><b>Variante</b><br />Nume: Cerbul, Hartă: PDT, Limbă: Limba română</description><Point><coordinates>25.225754,47.233465,0</coordinates></Point></Placemark>
<Placemark><name>Cerbul</name><description>Nume: Cerbul, Tip: cerb, Nivel: 2, Județ: Suceava, Formă: Înălțime, ID: 10752 <br /><b>Variante</b><br />Nume: Cerbul, Hartă: Imperiul Habsburgic (1887), Limbă: Limba română</description><Point><coordinates>25.797295,47.690289,0</coordinates></Point></Placemark>
<Placemark><name>Dealul Cerbului</name><description>Nume: Dealul Cerbului, Tip: cerb, Nivel: 2, Județ: Suceava, Formă: Deal, ID: 644 <br /><b>Variante</b><br />Nume: Dealul Cerbului, Hartă: Geomil 25000, Limbă: Limba română</description><Point><coordinates>25.501134,47.925200,0</coordinates></Point></Placemark>
<Placemark><name>Muntele Arșița Cerbului</name><description>Nume: Muntele Arșița Cerbului, Tip: cerb, Nivel: 2, Județ: Suceava, Formă: Înălțime, ID: 6411 <br /><b>Variante</b><br />Nume: Muntele Arșița Cerbului, Hartă: Geomil 25000, Limbă: Limba română</description><Point><coordinates>25.688634,47.186527,0</coordinates></Point></Placemark>
<Placemark><name>Pădurea Cerbului</name><description>Nume: Pădurea Cerbului, Tip: cerb, Nivel: 2, Județ: Suceava, Formă: Pădure, ID: 6413, ID Părinte: 6411 <br /><b>Variante</b><br />Nume: Pădurea Cerbului, Hartă: Geomil 25000, Limbă: Limba română</description><Point><coordinates>25.687702,47.179109,0</coordinates></Point></Placemark>
<Placemark><LineString id="6413_6411"><tessellate>1</tessellate><coordinates>25.687702,47.179109,0.
25.688634,47.186527,0</coordinates></LineString><Style><LineStyle><width>3</width></LineStyle></Style></Placemark>
<Placemark><name>Părâul Cerbului</name><description>Nume: Părâul Cerbului, Tip: cerb, Nivel: 2, Județ: Suceava, Formă: Vale, ID: 10763 <br /><b>Variante</b><br />Nume: Părâul Cerbului, Hartă: Imperiul Habsburgic (1887), Limbă: Limba română</description><Point><coordinates>25.666790,47.782550,0</coordinates></Point></Placemark>
<Placemark><name>Poiana Cerbului</name><description>Nume: Poiana Cerbului, Tip: cerb, Nivel: 2, Județ: Suceava, Formă: Poiană, ID: 643, ID Părinte: 644 <br /><b>Variante</b><br />Nume: Poiana Cerbului, Hartă: Geomil 25000, Limbă: Limba română</description><Point><coordinates>25.500857,47.926521,0</coordinates></Point></Placemark>
<Placemark><LineString id="643_644"><tessellate>1</tessellate><coordinates>25.500857,47.926521,0.
25.501134,47.925200,0</coordinates></LineString><Style><LineStyle><width>3</width></LineStyle></Style></Placemark>
<Placemark><name>Poiana Cerbului</name><description>Nume: Poiana Cerbului, Tip: cerb, Nivel: 2, Județ: Suceava, Formă: Poiană, ID: 9065 <br /><b>Variante</b><br />Nume: Poiana Cerbului, Hartă: PDT, Limbă: Limba română</description><Point><coordinates>26.420117,47.488945,0</coordinates></Point></Placemark>
<Placemark><name>Preluca Cerbului</name><description>Nume: Preluca Cerbului, Tip: cerb, Nivel: 2, Județ: Suceava, Formă: Înălțime, ID: 7246 <br /><b>Variante</b><br />Nume: Preluca Cerbului, Hartă: Geomil 25000, Limbă: Limba română<br />Nume: Preluca Cerbului, Hartă: PDT, Limbă: Limba română</description><Point><coordinates>25.039969,47.594999,0</coordinates></Point></Placemark>
<Placemark><name>Valea Cerbului</name><description>Nume: Valea Cerbului, Tip: cerb, Nivel: 2, Județ: Suceava, Formă: Vale, ID: 6412, ID Părinte: 6411 <br /><b>Variante</b><br />Nume: Valea Cerbului, Hartă: Geomil 25000, Limbă: Limba română<br />Nume: Valea Cerbului, Hartă: PDT, Limbă: Limba română</description><Point><coordinates>25.704191,47.184064,0</coordinates></Point></Placemark>
<Placemark><LineString id="6412_6411"><tessellate>1</tessellate><coordinates>25.704191,47.184064,0.
25.688634,47.186527,0</coordinates></LineString><Style><LineStyle><width>3</width></LineStyle></Style></Placemark>
<Placemark><name>Vârful Cerbului</name><description>Nume: Vârful Cerbului, Tip: cerb, Nivel: 2, Județ: Suceava, Formă: Înălțime, ID: 6415, ID Părinte: 6411 <br /><b>Variante</b><br />Nume: Vârful Cerbului, Hartă: Geomil 25000, Limbă: Limba română</description><Point><coordinates>25.699642,47.169475,0</coordinates></Point></Placemark>
<Placemark><LineString id="6415_6411"><tessellate>1</tessellate><coordinates>25.699642,47.169475,0.
25.688634,47.186527,0</coordinates></LineString><Style><LineStyle><width>3</width></LineStyle></Style></Placemark>
<Placemark><name>Fontina Cerbula</name><description>Nume: Fontina Cerbula, Tip: cerb, Nivel: 2, Județ: Teleorman, Formă: Altele, ID: 5780, ID Părinte: 14179 <br /><b>Variante</b><br />Nume: Fontina Cerbula, Hartă: Austriacă, Limbă: Limba română</description><Point><coordinates>25.353126,44.175091,0</coordinates></Point></Placemark>
<Placemark><LineString id="5780_14179"><tessellate>1</tessellate><coordinates>25.353126,44.175091,0.
25.363602,44.167128,0</coordinates></LineString><Style><LineStyle><width>3</width></LineStyle></Style></Placemark>
<Placemark><name>La Lacu Cerbului</name><description>Nume: La Lacu Cerbului, Tip: cerb, Nivel: 2, Județ: Teleorman, Formă: Apă-deal-câmpie, ID: 510 <br /><b>Variante</b><br />Nume: La Lacu Cerbului, Hartă: Geomil 25000, Limbă: Limba română</description><Point><coordinates>25.327227,44.295475,0</coordinates></Point></Placemark>
<Placemark><name>Pârâul Cerbului</name><description>Nume: Pârâul Cerbului, Tip: cerb, Nivel: 2, Județ: Teleorman, Formă: Vale, ID: 14179 <br /><b>Variante</b><br />Nume: Pârâul Cerbului, Hartă: PDT, Limbă: Limba română</description><Point><coordinates>25.363602,44.167128,0</coordinates></Point></Placemark>
<Placemark><name>Puțu Cerbului</name><description>Nume: Puțu Cerbului, Tip: cerb, Nivel: 2, Județ: Teleorman, Formă: Altele, ID: 511, ID Părinte: 510 <br /><b>Variante</b><br />Nume: Puțu Cerbului, Hartă: Geomil 25000, Limbă: Limba română</description><Point><coordinates>25.322341,44.302839,0</coordinates></Point></Placemark>
<Placemark><LineString id="511_510"><tessellate>1</tessellate><coordinates>25.322341,44.302839,0.
25.327227,44.295475,0</coordinates></LineString><Style><LineStyle><width>3</width></LineStyle></Style></Placemark>
<Placemark><name>Viroaga Ciuta</name><description>Nume: Viroaga Ciuta, Tip: ciută, Nivel: 3, Județ: Teleorman, Formă: Altele, ID: 3335 <br /><b>Variante</b><br />Nume: Viroaga Ciuta, Hartă: PDT, Limbă: Limba română</description><Point><coordinates>24.759824,43.748577,0</coordinates></Point></Placemark>
<Placemark><name>Peștera Căprioarei</name><description>Nume: Peștera Căprioarei, Tip: căprioară, Nivel: 3, Județ: Timis, Formă: Altele, ID: 866 <br /><b>Variante</b><br />Nume: Peștera Căprioarei, Hartă: Geomil 25000, Limbă: Limba română</description><Point><coordinates>22.177788,45.632803,0</coordinates></Point></Placemark>
<Placemark><name>Canalul Cerbilor</name><description>Nume: Canalul Cerbilor, Tip: cerb, Nivel: 2, Județ: Timis, Formă: Apă-deal-câmpie, ID: 7601 <br /><b>Variante</b><br />Nume: Canalul Cerbilor, Hartă: Geomil 25000, Limbă: Limba română</description><Point><coordinates>21.191716,45.362782,0</coordinates></Point></Placemark>
<Placemark><name>Cotu Cerbului</name><description>Nume: Cotu Cerbului, Tip: cerb, Nivel: 2, Județ: Timis, Formă: Altele, ID: 5679 <br /><b>Variante</b><br />Nume: Cotu Cerbului, Hartă: Geomil 25000, Limbă: Limba română</description><Point><coordinates>21.742855,45.677944,0</coordinates></Point></Placemark>
<Placemark><name>Dealu Cerbului</name><description>Nume: Dealu Cerbului, Tip: cerb, Nivel: 2, Județ: Timis, Formă: Deal, ID: 10308 <br /><b>Variante</b><br />Nume: Dealu Cerbului, Hartă: Geomil 25000, Limbă: Limba română</description><Point><coordinates>22.402883,45.790411,0</coordinates></Point></Placemark>
<Placemark><name>Obârșia Cerbului</name><description>Nume: Obârșia Cerbului, Tip: cerb, Nivel: 2, Județ: Timis, Formă: Altele, ID: 1244 <br /><b>Variante</b><br />Nume: Obârșia Cerbului, Hartă: Geomil 25000, Limbă: Limba română</description><Point><coordinates>21.755784,45.544906,0</coordinates></Point></Placemark>
<Placemark><name>Vârfu Cerbului</name><description>Nume: Vârfu Cerbului, Tip: cerb, Nivel: 2, Județ: Timis, Formă: Înălțime, ID: 11358 <br /><b>Variante</b><br />Nume: Vârfu Cerbului, Hartă: Geomil 25000, Limbă: Limba română</description><Point><coordinates>22.335359,45.700318,0</coordinates></Point></Placemark>
<Placemark><name>Dealul Cerbului</name><description>Nume: Dealul Cerbului, Tip: cerb, Nivel: 2, Județ: Tulcea, Formă: Deal, ID: 2878 <br /><b>Variante</b><br />Nume: Dealul Cerbului, Hartă: Geomil 25000, Limbă: Limba română</description><Point><coordinates>28.658647,44.840375,0</coordinates></Point></Placemark>
<Placemark><name>Dealul Cerbului</name><description>Nume: Dealul Cerbului, Tip: cerb, Nivel: 2, Județ: Tulcea, Formă: Deal, ID: 6694 <br /><b>Variante</b><br />Nume: Dealul Cerbului, Hartă: PDT, Limbă: Limba română</description><Point><coordinates>28.488647,45.168055,0</coordinates></Point></Placemark>
<Placemark><name>Căprioara</name><description>Nume: Căprioara, Tip: căprioară, Nivel: 3, Județ: Valcea, Formă: Vale, ID: 12589 <br /><b>Variante</b><br />Nume: Căprioara, Hartă: Geomil 25000, Limbă: Limba română</description><Point><coordinates>24.057237,45.431227,0</coordinates></Point></Placemark>
<Placemark><name>Dealul Căprioarele</name><description>Nume: Dealul Căprioarele, Tip: căprioară, Nivel: 3, Județ: Valcea, Formă: Deal, ID: 7426 <br /><b>Variante</b><br />Nume: Dealul Căprioarele, Hartă: Geomil 25000, Limbă: Limba română</description><Point><coordinates>23.787649,45.010415,0</coordinates></Point></Placemark>
<Placemark><name>Gruiul Căprioarei</name><description>Nume: Gruiul Căprioarei, Tip: căprioară, Nivel: 3, Județ: Valcea, Formă: Înălțime, ID: 1172 <br /><b>Variante</b><br />Nume: Gruiul Căprioarei, Hartă: Geomil 25000, Limbă: Limba română</description><Point><coordinates>24.117365,45.376392,0</coordinates></Point></Placemark>
<Placemark><name>Pădurea Căprioara</name><description>Nume: Pădurea Căprioara, Tip: căprioară, Nivel: 3, Județ: Valcea, Formă: Pădure, ID: 2959, ID Părinte: 2958 <br /><b>Variante</b><br />Nume: Pădurea Căprioara, Hartă: Geomil 25000, Limbă: Limba română</description><Point><coordinates>24.060531,44.600321,0</coordinates></Point></Placemark>
<Placemark><LineString id="2959_2958"><tessellate>1</tessellate><coordinates>24.060531,44.600321,0.
24.065011,44.603230,0</coordinates></LineString><Style><LineStyle><width>3</width></LineStyle></Style></Placemark>
<Placemark><name>V. Kaprioara</name><description>Nume: V. Kaprioara, Tip: căprioară, Nivel: 3, Județ: Valcea, Formă: Vale, ID: 5831 <br /><b>Variante</b><br />Nume: V. Kaprioara, Hartă: Austriacă, Limbă: Limba română</description><Point><coordinates>24.077199,44.567098,0</coordinates></Point></Placemark>
<Placemark><name>Valea Căprioarei</name><description>Nume: Valea Căprioarei, Tip: căprioară, Nivel: 3, Județ: Valcea, Formă: Vale, ID: 2958 <br /><b>Variante</b><br />Nume: Valea Căprioarei, Hartă: Geomil 25000, Limbă: Limba română<br />Nume: Valea Căprioarei, Hartă: PDT, Limbă: Limba română</description><Point><coordinates>24.065011,44.603230,0</coordinates></Point></Placemark>
<Placemark><name>Valea Căprioarei</name><description>Nume: Valea Căprioarei, Tip: căprioară, Nivel: 3, Județ: Valcea, Formă: Vale, ID: 3089 <br /><b>Variante</b><br />Nume: Valea Căprioarei, Hartă: Geomil 25000, Limbă: Limba română<br />Nume: Valea Căprioarei, Hartă: PDT, Limbă: Limba română</description><Point><coordinates>23.882282,44.701567,0</coordinates></Point></Placemark>
<Placemark><name>Cerbu</name><description>Nume: Cerbu, Tip: cerb, Nivel: 2, Județ: Valcea, Formă: Înălțime, ID: 11349 <br /><b>Variante</b><br />Nume: Cerbu, Hartă: ANCPI, Limbă: Limba română</description><Point><coordinates>23.702563,45.249590,0</coordinates></Point></Placemark>
<Placemark><name>Cerbul</name><description>Nume: Cerbul, Tip: cerb, Nivel: 2, Județ: Valcea, Formă: Vale, ID: 7508 <br /><b>Variante</b><br />Nume: Cerbul, Hartă: Geomil 25000, Limbă: Limba română</description><Point><coordinates>24.360638,45.465069,0</coordinates></Point></Placemark>
<Placemark><name>Coasta Cerbului</name><description>Nume: Coasta Cerbului, Tip: cerb, Nivel: 2, Județ: Valcea, Formă: Înălțime, ID: 3100 <br /><b>Variante</b><br />Nume: Coasta Cerbului, Hartă: Geomil 25000, Limbă: Limba română</description><Point><coordinates>23.920317,45.144079,0</coordinates></Point></Placemark>
<Placemark><name>Coasta Cerbului</name><description>Nume: Coasta Cerbului, Tip: cerb, Nivel: 2, Județ: Valcea, Formă: Localitate, ID: 3101, ID Părinte: 3100 <br /><b>Variante</b><br />Nume: Coasta Cerbului, Hartă: Geomil 25000, Limbă: Limba română</description><Point><coordinates>23.912409,45.138317,0</coordinates></Point></Placemark>
<Placemark><LineString id="3101_3100"><tessellate>1</tessellate><coordinates>23.912409,45.138317,0.
23.920317,45.144079,0</coordinates></LineString><Style><LineStyle><width>3</width></LineStyle></Style></Placemark>
<Placemark><name>Dealul Cerbu</name><description>Nume: Dealul Cerbu, Tip: cerb, Nivel: 2, Județ: Valcea, Formă: Deal, ID: 1449 <br /><b>Variante</b><br />Nume: Dealul Cerbu, Hartă: Geomil 25000, Limbă: Limba română</description><Point><coordinates>24.443089,45.249462,0</coordinates></Point></Placemark>
<Placemark><name>Dealul Cerbului</name><description>Nume: Dealul Cerbului, Tip: cerb, Nivel: 2, Județ: Valcea, Formă: Deal, ID: 10188 <br /><b>Variante</b><br />Nume: Dealul Cerbului, Hartă: Geomil 25000, Limbă: Limba română</description><Point><coordinates>24.362496,45.479068,0</coordinates></Point></Placemark>
<Placemark><name>Dealul la Cerbul Cocoșat</name><description>Nume: Dealul la Cerbul Cocoșat, Tip: cerb, Nivel: 2, Județ: Valcea, Formă: Deal, ID: 12573 <br /><b>Variante</b><br />Nume: Dealul la Cerbul Cocoșat, Hartă: PDT, Limbă: Limba română</description><Point><coordinates>24.010553,44.633266,0</coordinates></Point></Placemark>
<Placemark><name>Dealul Malul Cerbului</name><description>Nume: Dealul Malul Cerbului, Tip: cerb, Nivel: 2, Județ: Valcea, Formă: Deal, ID: 354 <br /><b>Variante</b><br />Nume: Dealul Malul Cerbului, Hartă: Geomil 25000, Limbă: Limba română</description><Point><coordinates>24.206725,45.081758,0</coordinates></Point></Placemark>
<Placemark><name>Malul Cerbului</name><description>Nume: Malul Cerbului, Tip: cerb, Nivel: 2, Județ: Valcea, Formă: Altele, ID: 355 <br /><b>Variante</b><br />Nume: Malul Cerbului, Hartă: Geomil 25000, Limbă: Limba română</description><Point><coordinates>24.207622,45.087172,0</coordinates></Point></Placemark>
<Placemark><name>Piscul Cerbului</name><description>Nume: Piscul Cerbului, Tip: cerb, Nivel: 2, Județ: Valcea, Formă: Înălțime, ID: 8422 <br /><b>Variante</b><br />Nume: Piscul Cerbului, Hartă: PDT, Limbă: Limba română</description><Point><coordinates>23.877731,44.798790,0</coordinates></Point></Placemark>
<Placemark><name>Piscul Cerbului</name><description>Nume: Piscul Cerbului, Tip: cerb, Nivel: 2, Județ: Valcea, Formă: Înălțime, ID: 12561 <br /><b>Variante</b><br />Nume: Piscul Cerbului, Hartă: Geomil 25000, Limbă: Limba română</description><Point><coordinates>24.149452,45.448650,0</coordinates></Point></Placemark>
<Placemark><name>Poiana Cerbului</name><description>Nume: Poiana Cerbului, Tip: cerb, Nivel: 2, Județ: Valcea, Formă: Poiană, ID: 10187 <br /><b>Variante</b><br />Nume: Poiana Cerbului, Hartă: Geomil 25000, Limbă: Limba română</description><Point><coordinates>24.402680,45.520379,0</coordinates></Point></Placemark>
<Placemark><name>Valea Cerbul</name><description>Nume: Valea Cerbul, Tip: cerb, Nivel: 2, Județ: Valcea, Formă: Vale, ID: 11107, ID Părinte: 1449 <br /><b>Variante</b><br />Nume: Valea Cerbul, Hartă: PDT, Limbă: Limba română</description><Point><coordinates>24.435007,45.258523,0</coordinates></Point></Placemark>
<Placemark><LineString id="11107_1449"><tessellate>1</tessellate><coordinates>24.435007,45.258523,0.
24.443089,45.249462,0</coordinates></LineString><Style><LineStyle><width>3</width></LineStyle></Style></Placemark>
<Placemark><name>Valea Cerbului</name><description>Nume: Valea Cerbului, Tip: cerb, Nivel: 2, Județ: Valcea, Formă: Vale, ID: 9385 <br /><b>Variante</b><br />Nume: Valea Cerbului, Hartă: PDT, Limbă: Limba română</description><Point><coordinates>23.927837,44.806827,0</coordinates></Point></Placemark>
<Placemark><name>Dealul Căprioarei</name><description>Nume: Dealul Căprioarei, Tip: căprioară, Nivel: 3, Județ: Vaslui, Formă: Deal, ID: 1664 <br /><b>Variante</b><br />Nume: Dealul Căprioarei, Hartă: Geomil 25000, Limbă: Limba română</description><Point><coordinates>27.433993,46.807392,0</coordinates></Point></Placemark>
<Placemark><name>Dealul Căprioarei</name><description>Nume: Dealul Căprioarei, Tip: căprioară, Nivel: 3, Județ: Vaslui, Formă: Deal, ID: 7383 <br /><b>Variante</b><br />Nume: Dealul Căprioarei, Hartă: Geomil 25000, Limbă: Limba română</description><Point><coordinates>27.851057,46.242199,0</coordinates></Point></Placemark>
<Placemark><name>Poiana Căprioarei</name><description>Nume: Poiana Căprioarei, Tip: căprioară, Nivel: 3, Județ: Vaslui, Formă: Poiană, ID: 4613 <br /><b>Variante</b><br />Nume: Poiana Căprioarei, Hartă: Geomil 25000, Limbă: Limba română</description><Point><coordinates>27.647404,46.591357,0</coordinates></Point></Placemark>
<Placemark><name>Căprioarei</name><description>Nume: Căprioarei, Tip: căprioară, Nivel: 3, Județ: Vrancea, Formă: Altele, ID: 9605 <br /><b>Variante</b><br />Nume: Căprioarei, Hartă: Moldova (1892-1898), Limbă: Limba română</description><Point><coordinates>27.484658,45.535558,0</coordinates></Point></Placemark>
<Placemark><name>Cerbu</name><description>Nume: Cerbu, Tip: cerb, Nivel: 2, Județ: Vrancea, Formă: Localitate, ID: 5243 <br /><b>Variante</b><br />Nume: Cerbu, Hartă: Geomil 25000, Limbă: Limba română</description><Point><coordinates>26.715781,45.595499,0</coordinates></Point></Placemark>
<Placemark><name>Dealul Cerbului</name><description>Nume: Dealul Cerbului, Tip: cerb, Nivel: 2, Județ: Vrancea, Formă: Deal, ID: 9193 <br /><b>Variante</b><br />Nume: Dealul Cerbului, Hartă: PDT, Limbă: Limba română</description><Point><coordinates>26.698596,45.991527,0</coordinates></Point></Placemark>
<Placemark><name>La Coarnele Cerbului</name><description>Nume: La Coarnele Cerbului, Tip: cerb, Nivel: 2, Județ: Vrancea, Formă: Altele, ID: 5354 <br /><b>Variante</b><br />Nume: La Coarnele Cerbului, Hartă: PDT, Limbă: Limba română</description><Point><coordinates>26.799237,45.902996,0</coordinates></Point></Placemark>
<Placemark><name>Pârâul Cerbului</name><description>Nume: Pârâul Cerbului, Tip: cerb, Nivel: 2, Județ: Vrancea, Formă: Vale, ID: 697, ID Părinte: 9193 <br /><b>Variante</b><br />Nume: Pârâul Cerbului, Hartă: Geomil 25000, Limbă: Limba română</description><Point><coordinates>26.685262,45.993171,0</coordinates></Point></Placemark>
<Placemark><LineString id="697_9193"><tessellate>1</tessellate><coordinates>26.685262,45.993171,0.
26.698596,45.991527,0</coordinates></LineString><Style><LineStyle><width>3</width></LineStyle></Style></Placemark>
<Placemark><name>Pârâul Cerbului</name><description>Nume: Pârâul Cerbului, Tip: cerb, Nivel: 2, Județ: Vrancea, Formă: Vale, ID: 9202 <br /><b>Variante</b><br />Nume: Pârâul Cerbului, Hartă: PDT, Limbă: Limba română</description><Point><coordinates>26.943452,46.050418,0</coordinates></Point></Placemark>
<Placemark><name>Pârâul Cerbului</name><description>Nume: Pârâul Cerbului, Tip: cerb, Nivel: 2, Județ: Vrancea, Formă: Vale, ID: 9246, ID Părinte: 5243 <br /><b>Variante</b><br />Nume: Pârâul Cerbului, Hartă: PDT, Limbă: Limba română</description><Point><coordinates>26.717434,45.607938,0</coordinates></Point></Placemark>
<Placemark><LineString id="9246_5243"><tessellate>1</tessellate><coordinates>26.717434,45.607938,0.
26.715781,45.595499,0</coordinates></LineString><Style><LineStyle><width>3</width></LineStyle></Style></Placemark>