<?xml version="1.0" encoding="UTF-8"?><kml xmlns="http://www.opengis.net/kml/2.2"><Document><Placemark><name>Lingurari</name><description>Nume: Lingurari, Tip: lingurari, Nivel: 3, Județ: Bacau, Formă: Localitate, ID: 7832 <br /><b>Variante</b><br />Nume: Lingurari, Hartă: Geomil 25000, Limbă: Limba română</description><Point><coordinates>26.994889,46.235834,0</coordinates></Point></Placemark>
<Placemark><name>Lingurari</name><description>Nume: Lingurari, Tip: lingurari, Nivel: 3, Județ: Bacau, Formă: Localitate, ID: 9599 <br /><b>Variante</b><br />Nume: Lingurari, Hartă: Moldova (1892-1898), Limbă: Limba română</description><Point><coordinates>26.745802,46.625359,0</coordinates></Point></Placemark>
<Placemark><name>Poiana Lingurari</name><description>Nume: Poiana Lingurari, Tip: lingurari, Nivel: 3, Județ: Bacau, Formă: Poiană, ID: 12342, ID Părinte: 9599 <br /><b>Variante</b><br />Nume: Poiana Lingurari, Hartă: PDT, Limbă: Limba română</description><Point><coordinates>26.732097,46.640550,0</coordinates></Point></Placemark>
<Placemark><LineString id="12342_9599"><tessellate>1</tessellate><coordinates>26.732097,46.640550,0.
26.745802,46.625359,0</coordinates></LineString><Style><LineStyle><width>3</width></LineStyle></Style></Placemark>
<Placemark><name>Valea Lingurari</name><description>Nume: Valea Lingurari, Tip: lingurari, Nivel: 3, Județ: Bacau, Formă: Vale, ID: 8868 <br /><b>Variante</b><br />Nume: Valea Lingurari, Hartă: PDT, Limbă: Limba română</description><Point><coordinates>27.210519,46.682589,0</coordinates></Point></Placemark>
<Placemark><name>Valea Lingurarilor</name><description>Nume: Valea Lingurarilor, Tip: lingurari, Nivel: 3, Județ: Bacau, Formă: Vale, ID: 7831, ID Părinte: 7832 <br /><b>Variante</b><br />Nume: Valea Lingurarilor, Hartă: Geomil 25000, Limbă: Limba română</description><Point><coordinates>26.974161,46.236494,0</coordinates></Point></Placemark>
<Placemark><LineString id="7831_7832"><tessellate>1</tessellate><coordinates>26.974161,46.236494,0.
26.994889,46.235834,0</coordinates></LineString><Style><LineStyle><width>3</width></LineStyle></Style></Placemark>
<Placemark><name>La Balta Lingurarilor</name><description>Nume: La Balta Lingurarilor, Tip: lingurari, Nivel: 3, Județ: Botosani, Formă: Apă-deal-câmpie, ID: 8936 <br /><b>Variante</b><br />Nume: La Balta Lingurarilor, Hartă: Geomil 25000, Limbă: Limba română</description><Point><coordinates>27.253737,47.765600,0</coordinates></Point></Placemark>
<Placemark><name>Poiana Lingurarilor</name><description>Nume: Poiana Lingurarilor, Tip: lingurari, Nivel: 3, Județ: Botosani, Formă: Poiană, ID: 9562 <br /><b>Variante</b><br />Nume: Poiana Lingurarilor, Hartă: Geomil 25000, Limbă: Limba română</description><Point><coordinates>26.800114,47.505616,0</coordinates></Point></Placemark>
<Placemark><name>Dealul Lingurar</name><description>Nume: Dealul Lingurar, Tip: lingurari, Nivel: 3, Județ: Iasi, Formă: Deal, ID: 8885 <br /><b>Variante</b><br />Nume: Dealul Lingurar, Hartă: PDT, Limbă: Limba română</description><Point><coordinates>26.968151,47.095558,0</coordinates></Point></Placemark>
<Placemark><name>Dealul Rotunda-Lingurari</name><description>Nume: Dealul Rotunda-Lingurari, Tip: lingurari, Nivel: 3, Județ: Iasi, Formă: Deal, ID: 7294 <br /><b>Variante</b><br />Nume: Dealul Rotunda-Lingurari, Hartă: Geomil 25000, Limbă: Limba română</description><Point><coordinates>27.320435,46.942490,0</coordinates></Point></Placemark>
<Placemark><name>La Lingurari</name><description>Nume: La Lingurari, Tip: lingurari, Nivel: 3, Județ: Iasi, Formă: Localitate, ID: 13626 <br /><b>Variante</b><br />Nume: La Lingurari, Hartă: Geomil 25000, Limbă: Limba română</description><Point><coordinates>27.430414,46.986711,0</coordinates></Point></Placemark>
<Placemark><name>Lingurari</name><description>Nume: Lingurari, Tip: lingurari, Nivel: 3, Județ: Iasi, Formă: Localitate, ID: 9854 <br /><b>Variante</b><br />Nume: Lingurari, Hartă: Moldova (1892-1898), Limbă: Limba română</description><Point><coordinates>27.564785,46.950524,0</coordinates></Point></Placemark>
<Placemark><name>Lingurari</name><description>Nume: Lingurari, Tip: lingurari, Nivel: 3, Județ: Iasi, Formă: Altele, ID: 11397 <br /><b>Variante</b><br />Nume: Lingurari, Hartă: Geomil 25000, Limbă: Limba română</description><Point><coordinates>26.624871,47.237565,0</coordinates></Point></Placemark>
<Placemark><name>Dealul Lingurarilor</name><description>Nume: Dealul Lingurarilor, Tip: lingurari, Nivel: 3, Județ: Neamt, Formă: Deal, ID: 11640 <br /><b>Variante</b><br />Nume: Dealul Lingurarilor, Hartă: Geomil 25000, Limbă: Limba română</description><Point><coordinates>27.001496,46.886674,0</coordinates></Point></Placemark>
<Placemark><name>La Lingurari</name><description>Nume: La Lingurari, Tip: lingurari, Nivel: 3, Județ: Neamt, Formă: Altele, ID: 3849 <br /><b>Variante</b><br />Nume: La Lingurari, Hartă: Geomil 25000, Limbă: Limba română</description><Point><coordinates>26.516697,46.725048,0</coordinates></Point></Placemark>
<Placemark><name>Lingurari</name><description>Nume: Lingurari, Tip: lingurari, Nivel: 3, Județ: Neamt, Formă: Localitate, ID: 3875 <br /><b>Variante</b><br />Nume: Lingurari, Hartă: PDT, Limbă: Limba română</description><Point><coordinates>26.437756,47.130650,0</coordinates></Point></Placemark>
<Placemark><name>Lingurari</name><description>Nume: Lingurari, Tip: lingurari, Nivel: 3, Județ: Neamt, Formă: Altele, ID: 11396 <br /><b>Variante</b><br />Nume: Lingurari, Hartă: Geomil 25000, Limbă: Limba română</description><Point><coordinates>26.518479,47.127122,0</coordinates></Point></Placemark>
<Placemark><name>Pădurea Lingurarilor</name><description>Nume: Pădurea Lingurarilor, Tip: lingurari, Nivel: 3, Județ: Neamt, Formă: Pădure, ID: 14055, ID Părinte: 8908 <br /><b>Variante</b><br />Nume: Pădurea Lingurarilor, Hartă: Geomil 25000, Limbă: Limba română</description><Point><coordinates>26.330417,47.271885,0</coordinates></Point></Placemark>
<Placemark><LineString id="14055_8908"><tessellate>1</tessellate><coordinates>26.330417,47.271885,0.
26.331748,47.265194,0</coordinates></LineString><Style><LineStyle><width>3</width></LineStyle></Style></Placemark>
<Placemark><name>Poiana Lingurari</name><description>Nume: Poiana Lingurari, Tip: lingurari, Nivel: 3, Județ: Neamt, Formă: Poiană, ID: 8908 <br /><b>Variante</b><br />Nume: Poiana Lingurari, Hartă: PDT, Limbă: Limba română</description><Point><coordinates>26.331748,47.265194,0</coordinates></Point></Placemark>
<Placemark><name>Dealul Lingurarului</name><description>Nume: Dealul Lingurarului, Tip: lingurar, Nivel: 4, Județ: Suceava, Formă: Deal, ID: 14047 <br /><b>Variante</b><br />Nume: Dealul Lingurarului, Hartă: Moldova (1892-1898), Limbă: Limba română</description><Point><coordinates>26.588188,47.416465,0</coordinates></Point></Placemark>
<Placemark><name>Dealul Lingurarilor</name><description>Nume: Dealul Lingurarilor, Tip: lingurari, Nivel: 3, Județ: Suceava, Formă: Deal, ID: 13525 <br /><b>Variante</b><br />Nume: Dealul Lingurarilor, Hartă: Geomil 25000, Limbă: Limba română</description><Point><coordinates>26.195249,47.397832,0</coordinates></Point></Placemark>
<Placemark><name>Lingurari</name><description>Nume: Lingurari, Tip: lingurari, Nivel: 3, Județ: Suceava, Formă: Localitate, ID: 8917 <br /><b>Variante</b><br />Nume: Lingurari, Hartă: PDT, Limbă: Limba română</description><Point><coordinates>26.594258,47.389301,0</coordinates></Point></Placemark>
<Placemark><name>Pârâul Lingurarilor</name><description>Nume: Pârâul Lingurarilor, Tip: lingurari, Nivel: 3, Județ: Suceava, Formă: Vale, ID: 9079 <br /><b>Variante</b><br />Nume: Pârâul Lingurarilor, Hartă: PDT, Limbă: Limba română</description><Point><coordinates>25.934239,47.329275,0</coordinates></Point></Placemark>
<Placemark><name>Lingurari</name><description>Nume: Lingurari, Tip: lingurari, Nivel: 3, Județ: Valcea, Formă: Localitate, ID: 8435 <br /><b>Variante</b><br />Nume: Lingurari, Hartă: PDT, Limbă: Limba română</description><Point><coordinates>24.198114,44.926980,0</coordinates></Point></Placemark>
<Placemark><name>Dealul Lingurarilor</name><description>Nume: Dealul Lingurarilor, Tip: lingurari, Nivel: 3, Județ: Vaslui, Formă: Deal, ID: 4624, ID Părinte: 7286 <br /><b>Variante</b><br />Nume: Dealul Lingurarilor, Hartă: Geomil 25000, Limbă: Limba română</description><Point><coordinates>27.420207,46.618352,0</coordinates></Point></Placemark>
<Placemark><LineString id="4624_7286"><tessellate>1</tessellate><coordinates>27.420207,46.618352,0.
27.436635,46.595362,0</coordinates></LineString><Style><LineStyle><width>3</width></LineStyle></Style></Placemark>
<Placemark><name>Lingurari</name><description>Nume: Lingurari, Tip: lingurari, Nivel: 3, Județ: Vaslui, Formă: Localitate, ID: 4629 <br /><b>Variante</b><br />Nume: Lingurari, Hartă: PDT, Limbă: Limba română</description><Point><coordinates>27.590249,46.605532,0</coordinates></Point></Placemark>
<Placemark><name>Lingurari</name><description>Nume: Lingurari, Tip: lingurari, Nivel: 3, Județ: Vaslui, Formă: Localitate, ID: 7305 <br /><b>Variante</b><br />Nume: Lingurari, Hartă: PDT, Limbă: Limba română</description><Point><coordinates>27.425501,46.830568,0</coordinates></Point></Placemark>
<Placemark><name>Lingurari</name><description>Nume: Lingurari, Tip: lingurari, Nivel: 3, Județ: Vaslui, Formă: Localitate, ID: 9545 <br /><b>Variante</b><br />Nume: Lingurari, Hartă: Moldova (1892-1898), Limbă: Limba română</description><Point><coordinates>27.758018,46.819639,0</coordinates></Point></Placemark>
<Placemark><name>Lingurari din Tăetură</name><description>Nume: Lingurari din Tăetură, Tip: lingurari, Nivel: 3, Județ: Vaslui, Formă: Localitate, ID: 9617 <br /><b>Variante</b><br />Nume: Lingurari din Tăetură, Hartă: Moldova (1892-1898), Limbă: Limba română</description><Point><coordinates>27.940892,46.523583,0</coordinates></Point></Placemark>
<Placemark><name>Obârșenii Lingurari</name><description>Nume: Obârșenii Lingurari, Tip: lingurari, Nivel: 3, Județ: Vaslui, Formă: Localitate, ID: 7286 <br /><b>Variante</b><br />Nume: Obârșenii Lingurari, Hartă: Geomil 25000, Limbă: Limba română<br />Nume: Obârșeni Lingurari, Hartă: PDT, Limbă: Limba română</description><Point><coordinates>27.436635,46.595362,0</coordinates></Point></Placemark></Document></kml>