<?xml version="1.0" encoding="UTF-8"?><kml xmlns="http://www.opengis.net/kml/2.2"><Document><Placemark><name>Capu Șatrei</name><description>Nume: Capu Șatrei, Tip: șatră, Nivel: 3, Județ: Cluj, Formă: Înălțime, ID: 7031 <br /><b>Variante</b><br />Nume: Capu Șatrei, Hartă: Geomil 25000, Limbă: Limba română</description><Point><coordinates>23.239882,46.785332,0</coordinates></Point></Placemark>
<Placemark><name>Dealu Șatrei</name><description>Nume: Dealu Șatrei, Tip: șatră, Nivel: 3, Județ: Cluj, Formă: Deal, ID: 7030, ID Părinte: 7031 <br /><b>Variante</b><br />Nume: Dealu Șatrei, Hartă: Geomil 25000, Limbă: Limba română</description><Point><coordinates>23.237808,46.782241,0</coordinates></Point></Placemark>
<Placemark><LineString id="7030_7031"><tessellate>1</tessellate><coordinates>23.237808,46.782241,0.
23.239882,46.785332,0</coordinates></LineString><Style><LineStyle><width>3</width></LineStyle></Style></Placemark>
<Placemark><name>Dealul Șatrei</name><description>Nume: Dealul Șatrei, Tip: șatră, Nivel: 3, Județ: Cluj, Formă: Deal, ID: 5873, ID Părinte: 5872 <br /><b>Variante</b><br />Nume: Dealul Șatrei, Hartă: Geomil 25000, Limbă: Limba română</description><Point><coordinates>24.063962,46.846317,0</coordinates></Point></Placemark>
<Placemark><LineString id="5873_5872"><tessellate>1</tessellate><coordinates>24.063962,46.846317,0.
24.070671,46.843312,0</coordinates></LineString><Style><LineStyle><width>3</width></LineStyle></Style></Placemark>
<Placemark><name>Pădurea Șatrei</name><description>Nume: Pădurea Șatrei, Tip: șatră, Nivel: 3, Județ: Cluj, Formă: Pădure, ID: 7029, ID Părinte: 7031 <br /><b>Variante</b><br />Nume: Pădurea Șatrei, Hartă: Geomil 25000, Limbă: Limba română</description><Point><coordinates>23.254816,46.772457,0</coordinates></Point></Placemark>
<Placemark><LineString id="7029_7031"><tessellate>1</tessellate><coordinates>23.254816,46.772457,0.
23.239882,46.785332,0</coordinates></LineString><Style><LineStyle><width>3</width></LineStyle></Style></Placemark>
<Placemark><name>Pe Șatră</name><description>Nume: Pe Șatră, Tip: șatră, Nivel: 3, Județ: Cluj, Formă: Altele, ID: 5872 <br /><b>Variante</b><br />Nume: Pe Șatră, Hartă: Geomil 25000, Limbă: Limba română</description><Point><coordinates>24.070671,46.843312,0</coordinates></Point></Placemark>
<Placemark><name>La Șatra</name><description>Nume: La Șatra, Tip: șatră, Nivel: 3, Județ: Giurgiu, Formă: Altele, ID: 4236 <br /><b>Variante</b><br />Nume: La Șatra, Hartă: PDT, Limbă: Limba română</description><Point><coordinates>25.724009,44.505747,0</coordinates></Point></Placemark>
<Placemark><name>Puțul de la Șatră</name><description>Nume: Puțul de la Șatră, Tip: șatră, Nivel: 3, Județ: Giurgiu, Formă: Altele, ID: 4237, ID Părinte: 4236 <br /><b>Variante</b><br />Nume: Puțul de la Șatră, Hartă: PDT, Limbă: Limba română</description><Point><coordinates>25.728160,44.504348,0</coordinates></Point></Placemark>
<Placemark><LineString id="4237_4236"><tessellate>1</tessellate><coordinates>25.728160,44.504348,0.
25.724009,44.505747,0</coordinates></LineString><Style><LineStyle><width>3</width></LineStyle></Style></Placemark>
<Placemark><name>Sub Șatră</name><description>Nume: Sub Șatră, Tip: șatră, Nivel: 3, Județ: Maramures, Formă: Altele, ID: 8233 <br /><b>Variante</b><br />Nume: Sub Șatră, Hartă: PDT, Limbă: Limba română</description><Point><coordinates>23.836479,47.575243,0</coordinates></Point></Placemark>
<Placemark><name>Șatra</name><description>Nume: Șatra, Tip: șatră, Nivel: 3, Județ: Timis, Formă: Altele, ID: 7641 <br /><b>Variante</b><br />Nume: Șatra, Hartă: Geomil 25000, Limbă: Limba română</description><Point><coordinates>21.523739,45.733406,0</coordinates></Point></Placemark></Document></kml>