<?xml version="1.0" encoding="UTF-8"?><kml xmlns="http://www.opengis.net/kml/2.2"><Document><Placemark><name>Dealu Varului</name><description>Nume: Dealu Varului, Tip: var, Nivel: 3, Județ: Alba, Formă: Deal, ID: 5574 <br /><b>Variante</b><br />Nume: Dealu Varului, Hartă: Geomil 25000, Limbă: Limba română</description><Point><coordinates>23.441169,46.093873,0</coordinates></Point></Placemark>
<Placemark><name>Piatra Varului</name><description>Nume: Piatra Varului, Tip: var, Nivel: 3, Județ: Alba, Formă: Înălțime, ID: 1155 <br /><b>Variante</b><br />Nume: Piatra Varului, Hartă: Geomil 25000, Limbă: Limba română</description><Point><coordinates>23.628403,45.824385,0</coordinates></Point></Placemark>
<Placemark><name>Cioaca Varnița</name><description>Nume: Cioaca Varnița, Tip: varniță, Nivel: 3, Județ: Arad, Formă: Înălțime, ID: 15028 <br /><b>Variante</b><br />Nume: Cioaca Varnița, Hartă: PDT, Limbă: Limba română</description><Point><coordinates>21.742990,46.232317,0</coordinates></Point></Placemark>
<Placemark><name>Cioaca Varnițelor</name><description>Nume: Cioaca Varnițelor, Tip: varniță, Nivel: 3, Județ: Arad, Formă: Înălțime, ID: 14253 <br /><b>Variante</b><br />Nume: Cioaca Varnițelor, Hartă: PDT, Limbă: Limba română</description><Point><coordinates>21.740589,46.274909,0</coordinates></Point></Placemark>
<Placemark><name>Dealu Varniței</name><description>Nume: Dealu Varniței, Tip: varniță, Nivel: 3, Județ: Arad, Formă: Deal, ID: 6309 <br /><b>Variante</b><br />Nume: Dealu Varniței, Hartă: Geomil 25000, Limbă: Limba română</description><Point><coordinates>21.977403,46.071643,0</coordinates></Point></Placemark>
<Placemark><name>Valea Varniței</name><description>Nume: Valea Varniței, Tip: varniță, Nivel: 3, Județ: Arad, Formă: Vale, ID: 15029 <br /><b>Variante</b><br />Nume: Valea Varniței, Hartă: PDT, Limbă: Limba română</description><Point><coordinates>21.685388,46.199252,0</coordinates></Point></Placemark>
<Placemark><name>Varnița</name><description>Nume: Varnița, Tip: varniță, Nivel: 3, Județ: Arad, Formă: Localitate, ID: 6307 <br /><b>Variante</b><br />Nume: Varnița, Hartă: Geomil 25000, Limbă: Limba română</description><Point><coordinates>21.805803,46.022790,0</coordinates></Point></Placemark>
<Placemark><name>Culmea Varului</name><description>Nume: Culmea Varului, Tip: var, Nivel: 3, Județ: Arges, Formă: Înălțime, ID: 11050 <br /><b>Variante</b><br />Nume: Culmea Varului, Hartă: Geomil 25000, Limbă: Limba română</description><Point><coordinates>24.770119,45.399885,0</coordinates></Point></Placemark>
<Placemark><name>Valea Varului</name><description>Nume: Valea Varului, Tip: var, Nivel: 3, Județ: Arges, Formă: Vale, ID: 555 <br /><b>Variante</b><br />Nume: Valea Varului, Hartă: Geomil 25000, Limbă: Limba română</description><Point><coordinates>25.068314,45.164697,0</coordinates></Point></Placemark>
<Placemark><name>Valea Vărarului</name><description>Nume: Valea Vărarului, Tip: vărar, Nivel: 3, Județ: Arges, Formă: Vale, ID: 5021 <br /><b>Variante</b><br />Nume: Valea Vărarului, Hartă: Geomil 25000, Limbă: Limba română</description><Point><coordinates>25.002337,45.353071,0</coordinates></Point></Placemark>
<Placemark><name>Valea Varniței</name><description>Nume: Valea Varniței, Tip: varniță, Nivel: 3, Județ: Arges, Formă: Vale, ID: 5070 <br /><b>Variante</b><br />Nume: Valea Varniței, Hartă: PDT, Limbă: Limba română</description><Point><coordinates>24.635602,45.261851,0</coordinates></Point></Placemark>
<Placemark><name>Valea Varniții</name><description>Nume: Valea Varniții, Tip: varniță, Nivel: 3, Județ: Arges, Formă: Vale, ID: 4965 <br /><b>Variante</b><br />Nume: Valea Varniții, Hartă: Geomil 25000, Limbă: Limba română</description><Point><coordinates>24.966820,45.204192,0</coordinates></Point></Placemark>
<Placemark><name>La Vărărie</name><description>Nume: La Vărărie, Tip: vărărie, Nivel: 3, Județ: Bacau, Formă: Altele, ID: 9956 <br /><b>Variante</b><br />Nume: La Vărărie, Hartă: Moldova (1892-1898), Limbă: Limba română</description><Point><coordinates>26.459185,46.570452,0</coordinates></Point></Placemark>
<Placemark><name>Valea Vărăria</name><description>Nume: Valea Vărăria, Tip: vărărie, Nivel: 3, Județ: Bacau, Formă: Vale, ID: 7886 <br /><b>Variante</b><br />Nume: Valea Vărăria, Hartă: PDT, Limbă: Limba română</description><Point><coordinates>27.168807,46.361675,0</coordinates></Point></Placemark>
<Placemark><name>Valea Vărăriei</name><description>Nume: Valea Vărăriei, Tip: vărărie, Nivel: 3, Județ: Bacau, Formă: Vale, ID: 1734 <br /><b>Variante</b><br />Nume: Valea Vărăriei, Hartă: Geomil 25000, Limbă: Limba română<br />Nume: Valea Vărăriei, Hartă: PDT, Limbă: Limba română</description><Point><coordinates>27.026388,46.161373,0</coordinates></Point></Placemark>
<Placemark><name>Valea Vărăriei</name><description>Nume: Valea Vărăriei, Tip: vărărie, Nivel: 3, Județ: Bacau, Formă: Vale, ID: 13644 <br /><b>Variante</b><br />Nume: Valea Vărăriei, Hartă: Geomil 25000, Limbă: Limba română</description><Point><coordinates>27.382368,46.285514,0</coordinates></Point></Placemark>
<Placemark><name>Vărărie</name><description>Nume: Vărărie, Tip: vărărie, Nivel: 3, Județ: Bacau, Formă: Altele, ID: 5327 <br /><b>Variante</b><br />Nume: Vărărie, Hartă: PDT, Limbă: Limba română</description><Point><coordinates>26.678970,46.309835,0</coordinates></Point></Placemark>
<Placemark><name>La Varniță</name><description>Nume: La Varniță, Tip: varniță, Nivel: 3, Județ: Bacau, Formă: Altele, ID: 7856 <br /><b>Variante</b><br />Nume: La Varniță, Hartă: Geomil 25000, Limbă: Limba română</description><Point><coordinates>27.054488,46.540958,0</coordinates></Point></Placemark>
<Placemark><name>Varnița</name><description>Nume: Varnița, Tip: varniță, Nivel: 3, Județ: Bacau, Formă: Altele, ID: 5315 <br /><b>Variante</b><br />Nume: Varnița, Hartă: Geomil 25000, Limbă: Limba română</description><Point><coordinates>26.712738,46.249067,0</coordinates></Point></Placemark>
<Placemark><name>Dealul Varului</name><description>Nume: Dealul Varului, Tip: var, Nivel: 3, Județ: Bihor, Formă: Deal, ID: 4159 <br /><b>Variante</b><br />Nume: Dealul Varului, Hartă: PDT, Limbă: Limba română<br />Nume: Dealul Varului, Hartă: Geomil 25000, Limbă: Limba română</description><Point><coordinates>22.269267,46.983689,0</coordinates></Point></Placemark>
<Placemark><name>Dialu Varului</name><description>Nume: Dialu Varului, Tip: var, Nivel: 3, Județ: Bihor, Formă: Deal, ID: 10382 <br /><b>Variante</b><br />Nume: Dialu Varului, Hartă: Ungară 1869, Limbă: Limba română</description><Point><coordinates>22.585974,47.062584,0</coordinates></Point></Placemark>
<Placemark><name>Culmea Vărarilor</name><description>Nume: Culmea Vărarilor, Tip: vărar, Nivel: 3, Județ: Bihor, Formă: Înălțime, ID: 4186 <br /><b>Variante</b><br />Nume: Culmea Vărarilor, Hartă: PDT, Limbă: Limba română</description><Point><coordinates>22.276839,47.091872,0</coordinates></Point></Placemark>
<Placemark><name>Vărăria</name><description>Nume: Vărăria, Tip: vărărie, Nivel: 3, Județ: Bihor, Formă: Altele, ID: 4167 <br /><b>Variante</b><br />Nume: Vărăria, Hartă: PDT, Limbă: Limba română</description><Point><coordinates>22.404739,46.957581,0</coordinates></Point></Placemark>
<Placemark><name>Varnița</name><description>Nume: Varnița, Tip: varniță, Nivel: 3, Județ: Bihor, Formă: Altele, ID: 4079 <br /><b>Variante</b><br />Nume: Varnița, Hartă: PDT, Limbă: Limba română</description><Point><coordinates>22.318594,46.584533,0</coordinates></Point></Placemark>
<Placemark><name>Pârâul Varului</name><description>Nume: Pârâul Varului, Tip: var, Nivel: 3, Județ: Bistrita Nasaud, Formă: Vale, ID: 7111 <br /><b>Variante</b><br />Nume: Pârâul Varului, Hartă: PDT, Limbă: Limba română</description><Point><coordinates>24.279170,47.302351,0</coordinates></Point></Placemark>
<Placemark><name>Valea Varului</name><description>Nume: Valea Varului, Tip: var, Nivel: 3, Județ: Bistrita Nasaud, Formă: Vale, ID: 7096 <br /><b>Variante</b><br />Nume: Valea Varului, Hartă: Geomil 25000, Limbă: Limba română</description><Point><coordinates>24.040798,47.341616,0</coordinates></Point></Placemark>
<Placemark><name>Vărăria</name><description>Nume: Vărăria, Tip: vărărie, Nivel: 3, Județ: Bistrita Nasaud, Formă: Vale, ID: 13761 <br /><b>Variante</b><br />Nume: Vărăria, Hartă: Geomil 25000, Limbă: Limba română</description><Point><coordinates>24.948776,47.217786,0</coordinates></Point></Placemark>
<Placemark><name>Dealul Vărăriei</name><description>Nume: Dealul Vărăriei, Tip: vărărie, Nivel: 3, Județ: Botosani, Formă: Deal, ID: 1756 <br /><b>Variante</b><br />Nume: Dealul Vărăriei, Hartă: Geomil 25000, Limbă: Limba română</description><Point><coordinates>26.806589,47.576871,0</coordinates></Point></Placemark>
<Placemark><name>La Vărărie</name><description>Nume: La Vărărie, Tip: vărărie, Nivel: 3, Județ: Botosani, Formă: Altele, ID: 2008 <br /><b>Variante</b><br />Nume: La Vărărie, Hartă: Geomil 25000, Limbă: Limba română<br />Nume: La Vărărie, Hartă: PDT, Limbă: Limba română</description><Point><coordinates>26.636905,48.239526,0</coordinates></Point></Placemark>
<Placemark><name>Pădurea Varniței</name><description>Nume: Pădurea Varniței, Tip: varniță, Nivel: 3, Județ: Botosani, Formă: Pădure, ID: 1759 <br /><b>Variante</b><br />Nume: Pădurea Varniței, Hartă: Geomil 25000, Limbă: Limba română</description><Point><coordinates>26.815441,47.605085,0</coordinates></Point></Placemark>
<Placemark><name>Dealul Varului</name><description>Nume: Dealul Varului, Tip: var, Nivel: 3, Județ: Brasov, Formă: Deal, ID: 13293 <br /><b>Variante</b><br />Nume: Dealul Varului, Hartă: Geomil 25000, Limbă: Limba română</description><Point><coordinates>25.501862,45.981989,0</coordinates></Point></Placemark>
<Placemark><name>Groapa cu Var</name><description>Nume: Groapa cu Var, Tip: var, Nivel: 3, Județ: Brasov, Formă: Altele, ID: 6840 <br /><b>Variante</b><br />Nume: Groapa cu Var, Hartă: PDT, Limbă: Limba română</description><Point><coordinates>25.586517,45.610839,0</coordinates></Point></Placemark>
<Placemark><name>Dealul Varniței</name><description>Nume: Dealul Varniței, Tip: varniță, Nivel: 3, Județ: Brasov, Formă: Deal, ID: 13846 <br /><b>Variante</b><br />Nume: Dealul Varniței, Hartă: Geomil 25000, Limbă: Limba română</description><Point><coordinates>25.769506,45.630554,0</coordinates></Point></Placemark>
<Placemark><name>Movila Varniței</name><description>Nume: Movila Varniței, Tip: varniță, Nivel: 3, Județ: Brasov, Formă: Înălțime, ID: 6845 <br /><b>Variante</b><br />Nume: Movila Varniței, Hartă: PDT, Limbă: Limba română</description><Point><coordinates>25.618458,45.602368,0</coordinates></Point></Placemark>
<Placemark><name>Pârâul Varnița</name><description>Nume: Pârâul Varnița, Tip: varniță, Nivel: 3, Județ: Brasov, Formă: Vale, ID: 15175 <br /><b>Variante</b><br />Nume: Pârâul Varnița, Hartă: Munții noștri, Limbă: Limba română</description><Point><coordinates>25.357869,45.449885,0</coordinates></Point></Placemark>
<Placemark><name>Părâul Varniței</name><description>Nume: Părâul Varniței, Tip: varniță, Nivel: 3, Județ: Brasov, Formă: Vale, ID: 10533 <br /><b>Variante</b><br />Nume: Părâul Varniței, Hartă: Imperiul Habsburgic (1887), Limbă: Limba română</description><Point><coordinates>25.341297,45.817930,0</coordinates></Point></Placemark>
<Placemark><name>Valea Varnițelor</name><description>Nume: Valea Varnițelor, Tip: varniță, Nivel: 3, Județ: Buzau, Formă: Vale, ID: 6034 <br /><b>Variante</b><br />Nume: Valea Varnițelor, Hartă: Geomil 25000, Limbă: Limba română<br />Nume: Gârla Varnițelor, Hartă: PDT, Limbă: Limba română</description><Point><coordinates>26.413845,45.193198,0</coordinates></Point></Placemark>
<Placemark><name>La Tău Varului</name><description>Nume: La Tău Varului, Tip: var, Nivel: 3, Județ: Caras Severin, Formă: Altele, ID: 860 <br /><b>Variante</b><br />Nume: La Tău Varului, Hartă: Geomil 25000, Limbă: Limba română</description><Point><coordinates>22.233551,45.432986,0</coordinates></Point></Placemark>
<Placemark><name>Cariera Varnița</name><description>Nume: Cariera Varnița, Tip: varniță, Nivel: 3, Județ: Caras Severin, Formă: Altele, ID: 14354 <br /><b>Variante</b><br />Nume: Cariera Varnița, Hartă: PDT, Limbă: Limba română</description><Point><coordinates>21.755316,45.030000,0</coordinates></Point></Placemark>
<Placemark><name>Dealu Varnița</name><description>Nume: Dealu Varnița, Tip: varniță, Nivel: 3, Județ: Caras Severin, Formă: Deal, ID: 864 <br /><b>Variante</b><br />Nume: Dealu Varnița, Hartă: Geomil 25000, Limbă: Limba română</description><Point><coordinates>22.353249,45.617863,0</coordinates></Point></Placemark>
<Placemark><name>La Varniță</name><description>Nume: La Varniță, Tip: varniță, Nivel: 3, Județ: Caras Severin, Formă: Altele, ID: 905 <br /><b>Variante</b><br />Nume: La Varniță, Hartă: Geomil 25000, Limbă: Limba română</description><Point><coordinates>21.724019,44.656488,0</coordinates></Point></Placemark>
<Placemark><name>Ogașul Varniței</name><description>Nume: Ogașul Varniței, Tip: varniță, Nivel: 3, Județ: Caras Severin, Formă: Vale, ID: 11491 <br /><b>Variante</b><br />Nume: Ogașul Varniței, Hartă: ANCPI, Limbă: Limba română</description><Point><coordinates>21.683848,44.771566,0</coordinates></Point></Placemark>
<Placemark><name>Varnița</name><description>Nume: Varnița, Tip: varniță, Nivel: 3, Județ: Caras Severin, Formă: Altele, ID: 6186 <br /><b>Variante</b><br />Nume: Varnița, Hartă: PDT, Limbă: Limba română<br />Nume: Varnița, Hartă: Geomil 25000, Limbă: Limba română</description><Point><coordinates>22.085936,45.558147,0</coordinates></Point></Placemark>
<Placemark><name>Coasta Varului</name><description>Nume: Coasta Varului, Tip: var, Nivel: 3, Județ: Cluj, Formă: Înălțime, ID: 5859 <br /><b>Variante</b><br />Nume: Coasta Varului, Hartă: Geomil 25000, Limbă: Limba română</description><Point><coordinates>24.078828,47.057179,0</coordinates></Point></Placemark>
<Placemark><name>Gruiul Varului</name><description>Nume: Gruiul Varului, Tip: var, Nivel: 3, Județ: Cluj, Formă: Altele, ID: 10285 <br /><b>Variante</b><br />Nume: Gruiul Varului, Hartă: PDT, Limbă: Limba română</description><Point><coordinates>23.267422,46.775745,0</coordinates></Point></Placemark>
<Placemark><name>Vârful Varnița</name><description>Nume: Vârful Varnița, Tip: varniță, Nivel: 3, Județ: Covasna, Formă: Înălțime, ID: 6781 <br /><b>Variante</b><br />Nume: Vârful Varnița, Hartă: Geomil 25000, Limbă: Limba română</description><Point><coordinates>25.701212,45.863468,0</coordinates></Point></Placemark>
<Placemark><name>La Varniți</name><description>Nume: La Varniți, Tip: varniță, Nivel: 3, Județ: Dambovita, Formă: Altele, ID: 11141 <br /><b>Variante</b><br />Nume: La Varniți, Hartă: PDT, Limbă: Limba română</description><Point><coordinates>25.562487,44.871767,0</coordinates></Point></Placemark>
<Placemark><name>Valea Vărăriilor</name><description>Nume: Valea Vărăriilor, Tip: vărărie, Nivel: 3, Județ: Giurgiu, Formă: Vale, ID: 3153 <br /><b>Variante</b><br />Nume: Valea Vărăriilor, Hartă: Geomil 25000, Limbă: Limba română</description><Point><coordinates>25.866332,44.117118,0</coordinates></Point></Placemark>
<Placemark><name>Dealul Varului</name><description>Nume: Dealul Varului, Tip: var, Nivel: 3, Județ: Gorj, Formă: Deal, ID: 241 <br /><b>Variante</b><br />Nume: Dealul Varului, Hartă: Geomil 25000, Limbă: Limba română</description><Point><coordinates>23.715597,45.162164,0</coordinates></Point></Placemark>
<Placemark><name>Valea Varniței</name><description>Nume: Valea Varniței, Tip: varniță, Nivel: 3, Județ: Gorj, Formă: Vale, ID: 14979 <br /><b>Variante</b><br />Nume: Valea Varniței, Hartă: PDT, Limbă: Limba română</description><Point><coordinates>22.892590,45.014909,0</coordinates></Point></Placemark>
<Placemark><name>Vărăria</name><description>Nume: Vărăria, Tip: vărărie, Nivel: 3, Județ: Harghita, Formă: Vale, ID: 11719 <br /><b>Variante</b><br />Nume: Vărăria, Hartă: Geomil 25000, Limbă: Limba română</description><Point><coordinates>25.807963,46.956973,0</coordinates></Point></Placemark>
<Placemark><name>Muchia Varului</name><description>Nume: Muchia Varului, Tip: var, Nivel: 3, Județ: Hunedoara, Formă: Înălțime, ID: 1137 <br /><b>Variante</b><br />Nume: Muchia Varului, Hartă: Geomil 25000, Limbă: Limba română</description><Point><coordinates>23.329784,45.814641,0</coordinates></Point></Placemark>
<Placemark><name>Pârâu Varnița</name><description>Nume: Pârâu Varnița, Tip: varniță, Nivel: 3, Județ: Hunedoara, Formă: Vale, ID: 5132 <br /><b>Variante</b><br />Nume: Pârâu Varnița, Hartă: Geomil 25000, Limbă: Limba română</description><Point><coordinates>22.833855,45.464687,0</coordinates></Point></Placemark>
<Placemark><name>Pârâu Vărniții</name><description>Nume: Pârâu Vărniții, Tip: varniță, Nivel: 3, Județ: Hunedoara, Formă: Vale, ID: 6170 <br /><b>Variante</b><br />Nume: Pârâu Vărniții, Hartă: Geomil 25000, Limbă: Limba română</description><Point><coordinates>22.583885,45.737787,0</coordinates></Point></Placemark>
<Placemark><name>Vârfu Varnița</name><description>Nume: Vârfu Varnița, Tip: varniță, Nivel: 3, Județ: Hunedoara, Formă: Înălțime, ID: 11818 <br /><b>Variante</b><br />Nume: Vârfu Varnița, Hartă: Geomil 25000, Limbă: Limba română</description><Point><coordinates>23.268330,45.777083,0</coordinates></Point></Placemark>
<Placemark><name>Varnița</name><description>Nume: Varnița, Tip: varniță, Nivel: 3, Județ: Hunedoara, Formă: Localitate, ID: 10679 <br /><b>Variante</b><br />Nume: Varnița, Hartă: Imperiul Habsburgic (1887), Limbă: Limba română</description><Point><coordinates>23.128797,45.545269,0</coordinates></Point></Placemark>
<Placemark><name>Valea Vărarului</name><description>Nume: Valea Vărarului, Tip: vărar, Nivel: 3, Județ: Iasi, Formă: Vale, ID: 2237 <br /><b>Variante</b><br />Nume: Valea Vărarului, Hartă: Geomil 25000, Limbă: Limba română</description><Point><coordinates>27.114032,47.174117,0</coordinates></Point></Placemark>
<Placemark><name>Dealul Vărăriei</name><description>Nume: Dealul Vărăriei, Tip: vărărie, Nivel: 3, Județ: Iasi, Formă: Deal, ID: 2214 <br /><b>Variante</b><br />Nume: Dealul Vărăriei, Hartă: Geomil 25000, Limbă: Limba română</description><Point><coordinates>27.808866,47.007828,0</coordinates></Point></Placemark>
<Placemark><name>Dealul Vărăriei</name><description>Nume: Dealul Vărăriei, Tip: vărărie, Nivel: 3, Județ: Iasi, Formă: Deal, ID: 2219 <br /><b>Variante</b><br />Nume: Dealul Vărăriei, Hartă: Geomil 25000, Limbă: Limba română</description><Point><coordinates>27.677959,47.016773,0</coordinates></Point></Placemark>
<Placemark><name>La Vărărie</name><description>Nume: La Vărărie, Tip: vărărie, Nivel: 3, Județ: Iasi, Formă: Altele, ID: 6619 <br /><b>Variante</b><br />Nume: La Vărărie, Hartă: PDT, Limbă: Limba română</description><Point><coordinates>26.874969,47.369536,0</coordinates></Point></Placemark>
<Placemark><name>Pădurea Vărăriei</name><description>Nume: Pădurea Vărăriei, Tip: vărărie, Nivel: 3, Județ: Iasi, Formă: Pădure, ID: 6580 <br /><b>Variante</b><br />Nume: Pădurea Vărăriei, Hartă: Geomil 25000, Limbă: Limba română</description><Point><coordinates>27.929287,46.920907,0</coordinates></Point></Placemark>
<Placemark><name>Dealul Varniței</name><description>Nume: Dealul Varniței, Tip: varniță, Nivel: 3, Județ: Iasi, Formă: Deal, ID: 11632 <br /><b>Variante</b><br />Nume: Dealul Varniței, Hartă: Geomil 25000, Limbă: Limba română</description><Point><coordinates>26.756855,47.398661,0</coordinates></Point></Placemark>
<Placemark><name>La Varniță</name><description>Nume: La Varniță, Tip: varniță, Nivel: 3, Județ: Iasi, Formă: Altele, ID: 1739 <br /><b>Variante</b><br />Nume: La Varniță, Hartă: Geomil 25000, Limbă: Limba română</description><Point><coordinates>26.813928,47.488152,0</coordinates></Point></Placemark>
<Placemark><name>Piscu Varnița</name><description>Nume: Piscu Varnița, Tip: varniță, Nivel: 3, Județ: Iasi, Formă: Înălțime, ID: 9590 <br /><b>Variante</b><br />Nume: Piscu Varnița, Hartă: Moldova (1892-1898), Limbă: Limba română</description><Point><coordinates>26.743389,47.516971,0</coordinates></Point></Placemark>
<Placemark><name>D. Piatra de Varu</name><description>Nume: D. Piatra de Varu, Tip: var, Nivel: 3, Județ: Maramures, Formă: Deal, ID: 13752 <br /><b>Variante</b><br />Nume: D. Piatra de Varu, Hartă: Transilvania (1869-1870), Limbă: Limba română</description><Point><coordinates>23.991263,47.596857,0</coordinates></Point></Placemark>
<Placemark><name>Dealu Vărăria</name><description>Nume: Dealu Vărăria, Tip: vărărie, Nivel: 3, Județ: Mehedinti, Formă: Deal, ID: 5198 <br /><b>Variante</b><br />Nume: Dealu Vărăria, Hartă: Geomil 25000, Limbă: Limba română</description><Point><coordinates>22.990425,44.452198,0</coordinates></Point></Placemark>
<Placemark><name>Valea Varniței</name><description>Nume: Valea Varniței, Tip: varniță, Nivel: 3, Județ: Mures, Formă: Vale, ID: 11612 <br /><b>Variante</b><br />Nume: Valea Varniței, Hartă: Geomil 25000, Limbă: Limba română</description><Point><coordinates>24.836509,47.024770,0</coordinates></Point></Placemark>
<Placemark><name>Arșița Vărăriei</name><description>Nume: Arșița Vărăriei, Tip: vărărie, Nivel: 3, Județ: Neamt, Formă: Altele, ID: 11652 <br /><b>Variante</b><br />Nume: Arșița Vărăriei, Hartă: Geomil 25000, Limbă: Limba română</description><Point><coordinates>26.032436,47.172485,0</coordinates></Point></Placemark>
<Placemark><name>Dealul Vărăria</name><description>Nume: Dealul Vărăria, Tip: vărărie, Nivel: 3, Județ: Neamt, Formă: Deal, ID: 3855 <br /><b>Variante</b><br />Nume: Dealul Vărăria, Hartă: PDT, Limbă: Limba română</description><Point><coordinates>26.395901,46.946553,0</coordinates></Point></Placemark>
<Placemark><name>La Vărărie</name><description>Nume: La Vărărie, Tip: vărărie, Nivel: 3, Județ: Neamt, Formă: Altele, ID: 659 <br /><b>Variante</b><br />Nume: La Vărărie, Hartă: Geomil 25000, Limbă: Limba română</description><Point><coordinates>26.514301,47.189406,0</coordinates></Point></Placemark>
<Placemark><name>Poiana Vărăriei</name><description>Nume: Poiana Vărăriei, Tip: vărărie, Nivel: 3, Județ: Neamt, Formă: Poiană, ID: 3858 <br /><b>Variante</b><br />Nume: Poiana Vărăriei, Hartă: PDT, Limbă: Limba română</description><Point><coordinates>26.264214,47.112827,0</coordinates></Point></Placemark>
<Placemark><name>Vărărie</name><description>Nume: Vărărie, Tip: vărărie, Nivel: 3, Județ: Neamt, Formă: Altele, ID: 9597 <br /><b>Variante</b><br />Nume: Vărărie, Hartă: Moldova (1892-1898), Limbă: Limba română</description><Point><coordinates>26.400414,46.804273,0</coordinates></Point></Placemark>
<Placemark><name>Dealul Varniței</name><description>Nume: Dealul Varniței, Tip: varniță, Nivel: 3, Județ: Neamt, Formă: Deal, ID: 2023 <br /><b>Variante</b><br />Nume: Dealul Varniței, Hartă: Geomil 25000, Limbă: Limba română<br />Nume: Vârful Varniței, Hartă: PDT, Limbă: Limba română</description><Point><coordinates>26.264568,46.901053,0</coordinates></Point></Placemark>
<Placemark><name>La Varniță</name><description>Nume: La Varniță, Tip: varniță, Nivel: 3, Județ: Neamt, Formă: Altele, ID: 3893 <br /><b>Variante</b><br />Nume: La Varniță, Hartă: PDT, Limbă: Limba română</description><Point><coordinates>26.981774,46.920922,0</coordinates></Point></Placemark>
<Placemark><name>Pârâul Varniței</name><description>Nume: Pârâul Varniței, Tip: varniță, Nivel: 3, Județ: Neamt, Formă: Vale, ID: 9117 <br /><b>Variante</b><br />Nume: Pârâul Varniței, Hartă: PDT, Limbă: Limba română</description><Point><coordinates>26.086378,47.056892,0</coordinates></Point></Placemark>
<Placemark><name>Pârâul Vărniței</name><description>Nume: Pârâul Vărniței, Tip: varniță, Nivel: 3, Județ: Neamt, Formă: Vale, ID: 9118 <br /><b>Variante</b><br />Nume: Pârâul Vărniței, Hartă: PDT, Limbă: Limba română</description><Point><coordinates>26.110029,47.062343,0</coordinates></Point></Placemark>
<Placemark><name>Pârâul Varniței</name><description>Nume: Pârâul Varniței, Tip: varniță, Nivel: 3, Județ: Neamt, Formă: Vale, ID: 13830 <br /><b>Variante</b><br />Nume: Pârâul Varniței, Hartă: PDT, Limbă: Limba română</description><Point><coordinates>26.108037,47.020322,0</coordinates></Point></Placemark>
<Placemark><name>Pârâul Varnițelor</name><description>Nume: Pârâul Varnițelor, Tip: varniță, Nivel: 3, Județ: Neamt, Formă: Vale, ID: 12935 <br /><b>Variante</b><br />Nume: Pârâul Varnițelor, Hartă: Geomil 25000, Limbă: Limba română</description><Point><coordinates>26.388522,46.758693,0</coordinates></Point></Placemark>
<Placemark><name>Varnița</name><description>Nume: Varnița, Tip: varniță, Nivel: 3, Județ: Neamt, Formă: Vale, ID: 12624 <br /><b>Variante</b><br />Nume: Varnița, Hartă: Geomil 25000, Limbă: Limba română</description><Point><coordinates>26.271610,47.013619,0</coordinates></Point></Placemark>
<Placemark><name>Valea Varniței</name><description>Nume: Valea Varniței, Tip: varniță, Nivel: 3, Județ: Prahova, Formă: Vale, ID: 27 <br /><b>Variante</b><br />Nume: Valea Varniței, Hartă: Geomil 25000, Limbă: Limba română<br />Nume: Valea Varniței, Hartă: PDT, Limbă: Limba română</description><Point><coordinates>26.232058,45.063633,0</coordinates></Point></Placemark>
<Placemark><name>Varnița</name><description>Nume: Varnița, Tip: varniță, Nivel: 3, Județ: Prahova, Formă: Localitate, ID: 48 <br /><b>Variante</b><br />Nume: Varnița, Hartă: Geomil 25000, Limbă: Limba română<br />Nume: Varnitza, Hartă: Austriacă, Limbă: Limba română<br />Nume: Varnița, Hartă: PDT, Limbă: Limba română<br />Nume: Варница (Varnița), Hartă: Sovietică, Limbă: Limba română</description><Point><coordinates>25.943533,44.807554,0</coordinates></Point></Placemark>
<Placemark><name>Dealu Picioru Varului</name><description>Nume: Dealu Picioru Varului, Tip: var, Nivel: 3, Județ: Salaj, Formă: Deal, ID: 5927 <br /><b>Variante</b><br />Nume: Dealu Picioru Varului, Hartă: Geomil 25000, Limbă: Limba română</description><Point><coordinates>22.605184,47.144285,0</coordinates></Point></Placemark>
<Placemark><name>Piatra Varului</name><description>Nume: Piatra Varului, Tip: var, Nivel: 3, Județ: Salaj, Formă: Înălțime, ID: 8990 <br /><b>Variante</b><br />Nume: Piatra Varului, Hartă: PDT, Limbă: Limba română</description><Point><coordinates>23.301143,47.232590,0</coordinates></Point></Placemark>
<Placemark><name>Valea Varului</name><description>Nume: Valea Varului, Tip: var, Nivel: 3, Județ: Salaj, Formă: Vale, ID: 9926 <br /><b>Variante</b><br />Nume: Valea Varului, Hartă: Geomil 25000, Limbă: Limba română</description><Point><coordinates>23.548933,47.309649,0</coordinates></Point></Placemark>
<Placemark><name>Câmpul Varului</name><description>Nume: Câmpul Varului, Tip: var, Nivel: 3, Județ: Sibiu, Formă: Câmp, ID: 4069 <br /><b>Variante</b><br />Nume: Câmpul Varului, Hartă: Geomil 25000, Limbă: Limba română</description><Point><coordinates>24.034349,45.769815,0</coordinates></Point></Placemark>
<Placemark><name>Valea Varului</name><description>Nume: Valea Varului, Tip: var, Nivel: 3, Județ: Sibiu, Formă: Vale, ID: 2498 <br /><b>Variante</b><br />Nume: Valea Varului, Hartă: Geomil 25000, Limbă: Limba română</description><Point><coordinates>24.165399,45.652696,0</coordinates></Point></Placemark>
<Placemark><name>Muchia Varniței</name><description>Nume: Muchia Varniței, Tip: varniță, Nivel: 3, Județ: Sibiu, Formă: Înălțime, ID: 12281 <br /><b>Variante</b><br />Nume: Muchia Varniței, Hartă: ANCPI, Limbă: Limba română</description><Point><coordinates>24.630839,45.661517,0</coordinates></Point></Placemark>
<Placemark><name>Dealul Vărăriei</name><description>Nume: Dealul Vărăriei, Tip: vărărie, Nivel: 3, Județ: Suceava, Formă: Deal, ID: 641 <br /><b>Variante</b><br />Nume: Dealul Vărăriei, Hartă: Geomil 25000, Limbă: Limba română</description><Point><coordinates>25.577292,47.906843,0</coordinates></Point></Placemark>
<Placemark><name>Dealul Vărăriei</name><description>Nume: Dealul Vărăriei, Tip: vărărie, Nivel: 3, Județ: Suceava, Formă: Deal, ID: 4918 <br /><b>Variante</b><br />Nume: Dealul Vărăriei, Hartă: Geomil 25000, Limbă: Limba română<br />Nume: Dealul Vărăriei, Hartă: PDT, Limbă: Limba română</description><Point><coordinates>26.332805,47.746835,0</coordinates></Point></Placemark>
<Placemark><name>La Vărărie</name><description>Nume: La Vărărie, Tip: vărărie, Nivel: 3, Județ: Suceava, Formă: Altele, ID: 7789 <br /><b>Variante</b><br />Nume: La Vărărie, Hartă: PDT, Limbă: Limba română</description><Point><coordinates>26.527675,47.479197,0</coordinates></Point></Placemark>
<Placemark><name>Poiana Vărăria</name><description>Nume: Poiana Vărăria, Tip: vărărie, Nivel: 3, Județ: Suceava, Formă: Poiană, ID: 7269 <br /><b>Variante</b><br />Nume: Poiana Vărăria, Hartă: PDT, Limbă: Limba română</description><Point><coordinates>26.244218,47.798842,0</coordinates></Point></Placemark>
<Placemark><name>Vărăria</name><description>Nume: Vărăria, Tip: vărărie, Nivel: 3, Județ: Suceava, Formă: Vale, ID: 12920 <br /><b>Variante</b><br />Nume: Vărăria, Hartă: Geomil 25000, Limbă: Limba română</description><Point><coordinates>26.615526,47.360298,0</coordinates></Point></Placemark>
<Placemark><name>Vărăria Regelui</name><description>Nume: Vărăria Regelui, Tip: vărărie, Nivel: 3, Județ: Suceava, Formă: Altele, ID: 9942 <br /><b>Variante</b><br />Nume: Vărăria Regelui, Hartă: Moldova (1892-1898), Limbă: Limba română</description><Point><coordinates>25.629117,47.187052,0</coordinates></Point></Placemark>
<Placemark><name>Vărărie</name><description>Nume: Vărărie, Tip: vărărie, Nivel: 3, Județ: Suceava, Formă: Altele, ID: 1768 <br /><b>Variante</b><br />Nume: Vărărie, Hartă: Geomil 25000, Limbă: Limba română</description><Point><coordinates>26.353573,47.477532,0</coordinates></Point></Placemark>
<Placemark><name>Dealul Varniței</name><description>Nume: Dealul Varniței, Tip: varniță, Nivel: 3, Județ: Suceava, Formă: Deal, ID: 1771 <br /><b>Variante</b><br />Nume: Dealul Varniței, Hartă: Geomil 25000, Limbă: Limba română</description><Point><coordinates>26.035936,47.337613,0</coordinates></Point></Placemark>
<Placemark><name>La Varniță</name><description>Nume: La Varniță, Tip: varniță, Nivel: 3, Județ: Suceava, Formă: Altele, ID: 650 <br /><b>Variante</b><br />Nume: La Varniță, Hartă: Geomil 25000, Limbă: Limba română</description><Point><coordinates>25.880809,47.532098,0</coordinates></Point></Placemark>
<Placemark><name>Pădurea Varnița</name><description>Nume: Pădurea Varnița, Tip: varniță, Nivel: 3, Județ: Suceava, Formă: Pădure, ID: 10751 <br /><b>Variante</b><br />Nume: Pădurea Varnița, Hartă: Imperiul Habsburgic (1887), Limbă: Limba română</description><Point><coordinates>25.885183,47.669053,0</coordinates></Point></Placemark>
<Placemark><name>Pârâul Toloaca (Varniței)</name><description>Nume: Pârâul Toloaca (Varniței), Tip: varniță, Nivel: 3, Județ: Suceava, Formă: Vale, ID: 9059 <br /><b>Variante</b><br />Nume: Pârâul Toloaca (Varniței), Hartă: PDT, Limbă: Limba română</description><Point><coordinates>26.179577,47.513121,0</coordinates></Point></Placemark>
<Placemark><name>Vârful Varnița</name><description>Nume: Vârful Varnița, Tip: varniță, Nivel: 3, Județ: Suceava, Formă: Înălțime, ID: 9075 <br /><b>Variante</b><br />Nume: Vârful Varnița, Hartă: PDT, Limbă: Limba română</description><Point><coordinates>26.054158,47.328747,0</coordinates></Point></Placemark>
<Placemark><name>La Varniță</name><description>Nume: La Varniță, Tip: varniță, Nivel: 3, Județ: Timis, Formă: Altele, ID: 12841 <br /><b>Variante</b><br />Nume: La Varniță, Hartă: PDT, Limbă: Limba română</description><Point><coordinates>22.454265,45.809517,0</coordinates></Point></Placemark>
<Placemark><name>Varnița</name><description>Nume: Varnița, Tip: varniță, Nivel: 3, Județ: Timis, Formă: Altele, ID: 6180 <br /><b>Variante</b><br />Nume: Varnița, Hartă: PDT, Limbă: Limba română</description><Point><coordinates>21.980760,45.811738,0</coordinates></Point></Placemark>
<Placemark><name>Varnița</name><description>Nume: Varnița, Tip: varniță, Nivel: 3, Județ: Timis, Formă: Altele, ID: 14246 <br /><b>Variante</b><br />Nume: Varnița, Hartă: Geomil 25000, Limbă: Limba română</description><Point><coordinates>22.308133,45.802484,0</coordinates></Point></Placemark>
<Placemark><name>Dealul Vărăria</name><description>Nume: Dealul Vărăria, Tip: vărărie, Nivel: 3, Județ: Tulcea, Formă: Deal, ID: 11083 <br /><b>Variante</b><br />Nume: Dealul Vărăria, Hartă: Geomil 25000, Limbă: Limba română</description><Point><coordinates>28.308726,44.966109,0</coordinates></Point></Placemark>
<Placemark><name>Dealul Vărăriei</name><description>Nume: Dealul Vărăriei, Tip: vărărie, Nivel: 3, Județ: Tulcea, Formă: Deal, ID: 2899 <br /><b>Variante</b><br />Nume: Dealul Vărăriei, Hartă: Geomil 25000, Limbă: Limba română</description><Point><coordinates>28.655000,45.178552,0</coordinates></Point></Placemark>
<Placemark><name>Dealul Varnița</name><description>Nume: Dealul Varnița, Tip: varniță, Nivel: 3, Județ: Tulcea, Formă: Deal, ID: 6697 <br /><b>Variante</b><br />Nume: Dealul Varnița, Hartă: PDT, Limbă: Limba română</description><Point><coordinates>28.621394,45.175976,0</coordinates></Point></Placemark>
<Placemark><name>Pârâul Varniții</name><description>Nume: Pârâul Varniții, Tip: varniță, Nivel: 3, Județ: Valcea, Formă: Vale, ID: 12847 <br /><b>Variante</b><br />Nume: Pârâul Varniții, Hartă: Geomil 25000, Limbă: Limba română</description><Point><coordinates>24.004818,45.198727,0</coordinates></Point></Placemark>
<Placemark><name>Dealul Vărăriei</name><description>Nume: Dealul Vărăriei, Tip: vărărie, Nivel: 3, Județ: Vaslui, Formă: Deal, ID: 4614 <br /><b>Variante</b><br />Nume: Dealul Vărăriei, Hartă: PDT, Limbă: Limba română</description><Point><coordinates>27.650403,46.575144,0</coordinates></Point></Placemark>
<Placemark><name>La Vărărie</name><description>Nume: La Vărărie, Tip: vărărie, Nivel: 3, Județ: Vaslui, Formă: Altele, ID: 1675 <br /><b>Variante</b><br />Nume: La Vărărie, Hartă: Geomil 25000, Limbă: Limba română<br />Nume: La Vărărie, Hartă: PDT, Limbă: Limba română</description><Point><coordinates>27.694587,46.537930,0</coordinates></Point></Placemark>
<Placemark><name>Pârâul Vărăriei</name><description>Nume: Pârâul Vărăriei, Tip: vărărie, Nivel: 3, Județ: Vaslui, Formă: Vale, ID: 4615 <br /><b>Variante</b><br />Nume: Pârâul Vărăriei, Hartă: PDT, Limbă: Limba română</description><Point><coordinates>27.634076,46.590589,0</coordinates></Point></Placemark>
<Placemark><name>Valea Vărăriei</name><description>Nume: Valea Vărăriei, Tip: vărărie, Nivel: 3, Județ: Vaslui, Formă: Vale, ID: 11297 <br /><b>Variante</b><br />Nume: Valea Vărăriei, Hartă: Geomil 25000, Limbă: Limba română</description><Point><coordinates>27.342366,46.792097,0</coordinates></Point></Placemark>
<Placemark><name>Vărăria</name><description>Nume: Vărăria, Tip: vărărie, Nivel: 3, Județ: Vaslui, Formă: Localitate, ID: 6570 <br /><b>Variante</b><br />Nume: Vărăria, Hartă: PDT, Limbă: Limba română</description><Point><coordinates>28.089635,46.788565,0</coordinates></Point></Placemark>
<Placemark><name>Pârâul Vărăriei</name><description>Nume: Pârâul Vărăriei, Tip: vărărie, Nivel: 3, Județ: Vrancea, Formă: Vale, ID: 13793 <br /><b>Variante</b><br />Nume: Pârâul Vărăriei, Hartă: Geomil 25000, Limbă: Limba română</description><Point><coordinates>26.728165,45.930518,0</coordinates></Point></Placemark>
<Placemark><name>Pârâul Varniții</name><description>Nume: Pârâul Varniții, Tip: varniță, Nivel: 3, Județ: Vrancea, Formă: Vale, ID: 7905 <br /><b>Variante</b><br />Nume: Pârâul Varniții, Hartă: PDT, Limbă: Limba română</description><Point><coordinates>26.927693,45.816586,0</coordinates></Point></Placemark>
<Placemark><name>Valea Varnița</name><description>Nume: Valea Varnița, Tip: varniță, Nivel: 3, Județ: Vrancea, Formă: Vale, ID: 5252 <br /><b>Variante</b><br />Nume: Valea Varnița, Hartă: Geomil 25000, Limbă: Limba română</description><Point><coordinates>27.036370,45.604814,0</coordinates></Point></Placemark>
<Placemark><name>Valea Varniței</name><description>Nume: Valea Varniței, Tip: varniță, Nivel: 3, Județ: Vrancea, Formă: Vale, ID: 2137 <br /><b>Variante</b><br />Nume: Valea Varniței, Hartă: Geomil 25000, Limbă: Limba română<br />Nume: Pârâul Varniței, Hartă: PDT, Limbă: Limba română</description><Point><coordinates>26.941494,45.840302,0</coordinates></Point></Placemark>
<Placemark><name>Varnița</name><description>Nume: Varnița, Tip: varniță, Nivel: 3, Județ: Vrancea, Formă: Localitate, ID: 5344 <br /><b>Variante</b><br />Nume: Varnița, Hartă: Geomil 25000, Limbă: Limba română<br />Nume: Varnița, Hartă: PDT, Limbă: Limba română</description><Point><coordinates>26.960696,45.973240,0</coordinates></Point></Placemark></Document></kml>