<?xml version="1.0" encoding="UTF-8"?><kml xmlns="http://www.opengis.net/kml/2.2"><Document><Placemark><name>Fântâna Calului</name><description>Nume: Fântâna Calului, Tip: cai, Nivel: 2, Județ: Alba, Formă: Altele, ID: 10670 <br /><b>Variante</b><br />Nume: Fântâna Calului, Hartă: Imperiul Habsburgic (1887), Limbă: Limba română</description><Point><coordinates>23.450772,46.081158,0</coordinates></Point></Placemark>
<Placemark><name>Groapa Calului</name><description>Nume: Groapa Calului, Tip: cai, Nivel: 2, Județ: Alba, Formă: Altele, ID: 11763 <br /><b>Variante</b><br />Nume: Groapa Calului, Hartă: Geomil 25000, Limbă: Limba română</description><Point><coordinates>24.147538,46.137833,0</coordinates></Point></Placemark>
<Placemark><name>Valea Calului</name><description>Nume: Valea Calului, Tip: cai, Nivel: 2, Județ: Alba, Formă: Vale, ID: 1132 <br /><b>Variante</b><br />Nume: Valea Calului, Hartă: Geomil 25000, Limbă: Limba română</description><Point><coordinates>23.574776,45.702660,0</coordinates></Point></Placemark>
<Placemark><name>Dealu Iepei</name><description>Nume: Dealu Iepei, Tip: iapă, Nivel: 3, Județ: Alba, Formă: Deal, ID: 12551 <br /><b>Variante</b><br />Nume: Dealu Iepei, Hartă: Geomil 25000, Limbă: Limba română</description><Point><coordinates>22.823176,46.501841,0</coordinates></Point></Placemark>
<Placemark><name>La Iapă</name><description>Nume: La Iapă, Tip: iapă, Nivel: 3, Județ: Alba, Formă: Altele, ID: 8147 <br /><b>Variante</b><br />Nume: La Iapă, Hartă: PDT, Limbă: Limba română</description><Point><coordinates>23.939515,46.283999,0</coordinates></Point></Placemark>
<Placemark><name>Dealul Fântâna Calului</name><description>Nume: Dealul Fântâna Calului, Tip: cai, Nivel: 2, Județ: Arad, Formă: Deal, ID: 6997 <br /><b>Variante</b><br />Nume: Dealul Fântâna Calului, Hartă: Geomil 25000, Limbă: Limba română</description><Point><coordinates>22.193348,46.503554,0</coordinates></Point></Placemark>
<Placemark><name>Fântâna Cailor</name><description>Nume: Fântâna Cailor, Tip: cai, Nivel: 2, Județ: Arad, Formă: Altele, ID: 12539 <br /><b>Variante</b><br />Nume: Fântâna Cailor, Hartă: Geomil 25000, Limbă: Limba română</description><Point><coordinates>22.034422,46.424994,0</coordinates></Point></Placemark>
<Placemark><name>Fântâna Cailor</name><description>Nume: Fântâna Cailor, Tip: cai, Nivel: 2, Județ: Arad, Formă: Altele, ID: 6291 <br /><b>Variante</b><br />Nume: Fântâna Cailor, Hartă: PDT, Limbă: Limba română</description><Point><coordinates>21.728030,46.395943,0</coordinates></Point></Placemark>
<Placemark><name>Fântâna Cailor</name><description>Nume: Fântâna Cailor, Tip: cai, Nivel: 2, Județ: Arad, Formă: Altele, ID: 8042 <br /><b>Variante</b><br />Nume: Fântâna Cailor, Hartă: Geomil 25000, Limbă: Limba română</description><Point><coordinates>22.029932,46.459066,0</coordinates></Point></Placemark>
<Placemark><name>Fântâna Cailor</name><description>Nume: Fântâna Cailor, Tip: cai, Nivel: 2, Județ: Arad, Formă: Altele, ID: 4104 <br /><b>Variante</b><br />Nume: Fântâna Cailor, Hartă: PDT, Limbă: Limba română</description><Point><coordinates>21.941866,46.570131,0</coordinates></Point></Placemark>
<Placemark><name>Pârâu Calului</name><description>Nume: Pârâu Calului, Tip: cai, Nivel: 2, Județ: Arad, Formă: Vale, ID: 7647 <br /><b>Variante</b><br />Nume: Pârâu Calului, Hartă: Geomil 25000, Limbă: Limba română</description><Point><coordinates>22.426447,46.378551,0</coordinates></Point></Placemark>
<Placemark><name>Spinarea Calului</name><description>Nume: Spinarea Calului, Tip: cai, Nivel: 2, Județ: Arad, Formă: Altele, ID: 6305 <br /><b>Variante</b><br />Nume: Spinarea Calului, Hartă: PDT, Limbă: Limba română</description><Point><coordinates>21.753885,46.065490,0</coordinates></Point></Placemark>
<Placemark><name>Valea Calului</name><description>Nume: Valea Calului, Tip: cai, Nivel: 2, Județ: Arad, Formă: Vale, ID: 952 <br /><b>Variante</b><br />Nume: Valea Calului, Hartă: Geomil 25000, Limbă: Limba română</description><Point><coordinates>22.280068,46.039356,0</coordinates></Point></Placemark>
<Placemark><name>La Iapa</name><description>Nume: La Iapa, Tip: iapă, Nivel: 3, Județ: Arad, Formă: Altele, ID: 7646 <br /><b>Variante</b><br />Nume: La Iapa, Hartă: Geomil 25000, Limbă: Limba română</description><Point><coordinates>22.687055,46.324092,0</coordinates></Point></Placemark>
<Placemark><name>Culmea Calului</name><description>Nume: Culmea Calului, Tip: cai, Nivel: 2, Județ: Arges, Formă: Înălțime, ID: 10179 <br /><b>Variante</b><br />Nume: Culmea Calului, Hartă: Geomil 25000, Limbă: Limba română</description><Point><coordinates>24.892620,45.518681,0</coordinates></Point></Placemark>
<Placemark><name>Dealul Calului</name><description>Nume: Dealul Calului, Tip: cai, Nivel: 2, Județ: Arges, Formă: Deal, ID: 11200 <br /><b>Variante</b><br />Nume: Dealul Calului, Hartă: ANCPI, Limbă: Limba română</description><Point><coordinates>24.627269,45.133202,0</coordinates></Point></Placemark>
<Placemark><name>Malul Calului</name><description>Nume: Malul Calului, Tip: cai, Nivel: 2, Județ: Arges, Formă: Înălțime, ID: 11113 <br /><b>Variante</b><br />Nume: Malul Calului, Hartă: PDT, Limbă: Limba română</description><Point><coordinates>24.639235,45.199223,0</coordinates></Point></Placemark>
<Placemark><name>Muntele Calului</name><description>Nume: Muntele Calului, Tip: cai, Nivel: 2, Județ: Arges, Formă: Înălțime, ID: 5026, ID Părinte: 5025 <br /><b>Variante</b><br />Nume: Muntele Calului, Hartă: Geomil 25000, Limbă: Limba română</description><Point><coordinates>25.084331,45.437451,0</coordinates></Point></Placemark>
<Placemark><LineString id="5026_5025"><tessellate>1</tessellate><coordinates>25.084331,45.437451,0.
25.074992,45.436067,0</coordinates></LineString><Style><LineStyle><width>3</width></LineStyle></Style></Placemark>
<Placemark><name>Muntele Piscul Calului</name><description>Nume: Muntele Piscul Calului, Tip: cai, Nivel: 2, Județ: Arges, Formă: Înălțime, ID: 5025 <br /><b>Variante</b><br />Nume: Muntele Piscul Calului, Hartă: Geomil 25000, Limbă: Limba română</description><Point><coordinates>25.074992,45.436067,0</coordinates></Point></Placemark>
<Placemark><name>Padina Calului</name><description>Nume: Padina Calului, Tip: cai, Nivel: 2, Județ: Arges, Formă: Înălțime, ID: 11256 <br /><b>Variante</b><br />Nume: Padina Calului, Hartă: ANCPI, Limbă: Limba română</description><Point><coordinates>25.193818,45.440211,0</coordinates></Point></Placemark>
<Placemark><name>Valea Calului</name><description>Nume: Valea Calului, Tip: cai, Nivel: 2, Județ: Arges, Formă: Localitate, ID: 13975 <br /><b>Variante</b><br />Nume: Valea Calului, Hartă: Geomil 25000, Limbă: Limba română</description><Point><coordinates>24.589341,45.228652,0</coordinates></Point></Placemark>
<Placemark><name>Valea Calului</name><description>Nume: Valea Calului, Tip: cai, Nivel: 2, Județ: Arges, Formă: Vale, ID: 14168 <br /><b>Variante</b><br />Nume: Valea Calului, Hartă: PDT, Limbă: Limba română</description><Point><coordinates>25.084892,44.980855,0</coordinates></Point></Placemark>
<Placemark><name>Valea Calului</name><description>Nume: Valea Calului, Tip: cai, Nivel: 2, Județ: Arges, Formă: Vale, ID: 10141 <br /><b>Variante</b><br />Nume: Valea Calului, Hartă: PDT, Limbă: Limba română</description><Point><coordinates>25.178584,44.855158,0</coordinates></Point></Placemark>
<Placemark><name>Valea Calului</name><description>Nume: Valea Calului, Tip: cai, Nivel: 2, Județ: Arges, Formă: Vale, ID: 10180, ID Părinte: 10179 <br /><b>Variante</b><br />Nume: Valea Calului, Hartă: Geomil 25000, Limbă: Limba română</description><Point><coordinates>24.885318,45.516082,0</coordinates></Point></Placemark>
<Placemark><LineString id="10180_10179"><tessellate>1</tessellate><coordinates>24.885318,45.516082,0.
24.892620,45.518681,0</coordinates></LineString><Style><LineStyle><width>3</width></LineStyle></Style></Placemark>
<Placemark><name>Valea Kalului</name><description>Nume: Valea Kalului, Tip: cai, Nivel: 2, Județ: Arges, Formă: Vale, ID: 5823, ID Părinte: 11200 <br /><b>Variante</b><br />Nume: Valea Kalului, Hartă: Austriacă, Limbă: Limba română</description><Point><coordinates>24.621020,45.140482,0</coordinates></Point></Placemark>
<Placemark><LineString id="5823_11200"><tessellate>1</tessellate><coordinates>24.621020,45.140482,0.
24.627269,45.133202,0</coordinates></LineString><Style><LineStyle><width>3</width></LineStyle></Style></Placemark>
<Placemark><name>Dealul Botul Iepei</name><description>Nume: Dealul Botul Iepei, Tip: iapă, Nivel: 3, Județ: Arges, Formă: Deal, ID: 91 <br /><b>Variante</b><br />Nume: Dealul Botul Iepei, Hartă: PDT, Limbă: Limba română</description><Point><coordinates>24.665042,44.963923,0</coordinates></Point></Placemark>
<Placemark><name>Piscul Iepei</name><description>Nume: Piscul Iepei, Tip: iapă, Nivel: 3, Județ: Arges, Formă: Înălțime, ID: 8350 <br /><b>Variante</b><br />Nume: Piscul Iepei, Hartă: PDT, Limbă: Limba română</description><Point><coordinates>25.054848,44.967492,0</coordinates></Point></Placemark>
<Placemark><name>Valea Iapa</name><description>Nume: Valea Iapa, Tip: iapă, Nivel: 3, Județ: Arges, Formă: Vale, ID: 1411 <br /><b>Variante</b><br />Nume: Valea Iapa, Hartă: Geomil 25000, Limbă: Limba română</description><Point><coordinates>24.599587,44.897772,0</coordinates></Point></Placemark>
<Placemark><name>Valea Iepei</name><description>Nume: Valea Iepei, Tip: iapă, Nivel: 3, Județ: Arges, Formă: Vale, ID: 1440 <br /><b>Variante</b><br />Nume: Valea Iepei, Hartă: Geomil 25000, Limbă: Limba română</description><Point><coordinates>24.511634,45.266138,0</coordinates></Point></Placemark>
<Placemark><name>Curmătura Calului</name><description>Nume: Curmătura Calului, Tip: cai, Nivel: 2, Județ: Bacau, Formă: Altele, ID: 4557 <br /><b>Variante</b><br />Nume: Curmătura Calului, Hartă: Geomil 25000, Limbă: Limba română</description><Point><coordinates>26.289235,46.353531,0</coordinates></Point></Placemark>
<Placemark><name>Plaiul Cailor</name><description>Nume: Plaiul Cailor, Tip: cai, Nivel: 2, Județ: Bacau, Formă: Înălțime, ID: 4604 <br /><b>Variante</b><br />Nume: Plaiul Cailor, Hartă: Geomil 25000, Limbă: Limba română</description><Point><coordinates>26.331835,46.634685,0</coordinates></Point></Placemark>
<Placemark><name>Runcul Calului</name><description>Nume: Runcul Calului, Tip: cai, Nivel: 2, Județ: Bacau, Formă: Altele, ID: 4582, ID Părinte: 4583 <br /><b>Variante</b><br />Nume: Runcul Calului, Hartă: Geomil 25000, Limbă: Limba română</description><Point><coordinates>26.633189,46.375093,0</coordinates></Point></Placemark>
<Placemark><LineString id="4582_4583"><tessellate>1</tessellate><coordinates>26.633189,46.375093,0.
26.652816,46.373789,0</coordinates></LineString><Style><LineStyle><width>3</width></LineStyle></Style></Placemark>
<Placemark><name>Valea Calului</name><description>Nume: Valea Calului, Tip: cai, Nivel: 2, Județ: Bacau, Formă: Vale, ID: 4583 <br /><b>Variante</b><br />Nume: Valea Calului, Hartă: Geomil 25000, Limbă: Limba română</description><Point><coordinates>26.652816,46.373789,0</coordinates></Point></Placemark>
<Placemark><name>Valea Runcul Calului</name><description>Nume: Valea Runcul Calului, Tip: cai, Nivel: 2, Județ: Bacau, Formă: Vale, ID: 4584, ID Părinte: 4583 <br /><b>Variante</b><br />Nume: Valea Runcul Calului, Hartă: Geomil 25000, Limbă: Limba română</description><Point><coordinates>26.658119,46.360614,0</coordinates></Point></Placemark>
<Placemark><LineString id="4584_4583"><tessellate>1</tessellate><coordinates>26.658119,46.360614,0.
26.652816,46.373789,0</coordinates></LineString><Style><LineStyle><width>3</width></LineStyle></Style></Placemark>
<Placemark><name>Dealul Iepei</name><description>Nume: Dealul Iepei, Tip: iapă, Nivel: 3, Județ: Bacau, Formă: Deal, ID: 3905, ID Părinte: 3906 <br /><b>Variante</b><br />Nume: Dealul Iepei, Hartă: Geomil 25000, Limbă: Limba română</description><Point><coordinates>27.119986,46.562899,0</coordinates></Point></Placemark>
<Placemark><LineString id="3905_3906"><tessellate>1</tessellate><coordinates>27.119986,46.562899,0.
27.136762,46.558098,0</coordinates></LineString><Style><LineStyle><width>3</width></LineStyle></Style></Placemark>
<Placemark><name>Pădurea Iepei</name><description>Nume: Pădurea Iepei, Tip: iapă, Nivel: 3, Județ: Bacau, Formă: Pădure, ID: 3906 <br /><b>Variante</b><br />Nume: Pădurea Iepei, Hartă: Geomil 25000, Limbă: Limba română</description><Point><coordinates>27.136762,46.558098,0</coordinates></Point></Placemark>
<Placemark><name>Pădurea Valea Iepei</name><description>Nume: Pădurea Valea Iepei, Tip: iapă, Nivel: 3, Județ: Bacau, Formă: Pădure, ID: 7863 <br /><b>Variante</b><br />Nume: Pădurea Valea Iepei, Hartă: Geomil 25000, Limbă: Limba română</description><Point><coordinates>27.281230,46.491768,0</coordinates></Point></Placemark>
<Placemark><name>Coasta Cailor</name><description>Nume: Coasta Cailor, Tip: cai, Nivel: 2, Județ: Bihor, Formă: Înălțime, ID: 4168 <br /><b>Variante</b><br />Nume: Coasta Cailor, Hartă: PDT, Limbă: Limba română</description><Point><coordinates>22.445530,46.934567,0</coordinates></Point></Placemark>
<Placemark><name>Dealul Calului</name><description>Nume: Dealul Calului, Tip: cai, Nivel: 2, Județ: Bihor, Formă: Deal, ID: 8207 <br /><b>Variante</b><br />Nume: Dealul Calului, Hartă: PDT, Limbă: Limba română<br />Nume: Dealul Calului, Hartă: Geomil 25000, Limbă: Limba română</description><Point><coordinates>22.427919,47.264317,0</coordinates></Point></Placemark>
<Placemark><name>Fântâna Cailor</name><description>Nume: Fântâna Cailor, Tip: cai, Nivel: 2, Județ: Bihor, Formă: Altele, ID: 7587 <br /><b>Variante</b><br />Nume: Fântâna Cailor, Hartă: PDT, Limbă: Limba română</description><Point><coordinates>21.807597,46.678881,0</coordinates></Point></Placemark>
<Placemark><name>Pârâul Calului</name><description>Nume: Pârâul Calului, Tip: cai, Nivel: 2, Județ: Bihor, Formă: Vale, ID: 4078 <br /><b>Variante</b><br />Nume: Pârâul Calului, Hartă: PDT, Limbă: Limba română</description><Point><coordinates>22.325323,46.588846,0</coordinates></Point></Placemark>
<Placemark><name>Piatra Calului</name><description>Nume: Piatra Calului, Tip: cai, Nivel: 2, Județ: Bihor, Formă: Înălțime, ID: 7008 <br /><b>Variante</b><br />Nume: Piatra Calului, Hartă: Geomil 25000, Limbă: Limba română</description><Point><coordinates>22.658364,46.716802,0</coordinates></Point></Placemark>
<Placemark><name>Valea Cailor</name><description>Nume: Valea Cailor, Tip: cai, Nivel: 2, Județ: Bihor, Formă: Vale, ID: 12354 <br /><b>Variante</b><br />Nume: Valea Cailor, Hartă: Geomil 25000, Limbă: Limba română</description><Point><coordinates>22.581705,47.032600,0</coordinates></Point></Placemark>
<Placemark><name>Valea Calului</name><description>Nume: Valea Calului, Tip: cai, Nivel: 2, Județ: Bihor, Formă: Vale, ID: 7672, ID Părinte: 8207 <br /><b>Variante</b><br />Nume: Valea Calului, Hartă: PDT, Limbă: Limba română</description><Point><coordinates>22.444332,47.261808,0</coordinates></Point></Placemark>
<Placemark><LineString id="7672_8207"><tessellate>1</tessellate><coordinates>22.444332,47.261808,0.
22.427919,47.264317,0</coordinates></LineString><Style><LineStyle><width>3</width></LineStyle></Style></Placemark>
<Placemark><name>Valea Calului</name><description>Nume: Valea Calului, Tip: cai, Nivel: 2, Județ: Bihor, Formă: Vale, ID: 7000 <br /><b>Variante</b><br />Nume: Valea Calului, Hartă: Geomil 25000, Limbă: Limba română</description><Point><coordinates>22.330696,46.525672,0</coordinates></Point></Placemark>
<Placemark><name>Valea Calului</name><description>Nume: Valea Calului, Tip: cai, Nivel: 2, Județ: Bihor, Formă: Vale, ID: 1001 <br /><b>Variante</b><br />Nume: Valea Calului, Hartă: Geomil 25000, Limbă: Limba română</description><Point><coordinates>22.638175,46.483755,0</coordinates></Point></Placemark>
<Placemark><name>Dealu Iapa</name><description>Nume: Dealu Iapa, Tip: iapă, Nivel: 3, Județ: Bihor, Formă: Deal, ID: 989 <br /><b>Variante</b><br />Nume: Dealu Iapa, Hartă: Geomil 25000, Limbă: Limba română<br />Nume: Dealu Iapa, Hartă: PDT, Limbă: Limba română</description><Point><coordinates>22.205597,46.586525,0</coordinates></Point></Placemark>
<Placemark><name>Fântâna Iepei</name><description>Nume: Fântâna Iepei, Tip: iapă, Nivel: 3, Județ: Bihor, Formă: Altele, ID: 5624 <br /><b>Variante</b><br />Nume: Fântâna Iepei, Hartă: Geomil 25000, Limbă: Limba română</description><Point><coordinates>22.457090,46.439665,0</coordinates></Point></Placemark>
<Placemark><name>Groapa Iepii</name><description>Nume: Groapa Iepii, Tip: iapă, Nivel: 3, Județ: Bihor, Formă: Altele, ID: 13071 <br /><b>Variante</b><br />Nume: Groapa Iepii, Hartă: Geomil 25000, Limbă: Limba română</description><Point><coordinates>22.656047,46.968003,0</coordinates></Point></Placemark>
<Placemark><name>Valea Iepei</name><description>Nume: Valea Iepei, Tip: iapă, Nivel: 3, Județ: Bihor, Formă: Vale, ID: 988, ID Părinte: 989 <br /><b>Variante</b><br />Nume: Valea Iepei, Hartă: Geomil 25000, Limbă: Limba română<br />Nume: Valea Iepei, Hartă: PDT, Limbă: Limba română</description><Point><coordinates>22.234174,46.581694,0</coordinates></Point></Placemark>
<Placemark><LineString id="988_989"><tessellate>1</tessellate><coordinates>22.234174,46.581694,0.
22.205597,46.586525,0</coordinates></LineString><Style><LineStyle><width>3</width></LineStyle></Style></Placemark>
<Placemark><name>Vârful Iepei</name><description>Nume: Vârful Iepei, Tip: iapă, Nivel: 3, Județ: Bihor, Formă: Înălțime, ID: 4082, ID Părinte: 989 <br /><b>Variante</b><br />Nume: Vârful Iepei, Hartă: PDT, Limbă: Limba română</description><Point><coordinates>22.219533,46.585508,0</coordinates></Point></Placemark>
<Placemark><LineString id="4082_989"><tessellate>1</tessellate><coordinates>22.219533,46.585508,0.
22.205597,46.586525,0</coordinates></LineString><Style><LineStyle><width>3</width></LineStyle></Style></Placemark>
<Placemark><name>Culmea Calului</name><description>Nume: Culmea Calului, Tip: cai, Nivel: 2, Județ: Bistrita Nasaud, Formă: Înălțime, ID: 6368 <br /><b>Variante</b><br />Nume: Culmea Calului, Hartă: Geomil 25000, Limbă: Limba română</description><Point><coordinates>24.997041,47.287692,0</coordinates></Point></Placemark>
<Placemark><name>Dealul Cailor</name><description>Nume: Dealul Cailor, Tip: cai, Nivel: 2, Județ: Bistrita Nasaud, Formă: Deal, ID: 9863 <br /><b>Variante</b><br />Nume: Dealul Cailor, Hartă: PDT, Limbă: Limba română</description><Point><coordinates>24.602083,47.301549,0</coordinates></Point></Placemark>
<Placemark><name>Dealul Calului</name><description>Nume: Dealul Calului, Tip: cai, Nivel: 2, Județ: Bistrita Nasaud, Formă: Deal, ID: 5481 <br /><b>Variante</b><br />Nume: Dealul Calului, Hartă: Geomil 25000, Limbă: Limba română</description><Point><coordinates>24.535007,46.993401,0</coordinates></Point></Placemark>
<Placemark><name>Dealul Calului</name><description>Nume: Dealul Calului, Tip: cai, Nivel: 2, Județ: Bistrita Nasaud, Formă: Deal, ID: 9915 <br /><b>Variante</b><br />Nume: Dealul Calului, Hartă: Geomil 25000, Limbă: Limba română</description><Point><coordinates>24.984934,47.380011,0</coordinates></Point></Placemark>
<Placemark><name>Dealul Calului</name><description>Nume: Dealul Calului, Tip: cai, Nivel: 2, Județ: Bistrita Nasaud, Formă: Deal, ID: 1024 <br /><b>Variante</b><br />Nume: Dealul Calului, Hartă: Geomil 25000, Limbă: Limba română</description><Point><coordinates>24.346227,47.486643,0</coordinates></Point></Placemark>
<Placemark><name>Dealul Calului</name><description>Nume: Dealul Calului, Tip: cai, Nivel: 2, Județ: Bistrita Nasaud, Formă: Deal, ID: 5433 <br /><b>Variante</b><br />Nume: Dealul Calului, Hartă: Geomil 25000, Limbă: Limba română</description><Point><coordinates>24.913806,47.116427,0</coordinates></Point></Placemark>
<Placemark><name>Dosu Cailor</name><description>Nume: Dosu Cailor, Tip: cai, Nivel: 2, Județ: Bistrita Nasaud, Formă: Înălțime, ID: 11758 <br /><b>Variante</b><br />Nume: Dosu Cailor, Hartă: Transilvania (1869-1870), Limbă: Limba română</description><Point><coordinates>24.359205,46.761990,0</coordinates></Point></Placemark>
<Placemark><name>Izvorul Calului</name><description>Nume: Izvorul Calului, Tip: cai, Nivel: 2, Județ: Bistrita Nasaud, Formă: Vale, ID: 10777 <br /><b>Variante</b><br />Nume: Izvorul Calului, Hartă: Imperiul Habsburgic (1887), Limbă: Limba română</description><Point><coordinates>24.774146,47.504913,0</coordinates></Point></Placemark>
<Placemark><name>Măgura Calului</name><description>Nume: Măgura Calului, Tip: cai, Nivel: 2, Județ: Bistrita Nasaud, Formă: Înălțime, ID: 6370, ID Părinte: 6368 <br /><b>Variante</b><br />Nume: Măgura Calului, Hartă: Geomil 25000, Limbă: Limba română</description><Point><coordinates>25.022285,47.265584,0</coordinates></Point></Placemark>
<Placemark><LineString id="6370_6368"><tessellate>1</tessellate><coordinates>25.022285,47.265584,0.
24.997041,47.287692,0</coordinates></LineString><Style><LineStyle><width>3</width></LineStyle></Style></Placemark>
<Placemark><name>Piciorul Calului</name><description>Nume: Piciorul Calului, Tip: cai, Nivel: 2, Județ: Bistrita Nasaud, Formă: Înălțime, ID: 6354 <br /><b>Variante</b><br />Nume: Piciorul Calului, Hartă: PDT, Limbă: Limba română</description><Point><coordinates>24.720589,47.538369,0</coordinates></Point></Placemark>
<Placemark><name>Poiana Calului</name><description>Nume: Poiana Calului, Tip: cai, Nivel: 2, Județ: Bistrita Nasaud, Formă: Poiană, ID: 10031 <br /><b>Variante</b><br />Nume: Poiana Calului, Hartă: PDT, Limbă: Limba română</description><Point><coordinates>25.011283,47.145283,0</coordinates></Point></Placemark>
<Placemark><name>Poiana Calului</name><description>Nume: Poiana Calului, Tip: cai, Nivel: 2, Județ: Bistrita Nasaud, Formă: Poiană, ID: 5432, ID Părinte: 5433 <br /><b>Variante</b><br />Nume: Poiana Calului, Hartă: Geomil 25000, Limbă: Limba română</description><Point><coordinates>24.915513,47.121578,0</coordinates></Point></Placemark>
<Placemark><LineString id="5432_5433"><tessellate>1</tessellate><coordinates>24.915513,47.121578,0.
24.913806,47.116427,0</coordinates></LineString><Style><LineStyle><width>3</width></LineStyle></Style></Placemark>
<Placemark><name>Poiana Calului</name><description>Nume: Poiana Calului, Tip: cai, Nivel: 2, Județ: Bistrita Nasaud, Formă: Poiană, ID: 6369, ID Părinte: 6368 <br /><b>Variante</b><br />Nume: Poiana Calului, Hartă: Geomil 25000, Limbă: Limba română</description><Point><coordinates>25.002616,47.274020,0</coordinates></Point></Placemark>
<Placemark><LineString id="6369_6368"><tessellate>1</tessellate><coordinates>25.002616,47.274020,0.
24.997041,47.287692,0</coordinates></LineString><Style><LineStyle><width>3</width></LineStyle></Style></Placemark>
<Placemark><name>Valea Cailor</name><description>Nume: Valea Cailor, Tip: cai, Nivel: 2, Județ: Bistrita Nasaud, Formă: Vale, ID: 7120 <br /><b>Variante</b><br />Nume: Valea Cailor, Hartă: PDT, Limbă: Limba română</description><Point><coordinates>24.306746,47.204898,0</coordinates></Point></Placemark>
<Placemark><name>Valea Calului</name><description>Nume: Valea Calului, Tip: cai, Nivel: 2, Județ: Bistrita Nasaud, Formă: Vale, ID: 1025, ID Părinte: 1024 <br /><b>Variante</b><br />Nume: Valea Calului, Hartă: Geomil 25000, Limbă: Limba română</description><Point><coordinates>24.353563,47.483142,0</coordinates></Point></Placemark>
<Placemark><LineString id="1025_1024"><tessellate>1</tessellate><coordinates>24.353563,47.483142,0.
24.346227,47.486643,0</coordinates></LineString><Style><LineStyle><width>3</width></LineStyle></Style></Placemark>
<Placemark><name>Valea Calului</name><description>Nume: Valea Calului, Tip: cai, Nivel: 2, Județ: Bistrita Nasaud, Formă: Vale, ID: 6367, ID Părinte: 6368 <br /><b>Variante</b><br />Nume: Valea Calului, Hartă: Geomil 25000, Limbă: Limba română</description><Point><coordinates>25.000151,47.290857,0</coordinates></Point></Placemark>
<Placemark><LineString id="6367_6368"><tessellate>1</tessellate><coordinates>25.000151,47.290857,0.
24.997041,47.287692,0</coordinates></LineString><Style><LineStyle><width>3</width></LineStyle></Style></Placemark>
<Placemark><name>Valea Iliuța Calului</name><description>Nume: Valea Iliuța Calului, Tip: cai, Nivel: 2, Județ: Bistrita Nasaud, Formă: Vale, ID: 6366, ID Părinte: 6368 <br /><b>Variante</b><br />Nume: Valea Iliuța Calului, Hartă: Geomil 25000, Limbă: Limba română</description><Point><coordinates>24.970935,47.309775,0</coordinates></Point></Placemark>
<Placemark><LineString id="6366_6368"><tessellate>1</tessellate><coordinates>24.970935,47.309775,0.
24.997041,47.287692,0</coordinates></LineString><Style><LineStyle><width>3</width></LineStyle></Style></Placemark>
<Placemark><name>Iapa Albă</name><description>Nume: Iapa Albă, Tip: iapă, Nivel: 3, Județ: Bistrita Nasaud, Formă: Înălțime, ID: 6351 <br /><b>Variante</b><br />Nume: Iapa Albă, Hartă: PDT, Limbă: Limba română</description><Point><coordinates>24.918039,47.579183,0</coordinates></Point></Placemark>
<Placemark><name>Cotul Calului</name><description>Nume: Cotul Calului, Tip: cai, Nivel: 2, Județ: Botosani, Formă: Apă-deal-câmpie, ID: 14072 <br /><b>Variante</b><br />Nume: Cotul Calului, Hartă: Geomil 25000, Limbă: Limba română</description><Point><coordinates>26.858822,47.673763,0</coordinates></Point></Placemark>
<Placemark><name>Dealul Cailor</name><description>Nume: Dealul Cailor, Tip: cai, Nivel: 2, Județ: Botosani, Formă: Deal, ID: 1809 <br /><b>Variante</b><br />Nume: Dealul Cailor, Hartă: Geomil 25000, Limbă: Limba română</description><Point><coordinates>26.553576,47.984486,0</coordinates></Point></Placemark>
<Placemark><name>Dealul Calul Alb</name><description>Nume: Dealul Calul Alb, Tip: cai, Nivel: 2, Județ: Botosani, Formă: Deal, ID: 1811 <br /><b>Variante</b><br />Nume: Dealul Calul Alb, Hartă: Geomil 25000, Limbă: Limba română</description><Point><coordinates>26.583631,48.136562,0</coordinates></Point></Placemark>
<Placemark><name>Piciorul Calului</name><description>Nume: Piciorul Calului, Tip: cai, Nivel: 2, Județ: Botosani, Formă: Altele, ID: 1764 <br /><b>Variante</b><br />Nume: Piciorul Calului, Hartă: Geomil 25000, Limbă: Limba română</description><Point><coordinates>26.801458,47.531684,0</coordinates></Point></Placemark>
<Placemark><name>Cobâla</name><description>Nume: Cobâla, Tip: cobâlă, Nivel: 4, Județ: Botosani, Formă: Localitate, ID: 4906, ID Părinte: 1806 <br /><b>Variante</b><br />Nume: Cobâla, Hartă: PDT, Limbă: Limba română</description><Point><coordinates>26.364646,47.931494,0</coordinates></Point></Placemark>
<Placemark><LineString id="4906_1806"><tessellate>1</tessellate><coordinates>26.364646,47.931494,0.
26.354209,47.937600,0</coordinates></LineString><Style><LineStyle><width>3</width></LineStyle></Style></Placemark>
<Placemark><name>Dealul Cobâli</name><description>Nume: Dealul Cobâli, Tip: cobâlă, Nivel: 4, Județ: Botosani, Formă: Deal, ID: 4912 <br /><b>Variante</b><br />Nume: Dealul Cobâli, Hartă: Geomil 25000, Limbă: Limba română</description><Point><coordinates>26.417533,47.929251,0</coordinates></Point></Placemark>
<Placemark><name>Iazul Cobâlei</name><description>Nume: Iazul Cobâlei, Tip: cobâlă, Nivel: 4, Județ: Botosani, Formă: Apă-deal-câmpie, ID: 2309, ID Părinte: 1806 <br /><b>Variante</b><br />Nume: Iazul Cobâlei, Hartă: Geomil 25000, Limbă: Limba română</description><Point><coordinates>26.354590,47.925873,0</coordinates></Point></Placemark>
<Placemark><LineString id="2309_1806"><tessellate>1</tessellate><coordinates>26.354590,47.925873,0.
26.354209,47.937600,0</coordinates></LineString><Style><LineStyle><width>3</width></LineStyle></Style></Placemark>
<Placemark><name>Valea Cobâlei</name><description>Nume: Valea Cobâlei, Tip: cobâlă, Nivel: 4, Județ: Botosani, Formă: Vale, ID: 1806 <br /><b>Variante</b><br />Nume: Valea Cobâlei, Hartă: Geomil 25000, Limbă: Limba română</description><Point><coordinates>26.354209,47.937600,0</coordinates></Point></Placemark>
<Placemark><name>Dealul Iepei</name><description>Nume: Dealul Iepei, Tip: iapă, Nivel: 3, Județ: Botosani, Formă: Deal, ID: 3572 <br /><b>Variante</b><br />Nume: Dealul Iepei, Hartă: PDT, Limbă: Limba română</description><Point><coordinates>26.769848,47.851107,0</coordinates></Point></Placemark>
<Placemark><name>Dealul Iepăriei</name><description>Nume: Dealul Iepăriei, Tip: iepărie, Nivel: 4, Județ: Botosani, Formă: Deal, ID: 4915 <br /><b>Variante</b><br />Nume: Dealul Iepăriei, Hartă: PDT, Limbă: Limba română<br />Nume: Iepăria, Hartă: Geomil 25000, Limbă: Limba română</description><Point><coordinates>26.571962,47.841550,0</coordinates></Point></Placemark>
<Placemark><name>Iazul Iepăriei</name><description>Nume: Iazul Iepăriei, Tip: iepărie, Nivel: 4, Județ: Botosani, Formă: Apă-deal-câmpie, ID: 2378 <br /><b>Variante</b><br />Nume: Iazul Iepăriei, Hartă: Geomil 25000, Limbă: Limba română</description><Point><coordinates>27.034237,47.775987,0</coordinates></Point></Placemark>
<Placemark><name>Lacul la Iepărie</name><description>Nume: Lacul la Iepărie, Tip: iepărie, Nivel: 4, Județ: Botosani, Formă: Lac, ID: 4916, ID Părinte: 4915 <br /><b>Variante</b><br />Nume: Lacul la Iepărie, Hartă: PDT, Limbă: Limba română</description><Point><coordinates>26.582271,47.840475,0</coordinates></Point></Placemark>
<Placemark><LineString id="4916_4915"><tessellate>1</tessellate><coordinates>26.582271,47.840475,0.
26.571962,47.841550,0</coordinates></LineString><Style><LineStyle><width>3</width></LineStyle></Style></Placemark>
<Placemark><name>Podișul Iepăriei</name><description>Nume: Podișul Iepăriei, Tip: iepărie, Nivel: 4, Județ: Botosani, Formă: Altele, ID: 2373 <br /><b>Variante</b><br />Nume: Podișul Iepăriei, Hartă: Geomil 25000, Limbă: Limba română</description><Point><coordinates>27.197332,47.682199,0</coordinates></Point></Placemark>
<Placemark><name>Poiana Iepăriei</name><description>Nume: Poiana Iepăriei, Tip: iepărie, Nivel: 4, Județ: Botosani, Formă: Poiană, ID: 4901 <br /><b>Variante</b><br />Nume: Poiana Iepăriei, Hartă: PDT, Limbă: Limba română</description><Point><coordinates>26.244495,48.019241,0</coordinates></Point></Placemark>
<Placemark><name>Iazul Mânzului</name><description>Nume: Iazul Mânzului, Tip: mânz, Nivel: 3, Județ: Botosani, Formă: Apă-deal-câmpie, ID: 2415 <br /><b>Variante</b><br />Nume: Iazul Mânzului, Hartă: Geomil 25000, Limbă: Limba română</description><Point><coordinates>26.729884,47.788405,0</coordinates></Point></Placemark>
<Placemark><name>La Pod la Mânzoaia</name><description>Nume: La Pod la Mânzoaia, Tip: mânzoaie, Nivel: 4, Județ: Botosani, Formă: Altele, ID: 2416, ID Părinte: 2415 <br /><b>Variante</b><br />Nume: La Pod la Mânzoaia, Hartă: Geomil 25000, Limbă: Limba română</description><Point><coordinates>26.733127,47.783039,0</coordinates></Point></Placemark>
<Placemark><LineString id="2416_2415"><tessellate>1</tessellate><coordinates>26.733127,47.783039,0.
26.729884,47.788405,0</coordinates></LineString><Style><LineStyle><width>3</width></LineStyle></Style></Placemark>
<Placemark><name>Movila Cailor</name><description>Nume: Movila Cailor, Tip: cai, Nivel: 2, Județ: Braila, Formă: Înălțime, ID: 9269 <br /><b>Variante</b><br />Nume: Movila Cailor, Hartă: PDT, Limbă: Limba română</description><Point><coordinates>27.725749,44.845670,0</coordinates></Point></Placemark>
<Placemark><name>Movila Calului</name><description>Nume: Movila Calului, Tip: cai, Nivel: 2, Județ: Braila, Formă: Înălțime, ID: 6720 <br /><b>Variante</b><br />Nume: Movila Calului, Hartă: PDT, Limbă: Limba română</description><Point><coordinates>27.823187,44.974180,0</coordinates></Point></Placemark>
<Placemark><name>Movila Calului</name><description>Nume: Movila Calului, Tip: cai, Nivel: 2, Județ: Braila, Formă: Înălțime, ID: 6724 <br /><b>Variante</b><br />Nume: Movila Calului, Hartă: PDT, Limbă: Limba română</description><Point><coordinates>27.712655,44.977999,0</coordinates></Point></Placemark>
<Placemark><name>Movila Măgura Calului</name><description>Nume: Movila Măgura Calului, Tip: cai, Nivel: 2, Județ: Braila, Formă: Înălțime, ID: 9260 <br /><b>Variante</b><br />Nume: Movila Măgura Calului, Hartă: PDT, Limbă: Limba română</description><Point><coordinates>27.897828,45.232908,0</coordinates></Point></Placemark>
<Placemark><name>Vadu Cailor</name><description>Nume: Vadu Cailor, Tip: cai, Nivel: 2, Județ: Braila, Formă: Altele, ID: 9266 <br /><b>Variante</b><br />Nume: Vadu Cailor, Hartă: PDT, Limbă: Limba română</description><Point><coordinates>27.876040,45.006909,0</coordinates></Point></Placemark>
<Placemark><name>Iapa</name><description>Nume: Iapa, Tip: iapă, Nivel: 3, Județ: Braila, Formă: Localitate, ID: 3489 <br /><b>Variante</b><br />Nume: Iapa, Hartă: PDT, Limbă: Limba română</description><Point><coordinates>27.933224,44.823949,0</coordinates></Point></Placemark>
<Placemark><name>La Piatra Iepei</name><description>Nume: La Piatra Iepei, Tip: iapă, Nivel: 3, Județ: Braila, Formă: Altele, ID: 3187 <br /><b>Variante</b><br />Nume: La Piatra Iepei, Hartă: Geomil 25000, Limbă: Limba română</description><Point><coordinates>27.321879,44.935044,0</coordinates></Point></Placemark>
<Placemark><name>Calul</name><description>Nume: Calul, Tip: cai, Nivel: 2, Județ: Brasov, Formă: Vale, ID: 13289 <br /><b>Variante</b><br />Nume: Calul, Hartă: Geomil 25000, Limbă: Limba română</description><Point><coordinates>24.893554,45.630977,0</coordinates></Point></Placemark>
<Placemark><name>Dealul Spinarea Calului</name><description>Nume: Dealul Spinarea Calului, Tip: cai, Nivel: 2, Județ: Brasov, Formă: Deal, ID: 1548, ID Părinte: 1549 <br /><b>Variante</b><br />Nume: Dealul Spinarea Calului, Hartă: Geomil 25000, Limbă: Limba română</description><Point><coordinates>25.564596,45.551277,0</coordinates></Point></Placemark>
<Placemark><LineString id="1548_1549"><tessellate>1</tessellate><coordinates>25.564596,45.551277,0.
25.573079,45.547340,0</coordinates></LineString><Style><LineStyle><width>3</width></LineStyle></Style></Placemark>
<Placemark><name>Grădina Cailor</name><description>Nume: Grădina Cailor, Tip: cai, Nivel: 2, Județ: Brasov, Formă: Altele, ID: 7941 <br /><b>Variante</b><br />Nume: Grădina Cailor, Hartă: PDT, Limbă: Limba română</description><Point><coordinates>25.279385,46.043466,0</coordinates></Point></Placemark>
<Placemark><name>Grădina Cailor</name><description>Nume: Grădina Cailor, Tip: cai, Nivel: 2, Județ: Brasov, Formă: Altele, ID: 2724 <br /><b>Variante</b><br />Nume: Grădina Cailor, Hartă: Geomil 25000, Limbă: Limba română</description><Point><coordinates>25.161527,46.090398,0</coordinates></Point></Placemark>
<Placemark><name>Lunca Cailor</name><description>Nume: Lunca Cailor, Tip: cai, Nivel: 2, Județ: Brasov, Formă: Apă-deal-câmpie, ID: 2728 <br /><b>Variante</b><br />Nume: Lunca Cailor, Hartă: Geomil 25000, Limbă: Limba română</description><Point><coordinates>25.280400,46.097220,0</coordinates></Point></Placemark>
<Placemark><name>Muntele Cailor</name><description>Nume: Muntele Cailor, Tip: cai, Nivel: 2, Județ: Brasov, Formă: Înălțime, ID: 802 <br /><b>Variante</b><br />Nume: Muntele Cailor, Hartă: Geomil 25000, Limbă: Limba română</description><Point><coordinates>25.870619,45.471727,0</coordinates></Point></Placemark>
<Placemark><name>Muntele Calului</name><description>Nume: Muntele Calului, Tip: cai, Nivel: 2, Județ: Brasov, Formă: Înălțime, ID: 596 <br /><b>Variante</b><br />Nume: Muntele Calului, Hartă: Geomil 25000, Limbă: Limba română</description><Point><coordinates>25.388144,45.471717,0</coordinates></Point></Placemark>
<Placemark><name>Padina Calului</name><description>Nume: Padina Calului, Tip: cai, Nivel: 2, Județ: Brasov, Formă: Altele, ID: 606 <br /><b>Variante</b><br />Nume: Padina Calului, Hartă: Geomil 25000, Limbă: Limba română</description><Point><coordinates>25.253015,45.566061,0</coordinates></Point></Placemark>
<Placemark><name>Piscul Calului</name><description>Nume: Piscul Calului, Tip: cai, Nivel: 2, Județ: Brasov, Formă: Înălțime, ID: 2691 <br /><b>Variante</b><br />Nume: Piscul Calului, Hartă: Geomil 25000, Limbă: Limba română</description><Point><coordinates>25.233420,45.833037,0</coordinates></Point></Placemark>
<Placemark><name>Valea Cailor</name><description>Nume: Valea Cailor, Tip: cai, Nivel: 2, Județ: Brasov, Formă: Vale, ID: 803, ID Părinte: 802 <br /><b>Variante</b><br />Nume: Valea Cailor, Hartă: Geomil 25000, Limbă: Limba română</description><Point><coordinates>25.864764,45.460419,0</coordinates></Point></Placemark>
<Placemark><LineString id="803_802"><tessellate>1</tessellate><coordinates>25.864764,45.460419,0.
25.870619,45.471727,0</coordinates></LineString><Style><LineStyle><width>3</width></LineStyle></Style></Placemark>
<Placemark><name>Valea Calului</name><description>Nume: Valea Calului, Tip: cai, Nivel: 2, Județ: Brasov, Formă: Vale, ID: 1549 <br /><b>Variante</b><br />Nume: Valea Calului, Hartă: Geomil 25000, Limbă: Limba română</description><Point><coordinates>25.573079,45.547340,0</coordinates></Point></Placemark>
<Placemark><name>Valea Calului</name><description>Nume: Valea Calului, Tip: cai, Nivel: 2, Județ: Brasov, Formă: Vale, ID: 6819 <br /><b>Variante</b><br />Nume: Valea Calului, Hartă: Geomil 25000, Limbă: Limba română</description><Point><coordinates>25.415703,45.773620,0</coordinates></Point></Placemark>
<Placemark><name>Vârful Calului</name><description>Nume: Vârful Calului, Tip: cai, Nivel: 2, Județ: Brasov, Formă: Înălțime, ID: 6810 <br /><b>Variante</b><br />Nume: Vârful Calului, Hartă: PDT, Limbă: Limba română</description><Point><coordinates>25.268303,45.876344,0</coordinates></Point></Placemark>
<Placemark><name>Grădina Iepelor</name><description>Nume: Grădina Iepelor, Tip: iapă, Nivel: 3, Județ: Brasov, Formă: Altele, ID: 2663 <br /><b>Variante</b><br />Nume: Grădina Iepelor, Hartă: Geomil 25000, Limbă: Limba română</description><Point><coordinates>24.843247,45.986178,0</coordinates></Point></Placemark>
<Placemark><name>Valea Grădina Iepelor</name><description>Nume: Valea Grădina Iepelor, Tip: iapă, Nivel: 3, Județ: Brasov, Formă: Vale, ID: 2664, ID Părinte: 2663 <br /><b>Variante</b><br />Nume: Valea Grădina Iepelor, Hartă: Geomil 25000, Limbă: Limba română</description><Point><coordinates>24.844601,45.981593,0</coordinates></Point></Placemark>
<Placemark><LineString id="2664_2663"><tessellate>1</tessellate><coordinates>24.844601,45.981593,0.
24.843247,45.986178,0</coordinates></LineString><Style><LineStyle><width>3</width></LineStyle></Style></Placemark>
<Placemark><name>Curmătura Calului</name><description>Nume: Curmătura Calului, Tip: cai, Nivel: 2, Județ: Buzau, Formă: Înălțime, ID: 13783 <br /><b>Variante</b><br />Nume: Curmătura Calului, Hartă: Geomil 25000, Limbă: Limba română</description><Point><coordinates>26.459336,45.623281,0</coordinates></Point></Placemark>
<Placemark><name>Movila Cailor</name><description>Nume: Movila Cailor, Tip: cai, Nivel: 2, Județ: Buzau, Formă: Înălțime, ID: 68 <br /><b>Variante</b><br />Nume: Movila Cailor, Hartă: Geomil 25000, Limbă: Limba română<br />Nume: кург. Каи (mov. Cai), Hartă: Sovietică, Limbă: Limba română<br />Nume: Movila Cailor, Hartă: PDT, Limbă: Limba română</description><Point><coordinates>26.719907,45.072635,0</coordinates></Point></Placemark>
<Placemark><name>Muntele Podul Calului</name><description>Nume: Muntele Podul Calului, Tip: cai, Nivel: 2, Județ: Buzau, Formă: Înălțime, ID: 794 <br /><b>Variante</b><br />Nume: Muntele Podul Calului, Hartă: Geomil 25000, Limbă: Limba română</description><Point><coordinates>26.356488,45.528570,0</coordinates></Point></Placemark>
<Placemark><name>Pârâul Calului</name><description>Nume: Pârâul Calului, Tip: cai, Nivel: 2, Județ: Buzau, Formă: Vale, ID: 796, ID Părinte: 795 <br /><b>Variante</b><br />Nume: Pârâul Calului, Hartă: Geomil 25000, Limbă: Limba română</description><Point><coordinates>26.359059,45.549947,0</coordinates></Point></Placemark>
<Placemark><LineString id="796_795"><tessellate>1</tessellate><coordinates>26.359059,45.549947,0.
26.355925,45.538156,0</coordinates></LineString><Style><LineStyle><width>3</width></LineStyle></Style></Placemark>
<Placemark><name>Pârâul de la Râpa Calului</name><description>Nume: Pârâul de la Râpa Calului, Tip: cai, Nivel: 2, Județ: Buzau, Formă: Vale, ID: 7496 <br /><b>Variante</b><br />Nume: Pârâul de la Râpa Calului, Hartă: PDT, Limbă: Limba română</description><Point><coordinates>26.353592,45.218540,0</coordinates></Point></Placemark>
<Placemark><name>Piscul Calului</name><description>Nume: Piscul Calului, Tip: cai, Nivel: 2, Județ: Buzau, Formă: Înălțime, ID: 6020 <br /><b>Variante</b><br />Nume: Piscul Calului, Hartă: Geomil 25000, Limbă: Limba română</description><Point><coordinates>26.669193,45.306198,0</coordinates></Point></Placemark>
<Placemark><name>Plaiul Piatra Calului</name><description>Nume: Plaiul Piatra Calului, Tip: cai, Nivel: 2, Județ: Buzau, Formă: Înălțime, ID: 795 <br /><b>Variante</b><br />Nume: Plaiul Piatra Calului, Hartă: Geomil 25000, Limbă: Limba română</description><Point><coordinates>26.355925,45.538156,0</coordinates></Point></Placemark>
<Placemark><name>Podu Calului</name><description>Nume: Podu Calului, Tip: cai, Nivel: 2, Județ: Buzau, Formă: Înălțime, ID: 8760 <br /><b>Variante</b><br />Nume: Podu Calului, Hartă: PDT, Limbă: Limba română</description><Point><coordinates>26.601869,45.523808,0</coordinates></Point></Placemark>
<Placemark><name>Râpa Calului</name><description>Nume: Râpa Calului, Tip: cai, Nivel: 2, Județ: Buzau, Formă: Înălțime, ID: 3965 <br /><b>Variante</b><br />Nume: Râpa Calului, Hartă: Geomil 25000, Limbă: Limba română<br />Nume: Râpa Calului, Hartă: PDT, Limbă: Limba română</description><Point><coordinates>26.535734,45.103741,0</coordinates></Point></Placemark>
<Placemark><name>Valea Cailor</name><description>Nume: Valea Cailor, Tip: cai, Nivel: 2, Județ: Buzau, Formă: Vale, ID: 61 <br /><b>Variante</b><br />Nume: Valea Cailor, Hartă: PDT, Limbă: Limba română<br />Nume: Valea Kailor, Hartă: Austriacă, Limbă: Limba română</description><Point><coordinates>26.609069,44.889177,0</coordinates></Point></Placemark>
<Placemark><name>V. Iepe</name><description>Nume: V. Iepe, Tip: iapă, Nivel: 3, Județ: Buzau, Formă: Vale, ID: 5761 <br /><b>Variante</b><br />Nume: V. Iepe, Hartă: Austriacă, Limbă: Limba română</description><Point><coordinates>26.420980,45.354193,0</coordinates></Point></Placemark>
<Placemark><name>Valea Iepei</name><description>Nume: Valea Iepei, Tip: iapă, Nivel: 3, Județ: Buzau, Formă: Vale, ID: 12991 <br /><b>Variante</b><br />Nume: Valea Iepei, Hartă: Geomil 25000, Limbă: Limba română</description><Point><coordinates>26.462971,45.352665,0</coordinates></Point></Placemark>
<Placemark><name>Privalul Armăsaru</name><description>Nume: Privalul Armăsaru, Tip: armăsari, Nivel: 3, Județ: Calarasi, Formă: Apă-deal-câmpie, ID: 3278 <br /><b>Variante</b><br />Nume: Privalul Armăsaru, Hartă: PDT, Limbă: Limba română</description><Point><coordinates>26.918460,44.204693,0</coordinates></Point></Placemark>
<Placemark><name>Vadukailor</name><description>Nume: Vadukailor, Tip: cai, Nivel: 2, Județ: Calarasi, Formă: Apă-deal-câmpie, ID: 3620 <br /><b>Variante</b><br />Nume: Vadukailor, Hartă: Austriacă, Limbă: Limba română<br />Nume: Vadul Cailor, Hartă: PDT, Limbă: Limba română</description><Point><coordinates>27.315537,44.202757,0</coordinates></Point></Placemark>
<Placemark><name>La Iapa</name><description>Nume: La Iapa, Tip: iapă, Nivel: 3, Județ: Calarasi, Formă: Altele, ID: 11271 <br /><b>Variante</b><br />Nume: La Iapa, Hartă: Geomil 25000, Limbă: Limba română</description><Point><coordinates>27.417086,44.132929,0</coordinates></Point></Placemark>
<Placemark><name>Dealu Calului</name><description>Nume: Dealu Calului, Tip: cai, Nivel: 2, Județ: Caras Severin, Formă: Deal, ID: 5697 <br /><b>Variante</b><br />Nume: Dealu Calului, Hartă: Geomil 25000, Limbă: Limba română</description><Point><coordinates>22.012839,45.429200,0</coordinates></Point></Placemark>
<Placemark><name>Ogașul Cailor</name><description>Nume: Ogașul Cailor, Tip: cai, Nivel: 2, Județ: Caras Severin, Formă: Vale, ID: 8674 <br /><b>Variante</b><br />Nume: Ogașul Cailor, Hartă: PDT, Limbă: Limba română</description><Point><coordinates>22.517297,45.134266,0</coordinates></Point></Placemark>
<Placemark><name>Pârâu Cailor</name><description>Nume: Pârâu Cailor, Tip: cai, Nivel: 2, Județ: Caras Severin, Formă: Vale, ID: 6093 <br /><b>Variante</b><br />Nume: Pârâu Cailor, Hartă: Geomil 25000, Limbă: Limba română</description><Point><coordinates>22.410826,45.386746,0</coordinates></Point></Placemark>
<Placemark><name>Valea Calului</name><description>Nume: Valea Calului, Tip: cai, Nivel: 2, Județ: Caras Severin, Formă: Vale, ID: 5696, ID Părinte: 5697 <br /><b>Variante</b><br />Nume: Valea Calului, Hartă: Geomil 25000, Limbă: Limba română</description><Point><coordinates>22.035888,45.434155,0</coordinates></Point></Placemark>
<Placemark><LineString id="5696_5697"><tessellate>1</tessellate><coordinates>22.035888,45.434155,0.
22.012839,45.429200,0</coordinates></LineString><Style><LineStyle><width>3</width></LineStyle></Style></Placemark>
<Placemark><name>Vârfu Cailor</name><description>Nume: Vârfu Cailor, Tip: cai, Nivel: 2, Județ: Caras Severin, Formă: Înălțime, ID: 847 <br /><b>Variante</b><br />Nume: Vârfu Cailor, Hartă: Geomil 25000, Limbă: Limba română</description><Point><coordinates>22.549394,45.155049,0</coordinates></Point></Placemark>
<Placemark><name>Groapa Iepii</name><description>Nume: Groapa Iepii, Tip: iapă, Nivel: 3, Județ: Caras Severin, Formă: Altele, ID: 11498 <br /><b>Variante</b><br />Nume: Groapa Iepii, Hartă: ANCPI, Limbă: Limba română</description><Point><coordinates>21.920845,45.203052,0</coordinates></Point></Placemark>
<Placemark><name>Paghina Iepii</name><description>Nume: Paghina Iepii, Tip: iapă, Nivel: 3, Județ: Caras Severin, Formă: Altele, ID: 892 <br /><b>Variante</b><br />Nume: Paghina Iepii, Hartă: Geomil 25000, Limbă: Limba română<br />Nume: Padina Iepei, Hartă: PDT, Limbă: Limba română</description><Point><coordinates>21.651628,45.464989,0</coordinates></Point></Placemark>
<Placemark><name>Șeaua Iepii</name><description>Nume: Șeaua Iepii, Tip: iapă, Nivel: 3, Județ: Caras Severin, Formă: Înălțime, ID: 6182 <br /><b>Variante</b><br />Nume: Șeaua Iepii, Hartă: Geomil 25000, Limbă: Limba română<br />Nume: Șeaua Iepii, Hartă: PDT, Limbă: Limba română</description><Point><coordinates>22.292594,45.613621,0</coordinates></Point></Placemark>
<Placemark><name>Valea Iepii</name><description>Nume: Valea Iepii, Tip: iapă, Nivel: 3, Județ: Caras Severin, Formă: Vale, ID: 894 <br /><b>Variante</b><br />Nume: Valea Iepii, Hartă: Geomil 25000, Limbă: Limba română</description><Point><coordinates>21.588044,45.242994,0</coordinates></Point></Placemark>
<Placemark><name>Pârâu Mânzului</name><description>Nume: Pârâu Mânzului, Tip: mânz, Nivel: 3, Județ: Caras Severin, Formă: Vale, ID: 6095 <br /><b>Variante</b><br />Nume: Pârâu Mânzului, Hartă: Geomil 25000, Limbă: Limba română</description><Point><coordinates>22.516621,45.479494,0</coordinates></Point></Placemark>
<Placemark><name>Dâmbul Cailor</name><description>Nume: Dâmbul Cailor, Tip: cai, Nivel: 2, Județ: Cluj, Formă: Înălțime, ID: 13717 <br /><b>Variante</b><br />Nume: Dâmbul Cailor, Hartă: Imperiul Habsburgic (1887), Limbă: Limba română</description><Point><coordinates>23.124337,46.632562,0</coordinates></Point></Placemark>
<Placemark><name>Dealu Calului</name><description>Nume: Dealu Calului, Tip: cai, Nivel: 2, Județ: Cluj, Formă: Deal, ID: 5894, ID Părinte: 5890 <br /><b>Variante</b><br />Nume: Dealu Calului, Hartă: Geomil 25000, Limbă: Limba română</description><Point><coordinates>23.221218,46.606384,0</coordinates></Point></Placemark>
<Placemark><LineString id="5894_5890"><tessellate>1</tessellate><coordinates>23.221218,46.606384,0.
23.254338,46.617398,0</coordinates></LineString><Style><LineStyle><width>3</width></LineStyle></Style></Placemark>
<Placemark><name>Dealu Calului</name><description>Nume: Dealu Calului, Tip: cai, Nivel: 2, Județ: Cluj, Formă: Deal, ID: 12542 <br /><b>Variante</b><br />Nume: Dealu Calului, Hartă: Geomil 25000, Limbă: Limba română</description><Point><coordinates>22.879863,46.592622,0</coordinates></Point></Placemark>
<Placemark><name>Dealul Calului</name><description>Nume: Dealul Calului, Tip: cai, Nivel: 2, Județ: Cluj, Formă: Deal, ID: 8980 <br /><b>Variante</b><br />Nume: Dealul Calului, Hartă: PDT, Limbă: Limba română</description><Point><coordinates>23.816469,47.228102,0</coordinates></Point></Placemark>
<Placemark><name>La Calu Mort</name><description>Nume: La Calu Mort, Tip: cai, Nivel: 2, Județ: Cluj, Formă: Altele, ID: 12543 <br /><b>Variante</b><br />Nume: La Calu Mort, Hartă: Geomil 25000, Limbă: Limba română</description><Point><coordinates>22.884172,46.620613,0</coordinates></Point></Placemark>
<Placemark><name>Valea Calului</name><description>Nume: Valea Calului, Tip: cai, Nivel: 2, Județ: Cluj, Formă: Vale, ID: 5890 <br /><b>Variante</b><br />Nume: Valea Calului, Hartă: Geomil 25000, Limbă: Limba română</description><Point><coordinates>23.254338,46.617398,0</coordinates></Point></Placemark>
<Placemark><name>Movila Cailor</name><description>Nume: Movila Cailor, Tip: cai, Nivel: 2, Județ: Constanta, Formă: Înălțime, ID: 2837 <br /><b>Variante</b><br />Nume: Movila Cailor, Hartă: Geomil 25000, Limbă: Limba română</description><Point><coordinates>28.057500,44.533863,0</coordinates></Point></Placemark>
<Placemark><name>Grădina Cailor</name><description>Nume: Grădina Cailor, Tip: cai, Nivel: 2, Județ: Covasna, Formă: Altele, ID: 6057 <br /><b>Variante</b><br />Nume: Grădina Cailor, Hartă: Geomil 25000, Limbă: Limba română</description><Point><coordinates>25.735661,46.012491,0</coordinates></Point></Placemark>
<Placemark><name>Piscu Calului</name><description>Nume: Piscu Calului, Tip: cai, Nivel: 2, Județ: Dambovita, Formă: Înălțime, ID: 527 <br /><b>Variante</b><br />Nume: Piscu Calului, Hartă: Geomil 25000, Limbă: Limba română</description><Point><coordinates>25.267924,44.911740,0</coordinates></Point></Placemark>
<Placemark><name>Valea Calului</name><description>Nume: Valea Calului, Tip: cai, Nivel: 2, Județ: Dambovita, Formă: Vale, ID: 11128 <br /><b>Variante</b><br />Nume: Valea Calului, Hartă: PDT, Limbă: Limba română</description><Point><coordinates>25.447964,45.233066,0</coordinates></Point></Placemark>
<Placemark><name>Cobia</name><description>Nume: Cobia, Tip: cobia, Nivel: 5, Județ: Dambovita, Formă: Localitate, ID: 10126 <br /><b>Variante</b><br />Nume: Cobia, Hartă: Geomil 25000, Limbă: Limba română</description><Point><coordinates>25.336287,44.793071,0</coordinates></Point></Placemark>
<Placemark><name>Dealu Cobia</name><description>Nume: Dealu Cobia, Tip: cobia, Nivel: 5, Județ: Dambovita, Formă: Deal, ID: 10130 <br /><b>Variante</b><br />Nume: Dealu Cobia, Hartă: Geomil 25000, Limbă: Limba română</description><Point><coordinates>25.322015,44.885069,0</coordinates></Point></Placemark>
<Placemark><name>Pârâul Cobia</name><description>Nume: Pârâul Cobia, Tip: cobia, Nivel: 5, Județ: Dambovita, Formă: Vale, ID: 10132, ID Părinte: 10130 <br /><b>Variante</b><br />Nume: Pârâul Cobia, Hartă: PDT, Limbă: Limba română</description><Point><coordinates>25.321591,44.881365,0</coordinates></Point></Placemark>
<Placemark><LineString id="10132_10130"><tessellate>1</tessellate><coordinates>25.321591,44.881365,0.
25.322015,44.885069,0</coordinates></LineString><Style><LineStyle><width>3</width></LineStyle></Style></Placemark>
<Placemark><name>Valea Cobia</name><description>Nume: Valea Cobia, Tip: cobia, Nivel: 5, Județ: Dambovita, Formă: Vale, ID: 7459, ID Părinte: 10130 <br /><b>Variante</b><br />Nume: Valea Cobia, Hartă: Geomil 25000, Limbă: Limba română</description><Point><coordinates>25.294701,44.927246,0</coordinates></Point></Placemark>
<Placemark><LineString id="7459_10130"><tessellate>1</tessellate><coordinates>25.294701,44.927246,0.
25.322015,44.885069,0</coordinates></LineString><Style><LineStyle><width>3</width></LineStyle></Style></Placemark>
<Placemark><name>La Lacul Iepei</name><description>Nume: La Lacul Iepei, Tip: iapă, Nivel: 3, Județ: Dambovita, Formă: Lac, ID: 3702 <br /><b>Variante</b><br />Nume: La Lacul Iepei, Hartă: PDT, Limbă: Limba română</description><Point><coordinates>25.627065,44.784789,0</coordinates></Point></Placemark>
<Placemark><name>Plaiul Iepelor</name><description>Nume: Plaiul Iepelor, Tip: iapă, Nivel: 3, Județ: Dambovita, Formă: Înălțime, ID: 11135 <br /><b>Variante</b><br />Nume: Plaiul Iepelor, Hartă: PDT, Limbă: Limba română</description><Point><coordinates>25.642733,45.088295,0</coordinates></Point></Placemark>
<Placemark><name>Valea Iepelor</name><description>Nume: Valea Iepelor, Tip: iapă, Nivel: 3, Județ: Dambovita, Formă: Vale, ID: 11134, ID Părinte: 11135 <br /><b>Variante</b><br />Nume: Valea Iepelor, Hartă: PDT, Limbă: Limba română</description><Point><coordinates>25.643324,45.086096,0</coordinates></Point></Placemark>
<Placemark><LineString id="11134_11135"><tessellate>1</tessellate><coordinates>25.643324,45.086096,0.
25.642733,45.088295,0</coordinates></LineString><Style><LineStyle><width>3</width></LineStyle></Style></Placemark>
<Placemark><name>Valea Iepii</name><description>Nume: Valea Iepii, Tip: iapă, Nivel: 3, Județ: Dambovita, Formă: Vale, ID: 11144 <br /><b>Variante</b><br />Nume: Valea Iepii, Hartă: PDT, Limbă: Limba română</description><Point><coordinates>25.691278,44.858721,0</coordinates></Point></Placemark>
<Placemark><name>Dealul Calului</name><description>Nume: Dealul Calului, Tip: cai, Nivel: 2, Județ: Dolj, Formă: Deal, ID: 3348 <br /><b>Variante</b><br />Nume: Dealul Calului, Hartă: PDT, Limbă: Limba română</description><Point><coordinates>23.689019,44.186844,0</coordinates></Point></Placemark>
<Placemark><name>Dealul Calului</name><description>Nume: Dealul Calului, Tip: cai, Nivel: 2, Județ: Dolj, Formă: Deal, ID: 4818 <br /><b>Variante</b><br />Nume: Dealul Calului, Hartă: PDT, Limbă: Limba română</description><Point><coordinates>23.849587,44.330097,0</coordinates></Point></Placemark>
<Placemark><name>Gâldăul Cailor</name><description>Nume: Gâldăul Cailor, Tip: cai, Nivel: 2, Județ: Dolj, Formă: Apă-deal-câmpie, ID: 154 <br /><b>Variante</b><br />Nume: Gâldăul Cailor, Hartă: Geomil 25000, Limbă: Limba română</description><Point><coordinates>23.321526,43.889001,0</coordinates></Point></Placemark>
<Placemark><name>Grindul Calului</name><description>Nume: Grindul Calului, Tip: cai, Nivel: 2, Județ: Dolj, Formă: Înălțime, ID: 11794 <br /><b>Variante</b><br />Nume: Grindul Calului, Hartă: Geomil 25000, Limbă: Limba română</description><Point><coordinates>23.750704,43.895794,0</coordinates></Point></Placemark>
<Placemark><name>Lacul Calului</name><description>Nume: Lacul Calului, Tip: cai, Nivel: 2, Județ: Dolj, Formă: Lac, ID: 3357 <br /><b>Variante</b><br />Nume: Lacul Calului, Hartă: PDT, Limbă: Limba română</description><Point><coordinates>23.626423,44.217144,0</coordinates></Point></Placemark>
<Placemark><name>Măgura Cailor</name><description>Nume: Măgura Cailor, Tip: cai, Nivel: 2, Județ: Dolj, Formă: Înălțime, ID: 8105 <br /><b>Variante</b><br />Nume: Măgura Cailor, Hartă: PDT, Limbă: Limba română</description><Point><coordinates>23.582374,43.958446,0</coordinates></Point></Placemark>
<Placemark><name>Movila Calului</name><description>Nume: Movila Calului, Tip: cai, Nivel: 2, Județ: Dolj, Formă: Înălțime, ID: 144 <br /><b>Variante</b><br />Nume: Movila Calului, Hartă: Geomil 25000, Limbă: Limba română</description><Point><coordinates>23.215283,44.159825,0</coordinates></Point></Placemark>
<Placemark><name>Valea Calului</name><description>Nume: Valea Calului, Tip: cai, Nivel: 2, Județ: Dolj, Formă: Vale, ID: 7717 <br /><b>Variante</b><br />Nume: Valea Calului, Hartă: Geomil 25000, Limbă: Limba română</description><Point><coordinates>23.752701,44.232644,0</coordinates></Point></Placemark>
<Placemark><name>Valea Calului</name><description>Nume: Valea Calului, Tip: cai, Nivel: 2, Județ: Dolj, Formă: Vale, ID: 12183 <br /><b>Variante</b><br />Nume: Valea Calului, Hartă: PDT, Limbă: Limba română</description><Point><coordinates>23.718722,44.298708,0</coordinates></Point></Placemark>
<Placemark><name>Pădurea Cobia</name><description>Nume: Pădurea Cobia, Tip: cobia, Nivel: 5, Județ: Dolj, Formă: Pădure, ID: 7716 <br /><b>Variante</b><br />Nume: Pădurea Cobia, Hartă: PDT, Limbă: Limba română<br />Nume: Pădurea Cobia, Hartă: Geomil 25000, Limbă: Limba română</description><Point><coordinates>23.736796,44.150496,0</coordinates></Point></Placemark>
<Placemark><name>M. iepii</name><description>Nume: M. iepii, Tip: iapă, Nivel: 3, Județ: Dolj, Formă: Înălțime, ID: 6015 <br /><b>Variante</b><br />Nume: M. iepii, Hartă: Austriacă, Limbă: Limba română</description><Point><coordinates>23.862251,43.770246,0</coordinates></Point></Placemark>
<Placemark><name>Valea Iapa din Deal</name><description>Nume: Valea Iapa din Deal, Tip: iapă, Nivel: 3, Județ: Dolj, Formă: Vale, ID: 383 <br /><b>Variante</b><br />Nume: Valea Iapa din Deal, Hartă: Geomil 25000, Limbă: Limba română</description><Point><coordinates>23.893817,44.573667,0</coordinates></Point></Placemark>
<Placemark><name>Valea Iapa din Vale</name><description>Nume: Valea Iapa din Vale, Tip: iapă, Nivel: 3, Județ: Dolj, Formă: Vale, ID: 384, ID Părinte: 383 <br /><b>Variante</b><br />Nume: Valea Iapa din Vale, Hartă: Geomil 25000, Limbă: Limba română</description><Point><coordinates>23.894144,44.571818,0</coordinates></Point></Placemark>
<Placemark><LineString id="384_383"><tessellate>1</tessellate><coordinates>23.894144,44.571818,0.
23.893817,44.573667,0</coordinates></LineString><Style><LineStyle><width>3</width></LineStyle></Style></Placemark>
<Placemark><name>Valea Iepei</name><description>Nume: Valea Iepei, Tip: iapă, Nivel: 3, Județ: Dolj, Formă: Vale, ID: 13852 <br /><b>Variante</b><br />Nume: Valea Iepei, Hartă: Geomil 25000, Limbă: Limba română</description><Point><coordinates>23.551830,44.607388,0</coordinates></Point></Placemark>
<Placemark><name>Dealul Cailor</name><description>Nume: Dealul Cailor, Tip: cai, Nivel: 2, Județ: Galati, Formă: Deal, ID: 9603 <br /><b>Variante</b><br />Nume: Dealul Cailor, Hartă: Moldova (1892-1898), Limbă: Limba română</description><Point><coordinates>27.861982,45.436493,0</coordinates></Point></Placemark>
<Placemark><name>Movila Cailor</name><description>Nume: Movila Cailor, Tip: cai, Nivel: 2, Județ: Galati, Formă: Înălțime, ID: 9604 <br /><b>Variante</b><br />Nume: Movila Cailor, Hartă: Moldova (1892-1898), Limbă: Limba română</description><Point><coordinates>27.674786,45.553992,0</coordinates></Point></Placemark>
<Placemark><name>Piscul Cailor</name><description>Nume: Piscul Cailor, Tip: cai, Nivel: 2, Județ: Galati, Formă: Înălțime, ID: 10909 <br /><b>Variante</b><br />Nume: Piscul Cailor, Hartă: Geomil 25000, Limbă: Limba română</description><Point><coordinates>27.914048,45.796920,0</coordinates></Point></Placemark>
<Placemark><name>La Lacul Epei</name><description>Nume: La Lacul Epei, Tip: iapă, Nivel: 3, Județ: Galati, Formă: Lac, ID: 3945 <br /><b>Variante</b><br />Nume: La Lacul Epei, Hartă: PDT, Limbă: Limba română</description><Point><coordinates>27.511206,45.910497,0</coordinates></Point></Placemark>
<Placemark><name>Valea Iepei</name><description>Nume: Valea Iepei, Tip: iapă, Nivel: 3, Județ: Galati, Formă: Vale, ID: 11288 <br /><b>Variante</b><br />Nume: Valea Iepei, Hartă: Geomil 25000, Limbă: Limba română</description><Point><coordinates>27.697536,45.757680,0</coordinates></Point></Placemark>
<Placemark><name>Lacul Calului</name><description>Nume: Lacul Calului, Tip: cai, Nivel: 2, Județ: Giurgiu, Formă: Lac, ID: 12225 <br /><b>Variante</b><br />Nume: Lacul Calului, Hartă: PDT, Limbă: Limba română</description><Point><coordinates>25.642105,44.483654,0</coordinates></Point></Placemark>
<Placemark><name>Valea Calului</name><description>Nume: Valea Calului, Tip: cai, Nivel: 2, Județ: Giurgiu, Formă: Altele, ID: 3156, ID Părinte: 3155 <br /><b>Variante</b><br />Nume: Valea Calului, Hartă: Geomil 25000, Limbă: Limba română</description><Point><coordinates>25.680867,43.988797,0</coordinates></Point></Placemark>
<Placemark><LineString id="3156_3155"><tessellate>1</tessellate><coordinates>25.680867,43.988797,0.
25.744976,44.014714,0</coordinates></LineString><Style><LineStyle><width>3</width></LineStyle></Style></Placemark>
<Placemark><name>Valea Calului</name><description>Nume: Valea Calului, Tip: cai, Nivel: 2, Județ: Giurgiu, Formă: Vale, ID: 3155 <br /><b>Variante</b><br />Nume: Valea Calului, Hartă: Geomil 25000, Limbă: Limba română<br />Nume: Valea Calului, Hartă: PDT, Limbă: Limba română</description><Point><coordinates>25.744976,44.014714,0</coordinates></Point></Placemark>
<Placemark><name>Padina cu Iapa</name><description>Nume: Padina cu Iapa, Tip: iapă, Nivel: 3, Județ: Giurgiu, Formă: Înălțime, ID: 3161 <br /><b>Variante</b><br />Nume: Padina cu Iapa, Hartă: Geomil 25000, Limbă: Limba română</description><Point><coordinates>26.179297,44.123660,0</coordinates></Point></Placemark>
<Placemark><name>Dealu Calului</name><description>Nume: Dealu Calului, Tip: cai, Nivel: 2, Județ: Gorj, Formă: Deal, ID: 222 <br /><b>Variante</b><br />Nume: Dealu Calului, Hartă: Geomil 25000, Limbă: Limba română</description><Point><coordinates>22.812360,45.073954,0</coordinates></Point></Placemark>
<Placemark><name>Dealul Calului</name><description>Nume: Dealul Calului, Tip: cai, Nivel: 2, Județ: Gorj, Formă: Deal, ID: 5156 <br /><b>Variante</b><br />Nume: Dealul Calului, Hartă: Geomil 25000, Limbă: Limba română</description><Point><coordinates>23.687179,44.686223,0</coordinates></Point></Placemark>
<Placemark><name>La Lacul Calului</name><description>Nume: La Lacul Calului, Tip: cai, Nivel: 2, Județ: Gorj, Formă: Lac, ID: 9792 <br /><b>Variante</b><br />Nume: La Lacul Calului, Hartă: PDT, Limbă: Limba română</description><Point><coordinates>23.450949,45.029632,0</coordinates></Point></Placemark>
<Placemark><name>Poiana Calului</name><description>Nume: Poiana Calului, Tip: cai, Nivel: 2, Județ: Gorj, Formă: Poiană, ID: 3135 <br /><b>Variante</b><br />Nume: Poiana Calului, Hartă: Geomil 25000, Limbă: Limba română<br />Nume: Poiana Calului, Hartă: PDT, Limbă: Limba română</description><Point><coordinates>23.564753,44.974283,0</coordinates></Point></Placemark>
<Placemark><name>Valea Calului</name><description>Nume: Valea Calului, Tip: cai, Nivel: 2, Județ: Gorj, Formă: Vale, ID: 5141 <br /><b>Variante</b><br />Nume: Valea Calului, Hartă: Geomil 25000, Limbă: Limba română</description><Point><coordinates>23.559706,44.753708,0</coordinates></Point></Placemark>
<Placemark><name>Valea Calului</name><description>Nume: Valea Calului, Tip: cai, Nivel: 2, Județ: Gorj, Formă: Localitate, ID: 7434, ID Părinte: 5089 <br /><b>Variante</b><br />Nume: Valea Calului, Hartă: PDT, Limbă: Limba română</description><Point><coordinates>23.518408,44.705024,0</coordinates></Point></Placemark>
<Placemark><LineString id="7434_5089"><tessellate>1</tessellate><coordinates>23.518408,44.705024,0.
23.531367,44.720148,0</coordinates></LineString><Style><LineStyle><width>3</width></LineStyle></Style></Placemark>
<Placemark><name>Valea Calului</name><description>Nume: Valea Calului, Tip: cai, Nivel: 2, Județ: Gorj, Formă: Vale, ID: 5164 <br /><b>Variante</b><br />Nume: Valea Calului, Hartă: Geomil 25000, Limbă: Limba română<br />Nume: Valea Calului, Hartă: PDT, Limbă: Limba română</description><Point><coordinates>23.629195,44.598763,0</coordinates></Point></Placemark>
<Placemark><name>Valea Calului</name><description>Nume: Valea Calului, Tip: cai, Nivel: 2, Județ: Gorj, Formă: Vale, ID: 5089 <br /><b>Variante</b><br />Nume: Valea Calului, Hartă: Geomil 25000, Limbă: Limba română<br />Nume: Valea Calului, Hartă: PDT, Limbă: Limba română</description><Point><coordinates>23.531367,44.720148,0</coordinates></Point></Placemark>
<Placemark><name>Valea Calului</name><description>Nume: Valea Calului, Tip: cai, Nivel: 2, Județ: Gorj, Formă: Vale, ID: 5157, ID Părinte: 5156 <br /><b>Variante</b><br />Nume: Valea Calului, Hartă: Geomil 25000, Limbă: Limba română</description><Point><coordinates>23.691268,44.684222,0</coordinates></Point></Placemark>
<Placemark><LineString id="5157_5156"><tessellate>1</tessellate><coordinates>23.691268,44.684222,0.
23.687179,44.686223,0</coordinates></LineString><Style><LineStyle><width>3</width></LineStyle></Style></Placemark>
<Placemark><name>Valea Calului</name><description>Nume: Valea Calului, Tip: cai, Nivel: 2, Județ: Gorj, Formă: Vale, ID: 3110 <br /><b>Variante</b><br />Nume: Valea Calului, Hartă: Geomil 25000, Limbă: Limba română</description><Point><coordinates>23.208068,45.033176,0</coordinates></Point></Placemark>
<Placemark><name>Valea Calului</name><description>Nume: Valea Calului, Tip: cai, Nivel: 2, Județ: Gorj, Formă: Vale, ID: 8397 <br /><b>Variante</b><br />Nume: Valea Calului, Hartă: PDT, Limbă: Limba română</description><Point><coordinates>23.562000,44.965041,0</coordinates></Point></Placemark>
<Placemark><name>Valea Calului</name><description>Nume: Valea Calului, Tip: cai, Nivel: 2, Județ: Gorj, Formă: Vale, ID: 223, ID Părinte: 222 <br /><b>Variante</b><br />Nume: Valea Calului, Hartă: Geomil 25000, Limbă: Limba română</description><Point><coordinates>22.811191,45.069263,0</coordinates></Point></Placemark>
<Placemark><LineString id="223_222"><tessellate>1</tessellate><coordinates>22.811191,45.069263,0.
22.812360,45.073954,0</coordinates></LineString><Style><LineStyle><width>3</width></LineStyle></Style></Placemark>
<Placemark><name>Valea cu Cai</name><description>Nume: Valea cu Cai, Tip: cai, Nivel: 2, Județ: Gorj, Formă: Vale, ID: 5142 <br /><b>Variante</b><br />Nume: Valea cu Cai, Hartă: Geomil 25000, Limbă: Limba română<br />Nume: Valea Pârâul cu Cai, Hartă: PDT, Limbă: Limba română</description><Point><coordinates>23.568509,44.766205,0</coordinates></Point></Placemark>
<Placemark><name>Dealul Iepei</name><description>Nume: Dealul Iepei, Tip: iapă, Nivel: 3, Județ: Gorj, Formă: Deal, ID: 5155 <br /><b>Variante</b><br />Nume: Dealul Iepei, Hartă: Geomil 25000, Limbă: Limba română</description><Point><coordinates>23.703507,44.695311,0</coordinates></Point></Placemark>
<Placemark><name>Valea Iepei</name><description>Nume: Valea Iepei, Tip: iapă, Nivel: 3, Județ: Gorj, Formă: Vale, ID: 5154, ID Părinte: 5155 <br /><b>Variante</b><br />Nume: Valea Iepei, Hartă: Geomil 25000, Limbă: Limba română</description><Point><coordinates>23.696542,44.701642,0</coordinates></Point></Placemark>
<Placemark><LineString id="5154_5155"><tessellate>1</tessellate><coordinates>23.696542,44.701642,0.
23.703507,44.695311,0</coordinates></LineString><Style><LineStyle><width>3</width></LineStyle></Style></Placemark>
<Placemark><name>Piciorul Calului</name><description>Nume: Piciorul Calului, Tip: cai, Nivel: 2, Județ: Harghita, Formă: Înălțime, ID: 4547, ID Părinte: 4546 <br /><b>Variante</b><br />Nume: Piciorul Calului, Hartă: Geomil 25000, Limbă: Limba română</description><Point><coordinates>25.770959,46.765616,0</coordinates></Point></Placemark>
<Placemark><LineString id="4547_4546"><tessellate>1</tessellate><coordinates>25.770959,46.765616,0.
25.753504,46.755996,0</coordinates></LineString><Style><LineStyle><width>3</width></LineStyle></Style></Placemark>
<Placemark><name>Vârful Calului</name><description>Nume: Vârful Calului, Tip: cai, Nivel: 2, Județ: Harghita, Formă: Înălțime, ID: 4546 <br /><b>Variante</b><br />Nume: Vârful Calului, Hartă: Geomil 25000, Limbă: Limba română</description><Point><coordinates>25.753504,46.755996,0</coordinates></Point></Placemark>
<Placemark><name>Mânzul</name><description>Nume: Mânzul, Tip: mânz, Nivel: 3, Județ: Harghita, Formă: Vale, ID: 7133, ID Părinte: 7132 <br /><b>Variante</b><br />Nume: Mânzul, Hartă: Geomil 25000, Limbă: Limba română</description><Point><coordinates>25.585183,46.995520,0</coordinates></Point></Placemark>
<Placemark><LineString id="7133_7132"><tessellate>1</tessellate><coordinates>25.585183,46.995520,0.
25.593287,46.992821,0</coordinates></LineString><Style><LineStyle><width>3</width></LineStyle></Style></Placemark>
<Placemark><name>Piciorul Mânzului</name><description>Nume: Piciorul Mânzului, Tip: mânz, Nivel: 3, Județ: Harghita, Formă: Înălțime, ID: 7132 <br /><b>Variante</b><br />Nume: Piciorul Mânzului, Hartă: Geomil 25000, Limbă: Limba română</description><Point><coordinates>25.593287,46.992821,0</coordinates></Point></Placemark>
<Placemark><name>Chicera Calului</name><description>Nume: Chicera Calului, Tip: cai, Nivel: 2, Județ: Hunedoara, Formă: Înălțime, ID: 9002 <br /><b>Variante</b><br />Nume: Chicera Calului, Hartă: Geomil 25000, Limbă: Limba română</description><Point><coordinates>22.466986,46.180589,0</coordinates></Point></Placemark>
<Placemark><name>Dealu Calului</name><description>Nume: Dealu Calului, Tip: cai, Nivel: 2, Județ: Hunedoara, Formă: Deal, ID: 6248 <br /><b>Variante</b><br />Nume: Dealu Calului, Hartă: Geomil 25000, Limbă: Limba română</description><Point><coordinates>22.993113,46.156485,0</coordinates></Point></Placemark>
<Placemark><name>Dealul Calului</name><description>Nume: Dealul Calului, Tip: cai, Nivel: 2, Județ: Hunedoara, Formă: Deal, ID: 12326 <br /><b>Variante</b><br />Nume: Dealul Calului, Hartă: Imperiul Habsburgic (1887), Limbă: Limba română</description><Point><coordinates>22.727410,46.294232,0</coordinates></Point></Placemark>
<Placemark><name>Valea Calului</name><description>Nume: Valea Calului, Tip: cai, Nivel: 2, Județ: Hunedoara, Formă: Vale, ID: 6249, ID Părinte: 6248 <br /><b>Variante</b><br />Nume: Valea Calului, Hartă: Geomil 25000, Limbă: Limba română</description><Point><coordinates>22.988687,46.146179,0</coordinates></Point></Placemark>
<Placemark><LineString id="6249_6248"><tessellate>1</tessellate><coordinates>22.988687,46.146179,0.
22.993113,46.156485,0</coordinates></LineString><Style><LineStyle><width>3</width></LineStyle></Style></Placemark>
<Placemark><name>Valea Vadu Calului</name><description>Nume: Valea Vadu Calului, Tip: cai, Nivel: 2, Județ: Hunedoara, Formă: Vale, ID: 941 <br /><b>Variante</b><br />Nume: Valea Vadu Calului, Hartă: Geomil 25000, Limbă: Limba română</description><Point><coordinates>22.628955,45.972900,0</coordinates></Point></Placemark>
<Placemark><name>Dealu Iepii</name><description>Nume: Dealu Iepii, Tip: iapă, Nivel: 3, Județ: Hunedoara, Formă: Deal, ID: 6245 <br /><b>Variante</b><br />Nume: Dealu Iepii, Hartă: Geomil 25000, Limbă: Limba română</description><Point><coordinates>23.019763,46.107300,0</coordinates></Point></Placemark>
<Placemark><name>Șaua Iepii</name><description>Nume: Șaua Iepii, Tip: iapă, Nivel: 3, Județ: Hunedoara, Formă: Înălțime, ID: 10331 <br /><b>Variante</b><br />Nume: Șaua Iepii, Hartă: Geomil 25000, Limbă: Limba română</description><Point><coordinates>22.660579,45.342522,0</coordinates></Point></Placemark>
<Placemark><name>Valea Iepei</name><description>Nume: Valea Iepei, Tip: iapă, Nivel: 3, Județ: Hunedoara, Formă: Localitate, ID: 9395, ID Părinte: 6245 <br /><b>Variante</b><br />Nume: Valea Iepei, Hartă: PDT, Limbă: Limba română</description><Point><coordinates>23.030485,46.093594,0</coordinates></Point></Placemark>
<Placemark><LineString id="9395_6245"><tessellate>1</tessellate><coordinates>23.030485,46.093594,0.
23.019763,46.107300,0</coordinates></LineString><Style><LineStyle><width>3</width></LineStyle></Style></Placemark>
<Placemark><name>Valea Iepii</name><description>Nume: Valea Iepii, Tip: iapă, Nivel: 3, Județ: Hunedoara, Formă: Vale, ID: 9396, ID Părinte: 6245 <br /><b>Variante</b><br />Nume: Valea Iepii, Hartă: Geomil 25000, Limbă: Limba română<br />Nume: Valea Iepii, Hartă: PDT, Limbă: Limba română</description><Point><coordinates>23.014391,46.105939,0</coordinates></Point></Placemark>
<Placemark><LineString id="9396_6245"><tessellate>1</tessellate><coordinates>23.014391,46.105939,0.
23.019763,46.107300,0</coordinates></LineString><Style><LineStyle><width>3</width></LineStyle></Style></Placemark>
<Placemark><name>La 3 Cai</name><description>Nume: La 3 Cai, Tip: cai, Nivel: 2, Județ: Ialomita, Formă: Apă-deal-câmpie, ID: 6742 <br /><b>Variante</b><br />Nume: La 3 Cai, Hartă: PDT, Limbă: Limba română</description><Point><coordinates>26.698498,44.663723,0</coordinates></Point></Placemark>
<Placemark><name>Movila Cailor</name><description>Nume: Movila Cailor, Tip: cai, Nivel: 2, Județ: Ialomita, Formă: Înălțime, ID: 3441 <br /><b>Variante</b><br />Nume: Movila Cailor, Hartă: Geomil 25000, Limbă: Limba română</description><Point><coordinates>27.602498,44.576263,0</coordinates></Point></Placemark>
<Placemark><name>Puțul Cailor</name><description>Nume: Puțul Cailor, Tip: cai, Nivel: 2, Județ: Ialomita, Formă: Altele, ID: 3431 <br /><b>Variante</b><br />Nume: Puțul Cailor, Hartă: PDT, Limbă: Limba română</description><Point><coordinates>27.036681,44.633943,0</coordinates></Point></Placemark>
<Placemark><name>Dealul Cailor</name><description>Nume: Dealul Cailor, Tip: cai, Nivel: 2, Județ: Iasi, Formă: Deal, ID: 4857 <br /><b>Variante</b><br />Nume: Dealul Cailor, Hartă: PDT, Limbă: Limba română<br />Nume: Dealul Cailor, Hartă: Geomil 25000, Limbă: Limba română</description><Point><coordinates>27.394515,47.306704,0</coordinates></Point></Placemark>
<Placemark><name>Dealul Calului</name><description>Nume: Dealul Calului, Tip: cai, Nivel: 2, Județ: Iasi, Formă: Deal, ID: 13628 <br /><b>Variante</b><br />Nume: Dealul Calului, Hartă: Geomil 25000, Limbă: Limba română</description><Point><coordinates>27.548323,47.053099,0</coordinates></Point></Placemark>
<Placemark><name>Oul Calului</name><description>Nume: Oul Calului, Tip: cai, Nivel: 2, Județ: Iasi, Formă: Înălțime, ID: 14138 <br /><b>Variante</b><br />Nume: Oul Calului, Hartă: Geomil 25000, Limbă: Limba română</description><Point><coordinates>27.573993,47.230754,0</coordinates></Point></Placemark>
<Placemark><name>La Iepărie</name><description>Nume: La Iepărie, Tip: iepărie, Nivel: 4, Județ: Iasi, Formă: Altele, ID: 4864 <br /><b>Variante</b><br />Nume: La Iepărie, Hartă: PDT, Limbă: Limba română</description><Point><coordinates>27.295871,47.415444,0</coordinates></Point></Placemark>
<Placemark><name>Câmpul Cailor</name><description>Nume: Câmpul Cailor, Tip: cai, Nivel: 2, Județ: Maramures, Formă: Câmp, ID: 4527 <br /><b>Variante</b><br />Nume: Câmpul Cailor, Hartă: Geomil 25000, Limbă: Limba română</description><Point><coordinates>24.347445,47.676248,0</coordinates></Point></Placemark>
<Placemark><name>Dealul Cailor</name><description>Nume: Dealul Cailor, Tip: cai, Nivel: 2, Județ: Maramures, Formă: Deal, ID: 8250 <br /><b>Variante</b><br />Nume: Dealul Cailor, Hartă: PDT, Limbă: Limba română</description><Point><coordinates>23.960380,47.478402,0</coordinates></Point></Placemark>
<Placemark><name>Dealul Calului</name><description>Nume: Dealul Calului, Tip: cai, Nivel: 2, Județ: Maramures, Formă: Deal, ID: 8215 <br /><b>Variante</b><br />Nume: Dealul Calului, Hartă: PDT, Limbă: Limba română</description><Point><coordinates>23.212702,47.527742,0</coordinates></Point></Placemark>
<Placemark><name>Izvorul Cailor</name><description>Nume: Izvorul Cailor, Tip: cai, Nivel: 2, Județ: Maramures, Formă: Vale, ID: 7145 <br /><b>Variante</b><br />Nume: Izvorul Cailor, Hartă: Geomil 25000, Limbă: Limba română</description><Point><coordinates>24.789708,47.584113,0</coordinates></Point></Placemark>
<Placemark><name>Izvorul Cailor</name><description>Nume: Izvorul Cailor, Tip: cai, Nivel: 2, Județ: Maramures, Formă: Vale, ID: 7160 <br /><b>Variante</b><br />Nume: Izvorul Cailor, Hartă: Geomil 25000, Limbă: Limba română</description><Point><coordinates>24.595755,47.691629,0</coordinates></Point></Placemark>
<Placemark><name>Lacul Cascada Cailor</name><description>Nume: Lacul Cascada Cailor, Tip: cai, Nivel: 2, Județ: Maramures, Formă: Lac, ID: 7144, ID Părinte: 7145 <br /><b>Variante</b><br />Nume: Lacul Cascada Cailor, Hartă: Geomil 25000, Limbă: Limba română</description><Point><coordinates>24.801621,47.589622,0</coordinates></Point></Placemark>
<Placemark><LineString id="7144_7145"><tessellate>1</tessellate><coordinates>24.801621,47.589622,0.
24.789708,47.584113,0</coordinates></LineString><Style><LineStyle><width>3</width></LineStyle></Style></Placemark>
<Placemark><name>Pădurea Cailor</name><description>Nume: Pădurea Cailor, Tip: cai, Nivel: 2, Județ: Maramures, Formă: Pădure, ID: 8260 <br /><b>Variante</b><br />Nume: Pădurea Cailor, Hartă: PDT, Limbă: Limba română</description><Point><coordinates>24.682592,47.705265,0</coordinates></Point></Placemark>
<Placemark><name>Pula calului</name><description>Nume: Pula calului, Tip: cai, Nivel: 2, Județ: Maramures, Formă: Înălțime, ID: 10558 <br /><b>Variante</b><br />Nume: Pula calului, Hartă: Imperiul Habsburgic (1887), Limbă: Limba română</description><Point><coordinates>23.542102,47.917660,0</coordinates></Point></Placemark>
<Placemark><name>Valea Cailor</name><description>Nume: Valea Cailor, Tip: cai, Nivel: 2, Județ: Maramures, Formă: Vale, ID: 8261, ID Părinte: 8260 <br /><b>Variante</b><br />Nume: Valea Cailor, Hartă: PDT, Limbă: Limba română</description><Point><coordinates>24.680742,47.710324,0</coordinates></Point></Placemark>
<Placemark><LineString id="8261_8260"><tessellate>1</tessellate><coordinates>24.680742,47.710324,0.
24.682592,47.705265,0</coordinates></LineString><Style><LineStyle><width>3</width></LineStyle></Style></Placemark>
<Placemark><name>Valea Calului</name><description>Nume: Valea Calului, Tip: cai, Nivel: 2, Județ: Maramures, Formă: Vale, ID: 4431 <br /><b>Variante</b><br />Nume: Valea Calului, Hartă: Geomil 25000, Limbă: Limba română</description><Point><coordinates>23.649829,47.394595,0</coordinates></Point></Placemark>
<Placemark><name>Dealul Iepei</name><description>Nume: Dealul Iepei, Tip: iapă, Nivel: 3, Județ: Maramures, Formă: Deal, ID: 4529 <br /><b>Variante</b><br />Nume: Dealul Iepei, Hartă: Geomil 25000, Limbă: Limba română<br />Nume: Dealul Iepei, Hartă: PDT, Limbă: Limba română</description><Point><coordinates>24.319162,47.739693,0</coordinates></Point></Placemark>
<Placemark><name>Valea Iepei</name><description>Nume: Valea Iepei, Tip: iapă, Nivel: 3, Județ: Maramures, Formă: Vale, ID: 4530, ID Părinte: 4529 <br /><b>Variante</b><br />Nume: Valea Iepei, Hartă: Geomil 25000, Limbă: Limba română<br />Nume: Valea Iepei, Hartă: PDT, Limbă: Limba română</description><Point><coordinates>24.323608,47.739595,0</coordinates></Point></Placemark>
<Placemark><LineString id="4530_4529"><tessellate>1</tessellate><coordinates>24.323608,47.739595,0.
24.319162,47.739693,0</coordinates></LineString><Style><LineStyle><width>3</width></LineStyle></Style></Placemark>
<Placemark><name>Dealul Calului</name><description>Nume: Dealul Calului, Tip: cai, Nivel: 2, Județ: Mehedinti, Formă: Deal, ID: 5188 <br /><b>Variante</b><br />Nume: Dealul Calului, Hartă: Geomil 25000, Limbă: Limba română</description><Point><coordinates>23.166291,44.362857,0</coordinates></Point></Placemark>
<Placemark><name>Lacul Iepei</name><description>Nume: Lacul Iepei, Tip: iapă, Nivel: 3, Județ: Mehedinti, Formă: Lac, ID: 3664 <br /><b>Variante</b><br />Nume: Lacul Iepei, Hartă: Geomil 25000, Limbă: Limba română</description><Point><coordinates>23.003049,44.421297,0</coordinates></Point></Placemark>
<Placemark><name>Ogașul Iepei</name><description>Nume: Ogașul Iepei, Tip: iapă, Nivel: 3, Județ: Mehedinti, Formă: Vale, ID: 9784 <br /><b>Variante</b><br />Nume: Ogașul Iepei, Hartă: PDT, Limbă: Limba română</description><Point><coordinates>22.836760,44.844139,0</coordinates></Point></Placemark>
<Placemark><name>Valea Iepei</name><description>Nume: Valea Iepei, Tip: iapă, Nivel: 3, Județ: Mehedinti, Formă: Vale, ID: 214 <br /><b>Variante</b><br />Nume: Valea Iepei, Hartă: Geomil 25000, Limbă: Limba română</description><Point><coordinates>23.067010,44.680587,0</coordinates></Point></Placemark>
<Placemark><name>Valea Mânzului</name><description>Nume: Valea Mânzului, Tip: mânz, Nivel: 3, Județ: Mehedinti, Formă: Vale, ID: 14194 <br /><b>Variante</b><br />Nume: Valea Mânzului, Hartă: Geomil 25000, Limbă: Limba română</description><Point><coordinates>22.912848,44.347466,0</coordinates></Point></Placemark>
<Placemark><name>Calul</name><description>Nume: Calul, Tip: cai, Nivel: 2, Județ: Mures, Formă: Vale, ID: 5423 <br /><b>Variante</b><br />Nume: Calul, Hartă: Geomil 25000, Limbă: Limba română</description><Point><coordinates>25.163529,47.105018,0</coordinates></Point></Placemark>
<Placemark><name>Pârâul Calului</name><description>Nume: Pârâul Calului, Tip: cai, Nivel: 2, Județ: Mures, Formă: Vale, ID: 12085 <br /><b>Variante</b><br />Nume: Pârâul Calului, Hartă: PDT, Limbă: Limba română</description><Point><coordinates>25.005240,46.717361,0</coordinates></Point></Placemark>
<Placemark><name>Unghia Cailor</name><description>Nume: Unghia Cailor, Tip: cai, Nivel: 2, Județ: Mures, Formă: Altele, ID: 10660 <br /><b>Variante</b><br />Nume: Unghia Cailor, Hartă: Imperiul Habsburgic (1887), Limbă: Limba română</description><Point><coordinates>24.210430,46.464887,0</coordinates></Point></Placemark>
<Placemark><name>Valea Iepei</name><description>Nume: Valea Iepei, Tip: iapă, Nivel: 3, Județ: Mures, Formă: Vale, ID: 5394 <br /><b>Variante</b><br />Nume: Valea Iepei, Hartă: Geomil 25000, Limbă: Limba română</description><Point><coordinates>25.048546,46.740195,0</coordinates></Point></Placemark>
<Placemark><name>Jgheabul Piciorul Calului</name><description>Nume: Jgheabul Piciorul Calului, Tip: cai, Nivel: 2, Județ: Neamt, Formă: Vale, ID: 6479, ID Părinte: 6478 <br /><b>Variante</b><br />Nume: Jgheabul Piciorul Calului, Hartă: PDT, Limbă: Limba română</description><Point><coordinates>25.903755,46.973177,0</coordinates></Point></Placemark>
<Placemark><LineString id="6479_6478"><tessellate>1</tessellate><coordinates>25.903755,46.973177,0.
25.897833,46.970854,0</coordinates></LineString><Style><LineStyle><width>3</width></LineStyle></Style></Placemark>
<Placemark><name>La Apa Cailor</name><description>Nume: La Apa Cailor, Tip: cai, Nivel: 2, Județ: Neamt, Formă: Altele, ID: 6477 <br /><b>Variante</b><br />Nume: La Apa Cailor, Hartă: PDT, Limbă: Limba română</description><Point><coordinates>26.062776,46.936053,0</coordinates></Point></Placemark>
<Placemark><name>Pădurea Cailor</name><description>Nume: Pădurea Cailor, Tip: cai, Nivel: 2, Județ: Neamt, Formă: Pădure, ID: 2056, ID Părinte: 14114 <br /><b>Variante</b><br />Nume: Pădurea Cailor, Hartă: Geomil 25000, Limbă: Limba română</description><Point><coordinates>26.073945,47.161317,0</coordinates></Point></Placemark>
<Placemark><LineString id="2056_14114"><tessellate>1</tessellate><coordinates>26.073945,47.161317,0.
26.078607,47.174209,0</coordinates></LineString><Style><LineStyle><width>3</width></LineStyle></Style></Placemark>
<Placemark><name>Pârâul Cailor</name><description>Nume: Pârâul Cailor, Tip: cai, Nivel: 2, Județ: Neamt, Formă: Vale, ID: 2073 <br /><b>Variante</b><br />Nume: Pârâul Cailor, Hartă: Geomil 25000, Limbă: Limba română</description><Point><coordinates>25.807739,47.111152,0</coordinates></Point></Placemark>
<Placemark><name>Piciorul Boanca Cailor</name><description>Nume: Piciorul Boanca Cailor, Tip: cai, Nivel: 2, Județ: Neamt, Formă: Înălțime, ID: 2026, ID Părinte: 2025 <br /><b>Variante</b><br />Nume: Piciorul Boanca Cailor, Hartă: Geomil 25000, Limbă: Limba română</description><Point><coordinates>26.203951,46.839557,0</coordinates></Point></Placemark>
<Placemark><LineString id="2026_2025"><tessellate>1</tessellate><coordinates>26.203951,46.839557,0.
26.211190,46.835501,0</coordinates></LineString><Style><LineStyle><width>3</width></LineStyle></Style></Placemark>
<Placemark><name>Piciorul Cailor</name><description>Nume: Piciorul Cailor, Tip: cai, Nivel: 2, Județ: Neamt, Formă: Înălțime, ID: 2025 <br /><b>Variante</b><br />Nume: Piciorul Cailor, Hartă: Geomil 25000, Limbă: Limba română</description><Point><coordinates>26.211190,46.835501,0</coordinates></Point></Placemark>
<Placemark><name>Piciorul Cailor</name><description>Nume: Piciorul Cailor, Tip: cai, Nivel: 2, Județ: Neamt, Formă: Înălțime, ID: 673 <br /><b>Variante</b><br />Nume: Piciorul Cailor, Hartă: Geomil 25000, Limbă: Limba română</description><Point><coordinates>26.179644,47.016670,0</coordinates></Point></Placemark>
<Placemark><name>Piciorul Calului</name><description>Nume: Piciorul Calului, Tip: cai, Nivel: 2, Județ: Neamt, Formă: Înălțime, ID: 6478 <br /><b>Variante</b><br />Nume: Piciorul Calului, Hartă: PDT, Limbă: Limba română<br />Nume: Vârful Piciorul Calului, Hartă: Geomil 25000, Limbă: Limba română</description><Point><coordinates>25.897833,46.970854,0</coordinates></Point></Placemark>
<Placemark><name>Poiana Cailor</name><description>Nume: Poiana Cailor, Tip: cai, Nivel: 2, Județ: Neamt, Formă: Poiană, ID: 14114 <br /><b>Variante</b><br />Nume: Poiana Cailor, Hartă: Geomil 25000, Limbă: Limba română</description><Point><coordinates>26.078607,47.174209,0</coordinates></Point></Placemark>
<Placemark><name>Iapa</name><description>Nume: Iapa, Tip: iapă, Nivel: 3, Județ: Neamt, Formă: Localitate, ID: 3854 <br /><b>Variante</b><br />Nume: Iapa, Hartă: PDT, Limbă: Limba română</description><Point><coordinates>26.445058,46.814269,0</coordinates></Point></Placemark>
<Placemark><name>Măgura Cailor</name><description>Nume: Măgura Cailor, Tip: cai, Nivel: 2, Județ: Olt, Formă: Înălțime, ID: 1279 <br /><b>Variante</b><br />Nume: Măgura Cailor, Hartă: Geomil 25000, Limbă: Limba română</description><Point><coordinates>24.393249,44.020630,0</coordinates></Point></Placemark>
<Placemark><name>Valea Calului</name><description>Nume: Valea Calului, Tip: cai, Nivel: 2, Județ: Olt, Formă: Vale, ID: 14238 <br /><b>Variante</b><br />Nume: Valea Calului, Hartă: PDT, Limbă: Limba română</description><Point><coordinates>24.642596,44.614796,0</coordinates></Point></Placemark>
<Placemark><name>Valea Calului</name><description>Nume: Valea Calului, Tip: cai, Nivel: 2, Județ: Olt, Formă: Vale, ID: 2997 <br /><b>Variante</b><br />Nume: Valea Calului, Hartă: Geomil 25000, Limbă: Limba română</description><Point><coordinates>24.556042,44.314832,0</coordinates></Point></Placemark>
<Placemark><name>Plaiul Calului</name><description>Nume: Plaiul Calului, Tip: cai, Nivel: 2, Județ: Prahova, Formă: Înălțime, ID: 11136 <br /><b>Variante</b><br />Nume: Plaiul Calului, Hartă: PDT, Limbă: Limba română</description><Point><coordinates>25.653106,45.096047,0</coordinates></Point></Placemark>
<Placemark><name>Valea Calului</name><description>Nume: Valea Calului, Tip: cai, Nivel: 2, Județ: Prahova, Formă: Vale, ID: 11137, ID Părinte: 11136 <br /><b>Variante</b><br />Nume: Valea Calului, Hartă: PDT, Limbă: Limba română</description><Point><coordinates>25.654410,45.093838,0</coordinates></Point></Placemark>
<Placemark><LineString id="11137_11136"><tessellate>1</tessellate><coordinates>25.654410,45.093838,0.
25.653106,45.096047,0</coordinates></LineString><Style><LineStyle><width>3</width></LineStyle></Style></Placemark>
<Placemark><name>Dealu Armăsarilor</name><description>Nume: Dealu Armăsarilor, Tip: armăsari, Nivel: 3, Județ: Salaj, Formă: Deal, ID: 1059 <br /><b>Variante</b><br />Nume: Dealu Armăsarilor, Hartă: Geomil 25000, Limbă: Limba română</description><Point><coordinates>23.229593,47.076912,0</coordinates></Point></Placemark>
<Placemark><name>Dealu Calului</name><description>Nume: Dealu Calului, Tip: cai, Nivel: 2, Județ: Salaj, Formă: Deal, ID: 4404 <br /><b>Variante</b><br />Nume: Dealu Calului, Hartă: Geomil 25000, Limbă: Limba română<br />Nume: Dealul Calului, Hartă: PDT, Limbă: Limba română</description><Point><coordinates>23.595225,47.251960,0</coordinates></Point></Placemark>
<Placemark><name>Dealu Calului</name><description>Nume: Dealu Calului, Tip: cai, Nivel: 2, Județ: Salaj, Formă: Deal, ID: 5926 <br /><b>Variante</b><br />Nume: Dealu Calului, Hartă: Geomil 25000, Limbă: Limba română<br />Nume: Dâmbul Calului, Hartă: PDT, Limbă: Limba română</description><Point><coordinates>22.536531,47.099922,0</coordinates></Point></Placemark>
<Placemark><name>Dealul Calului</name><description>Nume: Dealul Calului, Tip: cai, Nivel: 2, Județ: Salaj, Formă: Deal, ID: 8187 <br /><b>Variante</b><br />Nume: Dealul Calului, Hartă: PDT, Limbă: Limba română</description><Point><coordinates>22.795785,47.271406,0</coordinates></Point></Placemark>
<Placemark><name>Valea Calului</name><description>Nume: Valea Calului, Tip: cai, Nivel: 2, Județ: Salaj, Formă: Vale, ID: 4403, ID Părinte: 4404 <br /><b>Variante</b><br />Nume: Valea Calului, Hartă: Geomil 25000, Limbă: Limba română<br />Nume: Valea Calului, Hartă: PDT, Limbă: Limba română</description><Point><coordinates>23.607578,47.258028,0</coordinates></Point></Placemark>
<Placemark><LineString id="4403_4404"><tessellate>1</tessellate><coordinates>23.607578,47.258028,0.
23.595225,47.251960,0</coordinates></LineString><Style><LineStyle><width>3</width></LineStyle></Style></Placemark>
<Placemark><name>Valea Calului</name><description>Nume: Valea Calului, Tip: cai, Nivel: 2, Județ: Salaj, Formă: Vale, ID: 6934 <br /><b>Variante</b><br />Nume: Valea Calului, Hartă: Geomil 25000, Limbă: Limba română<br />Nume: Valea Calului, Hartă: PDT, Limbă: Limba română</description><Point><coordinates>23.404510,47.214487,0</coordinates></Point></Placemark>
<Placemark><name>Dealu Picioru Iepei</name><description>Nume: Dealu Picioru Iepei, Tip: iapă, Nivel: 3, Județ: Salaj, Formă: Deal, ID: 1065 <br /><b>Variante</b><br />Nume: Dealu Picioru Iepei, Hartă: Geomil 25000, Limbă: Limba română</description><Point><coordinates>22.683044,47.085602,0</coordinates></Point></Placemark>
<Placemark><name>Iapa</name><description>Nume: Iapa, Tip: iapă, Nivel: 3, Județ: Salaj, Formă: Localitate, ID: 8986 <br /><b>Variante</b><br />Nume: Iapa, Hartă: PDT, Limbă: Limba română</description><Point><coordinates>23.556755,47.251169,0</coordinates></Point></Placemark>
<Placemark><name>Dealul Mânzului</name><description>Nume: Dealul Mânzului, Tip: mânz, Nivel: 3, Județ: Salaj, Formă: Deal, ID: 12779 <br /><b>Variante</b><br />Nume: Dealul Mânzului, Hartă: PDT, Limbă: Limba română</description><Point><coordinates>23.100535,47.343994,0</coordinates></Point></Placemark>
<Placemark><name>Grădina Cailor</name><description>Nume: Grădina Cailor, Tip: cai, Nivel: 2, Județ: Satu Mare, Formă: Altele, ID: 8699 <br /><b>Variante</b><br />Nume: Grădina Cailor, Hartă: PDT, Limbă: Limba română</description><Point><coordinates>22.680752,47.690250,0</coordinates></Point></Placemark>
<Placemark><name>Pădurea Cailor</name><description>Nume: Pădurea Cailor, Tip: cai, Nivel: 2, Județ: Satu Mare, Formă: Pădure, ID: 8702 <br /><b>Variante</b><br />Nume: Pădurea Cailor, Hartă: Geomil 25000, Limbă: Limba română</description><Point><coordinates>22.901489,47.575863,0</coordinates></Point></Placemark>
<Placemark><name>Poiana Calului</name><description>Nume: Poiana Calului, Tip: cai, Nivel: 2, Județ: Satu Mare, Formă: Poiană, ID: 6959 <br /><b>Variante</b><br />Nume: Poiana Calului, Hartă: Geomil 25000, Limbă: Limba română</description><Point><coordinates>23.209102,47.580231,0</coordinates></Point></Placemark>
<Placemark><name>Valea Cailor</name><description>Nume: Valea Cailor, Tip: cai, Nivel: 2, Județ: Satu Mare, Formă: Vale, ID: 5956 <br /><b>Variante</b><br />Nume: Valea Cailor, Hartă: Geomil 25000, Limbă: Limba română</description><Point><coordinates>22.955166,47.605598,0</coordinates></Point></Placemark>
<Placemark><name>Coasta Calului</name><description>Nume: Coasta Calului, Tip: cai, Nivel: 2, Județ: Sibiu, Formă: Înălțime, ID: 5528 <br /><b>Variante</b><br />Nume: Coasta Calului, Hartă: Geomil 25000, Limbă: Limba română</description><Point><coordinates>24.507289,46.089910,0</coordinates></Point></Placemark>
<Placemark><name>Pârâul Cailor</name><description>Nume: Pârâul Cailor, Tip: cai, Nivel: 2, Județ: Sibiu, Formă: Vale, ID: 11318 <br /><b>Variante</b><br />Nume: Pârâul Cailor, Hartă: Geomil 25000, Limbă: Limba română</description><Point><coordinates>24.087231,45.586578,0</coordinates></Point></Placemark>
<Placemark><name>Pârâul Cailor</name><description>Nume: Pârâul Cailor, Tip: cai, Nivel: 2, Județ: Sibiu, Formă: Vale, ID: 5544 <br /><b>Variante</b><br />Nume: Pârâul Cailor, Hartă: PDT, Limbă: Limba română</description><Point><coordinates>23.803400,45.916627,0</coordinates></Point></Placemark>
<Placemark><name>Pârâul Pleașa Cailor</name><description>Nume: Pârâul Pleașa Cailor, Tip: cai, Nivel: 2, Județ: Sibiu, Formă: Vale, ID: 7510 <br /><b>Variante</b><br />Nume: Pârâul Pleașa Cailor, Hartă: PDT, Limbă: Limba română</description><Point><coordinates>24.399557,45.607317,0</coordinates></Point></Placemark>
<Placemark><name>Picioarele Cailor</name><description>Nume: Picioarele Cailor, Tip: cai, Nivel: 2, Județ: Sibiu, Formă: Altele, ID: 2515 <br /><b>Variante</b><br />Nume: Picioarele Cailor, Hartă: Geomil 25000, Limbă: Limba română</description><Point><coordinates>23.729807,45.684817,0</coordinates></Point></Placemark>
<Placemark><name>Runcul Cailor</name><description>Nume: Runcul Cailor, Tip: cai, Nivel: 2, Județ: Sibiu, Formă: Înălțime, ID: 2516 <br /><b>Variante</b><br />Nume: Runcul Cailor, Hartă: Geomil 25000, Limbă: Limba română</description><Point><coordinates>23.703153,45.654431,0</coordinates></Point></Placemark>
<Placemark><name>Balta Iepei</name><description>Nume: Balta Iepei, Tip: iapă, Nivel: 3, Județ: Sibiu, Formă: Apă-deal-câmpie, ID: 7982 <br /><b>Variante</b><br />Nume: Balta Iepei, Hartă: PDT, Limbă: Limba română</description><Point><coordinates>24.603563,46.039497,0</coordinates></Point></Placemark>
<Placemark><name>Culmea Iepei</name><description>Nume: Culmea Iepei, Tip: iapă, Nivel: 3, Județ: Sibiu, Formă: Înălțime, ID: 2495 <br /><b>Variante</b><br />Nume: Culmea Iepei, Hartă: Geomil 25000, Limbă: Limba română</description><Point><coordinates>24.251086,45.616766,0</coordinates></Point></Placemark>
<Placemark><name>Grădina Iepei</name><description>Nume: Grădina Iepei, Tip: iapă, Nivel: 3, Județ: Sibiu, Formă: Altele, ID: 2659 <br /><b>Variante</b><br />Nume: Grădina Iepei, Hartă: Geomil 25000, Limbă: Limba română</description><Point><coordinates>24.732631,45.995913,0</coordinates></Point></Placemark>
<Placemark><name>Calul</name><description>Nume: Calul, Tip: cai, Nivel: 2, Județ: Suceava, Formă: Vale, ID: 13760 <br /><b>Variante</b><br />Nume: Calul, Hartă: Geomil 25000, Limbă: Limba română</description><Point><coordinates>25.084101,47.175094,0</coordinates></Point></Placemark>
<Placemark><name>Calul</name><description>Nume: Calul, Tip: cai, Nivel: 2, Județ: Suceava, Formă: Vale, ID: 1779 <br /><b>Variante</b><br />Nume: Calul, Hartă: Geomil 25000, Limbă: Limba română</description><Point><coordinates>25.919207,47.371809,0</coordinates></Point></Placemark>
<Placemark><name>Ciairu Cailor</name><description>Nume: Ciairu Cailor, Tip: cai, Nivel: 2, Județ: Suceava, Formă: Altele, ID: 7777 <br /><b>Variante</b><br />Nume: Ciairu Cailor, Hartă: PDT, Limbă: Limba română</description><Point><coordinates>26.539197,47.615997,0</coordinates></Point></Placemark>
<Placemark><name>Dealul Caior</name><description>Nume: Dealul Caior, Tip: cai, Nivel: 2, Județ: Suceava, Formă: Deal, ID: 6334 <br /><b>Variante</b><br />Nume: Dealul Caior, Hartă: PDT, Limbă: Limba română<br />Nume: Dealul Caior, Hartă: Geomil 25000, Limbă: Limba română</description><Point><coordinates>25.429189,47.543061,0</coordinates></Point></Placemark>
<Placemark><name>Dealul Calului</name><description>Nume: Dealul Calului, Tip: cai, Nivel: 2, Județ: Suceava, Formă: Deal, ID: 1849, ID Părinte: 1848 <br /><b>Variante</b><br />Nume: Dealul Calului, Hartă: Geomil 25000, Limbă: Limba română</description><Point><coordinates>25.635675,47.716096,0</coordinates></Point></Placemark>
<Placemark><LineString id="1849_1848"><tessellate>1</tessellate><coordinates>25.635675,47.716096,0.
25.643016,47.717621,0</coordinates></LineString><Style><LineStyle><width>3</width></LineStyle></Style></Placemark>
<Placemark><name>Dealul Calului</name><description>Nume: Dealul Calului, Tip: cai, Nivel: 2, Județ: Suceava, Formă: Deal, ID: 2248 <br /><b>Variante</b><br />Nume: Dealul Calului, Hartă: Geomil 25000, Limbă: Limba română</description><Point><coordinates>26.495876,47.346510,0</coordinates></Point></Placemark>
<Placemark><name>Dealul Runcul Cailor</name><description>Nume: Dealul Runcul Cailor, Tip: cai, Nivel: 2, Județ: Suceava, Formă: Deal, ID: 6323 <br /><b>Variante</b><br />Nume: Dealul Runcul Cailor, Hartă: Geomil 25000, Limbă: Limba română</description><Point><coordinates>25.829851,47.623668,0</coordinates></Point></Placemark>
<Placemark><name>Măgura Cailor</name><description>Nume: Măgura Cailor, Tip: cai, Nivel: 2, Județ: Suceava, Formă: Înălțime, ID: 10745 <br /><b>Variante</b><br />Nume: Măgura Cailor, Hartă: Imperiul Habsburgic (1887), Limbă: Limba română</description><Point><coordinates>25.671098,47.514929,0</coordinates></Point></Placemark>
<Placemark><name>Obcina Calului</name><description>Nume: Obcina Calului, Tip: cai, Nivel: 2, Județ: Suceava, Formă: Înălțime, ID: 9076, ID Părinte: 1779 <br /><b>Variante</b><br />Nume: Obcina Calului, Hartă: PDT, Limbă: Limba română</description><Point><coordinates>25.947892,47.364591,0</coordinates></Point></Placemark>
<Placemark><LineString id="9076_1779"><tessellate>1</tessellate><coordinates>25.947892,47.364591,0.
25.919207,47.371809,0</coordinates></LineString><Style><LineStyle><width>3</width></LineStyle></Style></Placemark>
<Placemark><name>Pârâul Cailor</name><description>Nume: Pârâul Cailor, Tip: cai, Nivel: 2, Județ: Suceava, Formă: Vale, ID: 6335, ID Părinte: 6334 <br /><b>Variante</b><br />Nume: Pârâul Cailor, Hartă: PDT, Limbă: Limba română<br />Nume: Pârâul Cailor, Hartă: Geomil 25000, Limbă: Limba română</description><Point><coordinates>25.432730,47.533759,0</coordinates></Point></Placemark>
<Placemark><LineString id="6335_6334"><tessellate>1</tessellate><coordinates>25.432730,47.533759,0.
25.429189,47.543061,0</coordinates></LineString><Style><LineStyle><width>3</width></LineStyle></Style></Placemark>
<Placemark><name>Pârâul Calului</name><description>Nume: Pârâul Calului, Tip: cai, Nivel: 2, Județ: Suceava, Formă: Vale, ID: 11724, ID Părinte: 11727 <br /><b>Variante</b><br />Nume: Pârâul Calului, Hartă: Imperiul Habsburgic (1887), Limbă: Limba română</description><Point><coordinates>25.262872,47.147869,0</coordinates></Point></Placemark>
<Placemark><LineString id="11724_11727"><tessellate>1</tessellate><coordinates>25.262872,47.147869,0.
25.257958,47.156438,0</coordinates></LineString><Style><LineStyle><width>3</width></LineStyle></Style></Placemark>
<Placemark><name>Piciorul Calului</name><description>Nume: Piciorul Calului, Tip: cai, Nivel: 2, Județ: Suceava, Formă: Înălțime, ID: 11727 <br /><b>Variante</b><br />Nume: Piciorul Calului, Hartă: Imperiul Habsburgic (1887), Limbă: Limba română</description><Point><coordinates>25.257958,47.156438,0</coordinates></Point></Placemark>
<Placemark><name>Poiana Calului</name><description>Nume: Poiana Calului, Tip: cai, Nivel: 2, Județ: Suceava, Formă: Poiană, ID: 1848 <br /><b>Variante</b><br />Nume: Poiana Calului, Hartă: Geomil 25000, Limbă: Limba română</description><Point><coordinates>25.643016,47.717621,0</coordinates></Point></Placemark>
<Placemark><name>Poiana Piciorul Cailor</name><description>Nume: Poiana Piciorul Cailor, Tip: cai, Nivel: 2, Județ: Suceava, Formă: Poiană, ID: 11168 <br /><b>Variante</b><br />Nume: Poiana Piciorul Cailor, Hartă: Imperiul Habsburgic (1887), Limbă: Limba română</description><Point><coordinates>25.383739,47.408012,0</coordinates></Point></Placemark>