<?xml version="1.0" encoding="UTF-8"?><kml xmlns="http://www.opengis.net/kml/2.2"><Document><Placemark><name>Vârfu Ieduțului</name><description>Nume: Vârfu Ieduțului, Tip: iezi, Nivel: 3, Județ: Arad, Formă: Înălțime, ID: 949 <br /><b>Variante</b><br />Nume: Vârfu Ieduțului, Hartă: Geomil 25000, Limbă: Limba română</description><Point><coordinates>22.338949,46.032702,0</coordinates></Point></Placemark>
<Placemark><name>Muchia Iedului</name><description>Nume: Muchia Iedului, Tip: iezi, Nivel: 3, Județ: Arges, Formă: Înălțime, ID: 10194 <br /><b>Variante</b><br />Nume: Muchia Iedului, Hartă: Geomil 25000, Limbă: Limba română</description><Point><coordinates>24.461851,45.461869,0</coordinates></Point></Placemark>
<Placemark><name>Valea Iedului</name><description>Nume: Valea Iedului, Tip: iezi, Nivel: 3, Județ: Arges, Formă: Vale, ID: 13454 <br /><b>Variante</b><br />Nume: Valea Iedului, Hartă: Geomil 25000, Limbă: Limba română</description><Point><coordinates>24.774176,45.393640,0</coordinates></Point></Placemark>
<Placemark><name>Movila Iedului</name><description>Nume: Movila Iedului, Tip: iezi, Nivel: 3, Județ: Braila, Formă: Înălțime, ID: 3604 <br /><b>Variante</b><br />Nume: Movila Iedului, Hartă: Austriacă, Limbă: Limba română<br />Nume: Movila Iedului, Hartă: Geomil 25000, Limbă: Limba română<br />Nume: Movila la Iedul, Hartă: PDT, Limbă: Limba română</description><Point><coordinates>27.510810,45.182986,0</coordinates></Point></Placemark>
<Placemark><name>Dealul Iedului</name><description>Nume: Dealul Iedului, Tip: iezi, Nivel: 3, Județ: Cluj, Formă: Deal, ID: 11414 <br /><b>Variante</b><br />Nume: Dealul Iedului, Hartă: Geomil 25000, Limbă: Limba română</description><Point><coordinates>23.881783,47.317025,0</coordinates></Point></Placemark>
<Placemark><name>Valea Coada Iedului</name><description>Nume: Valea Coada Iedului, Tip: iezi, Nivel: 3, Județ: Dambovita, Formă: Vale, ID: 10149 <br /><b>Variante</b><br />Nume: Valea Coada Iedului, Hartă: PDT, Limbă: Limba română</description><Point><coordinates>25.268889,44.786389,0</coordinates></Point></Placemark>
<Placemark><name>Lacul Iedului</name><description>Nume: Lacul Iedului, Tip: iezi, Nivel: 3, Județ: Dolj, Formă: Lac, ID: 7703 <br /><b>Variante</b><br />Nume: Lacul Iedului, Hartă: PDT, Limbă: Limba română</description><Point><coordinates>23.769551,44.107690,0</coordinates></Point></Placemark>
<Placemark><name>Valea Iedului</name><description>Nume: Valea Iedului, Tip: iezi, Nivel: 3, Județ: Dolj, Formă: Vale, ID: 8293 <br /><b>Variante</b><br />Nume: Valea Iedului, Hartă: PDT, Limbă: Limba română</description><Point><coordinates>23.864421,44.621110,0</coordinates></Point></Placemark>
<Placemark><name>Balta Iedu</name><description>Nume: Balta Iedu, Tip: iezi, Nivel: 3, Județ: Galati, Formă: Apă-deal-câmpie, ID: 3614 <br /><b>Variante</b><br />Nume: Balta Iedu, Hartă: Austriacă, Limbă: Limba română</description><Point><coordinates>27.806948,45.421348,0</coordinates></Point></Placemark>
<Placemark><name>Balta Iedului</name><description>Nume: Balta Iedului, Tip: iezi, Nivel: 3, Județ: Gorj, Formă: Apă-deal-câmpie, ID: 13853 <br /><b>Variante</b><br />Nume: Balta Iedului, Hartă: Geomil 25000, Limbă: Limba română</description><Point><coordinates>23.493189,44.620569,0</coordinates></Point></Placemark>
<Placemark><name>Cioaca Iezilor</name><description>Nume: Cioaca Iezilor, Tip: iezi, Nivel: 3, Județ: Gorj, Formă: Înălțime, ID: 12677 <br /><b>Variante</b><br />Nume: Cioaca Iezilor, Hartă: Geomil 25000, Limbă: Limba română</description><Point><coordinates>23.049780,45.175431,0</coordinates></Point></Placemark>
<Placemark><name>Culmea Iedului</name><description>Nume: Culmea Iedului, Tip: iezi, Nivel: 3, Județ: Maramures, Formă: Înălțime, ID: 7193 <br /><b>Variante</b><br />Nume: Culmea Iedului, Hartă: Geomil 25000, Limbă: Limba română</description><Point><coordinates>24.818329,47.774831,0</coordinates></Point></Placemark>
<Placemark><name>Pădurea Iedului</name><description>Nume: Pădurea Iedului, Tip: iezi, Nivel: 3, Județ: Neamt, Formă: Pădure, ID: 2059 <br /><b>Variante</b><br />Nume: Pădurea Iedului, Hartă: Geomil 25000, Limbă: Limba română</description><Point><coordinates>26.097912,47.202682,0</coordinates></Point></Placemark>
<Placemark><name>Valea Iedului</name><description>Nume: Valea Iedului, Tip: iezi, Nivel: 3, Județ: Prahova, Formă: Vale, ID: 826 <br /><b>Variante</b><br />Nume: Valea Iedului, Hartă: Geomil 25000, Limbă: Limba română</description><Point><coordinates>26.099257,45.019864,0</coordinates></Point></Placemark>
<Placemark><name>Valea Iedului</name><description>Nume: Valea Iedului, Tip: iezi, Nivel: 3, Județ: Satu Mare, Formă: Vale, ID: 14035 <br /><b>Variante</b><br />Nume: Valea Iedului, Hartă: Geomil 25000, Limbă: Limba română<br />Nume: Valea Iedului, Hartă: PDT, Limbă: Limba română</description><Point><coordinates>22.734214,47.422124,0</coordinates></Point></Placemark>
<Placemark><name>Iedul</name><description>Nume: Iedul, Tip: iezi, Nivel: 3, Județ: Suceava, Formă: Localitate, ID: 7245 <br /><b>Variante</b><br />Nume: Iedul, Hartă: PDT, Limbă: Limba română</description><Point><coordinates>25.091061,47.593004,0</coordinates></Point></Placemark>
<Placemark><name>Iedul</name><description>Nume: Iedul, Tip: iezi, Nivel: 3, Județ: Suceava, Formă: Înălțime, ID: 12896 <br /><b>Variante</b><br />Nume: Iedul, Hartă: Geomil 25000, Limbă: Limba română</description><Point><coordinates>25.087406,47.620187,0</coordinates></Point></Placemark>
<Placemark><name>Iedul</name><description>Nume: Iedul, Tip: iezi, Nivel: 3, Județ: Valcea, Formă: Vale, ID: 10206 <br /><b>Variante</b><br />Nume: Iedul, Hartă: Geomil 25000, Limbă: Limba română</description><Point><coordinates>24.203657,45.516325,0</coordinates></Point></Placemark>
<Placemark><name>Valea Iedului</name><description>Nume: Valea Iedului, Tip: iezi, Nivel: 3, Județ: Valcea, Formă: Vale, ID: 4796 <br /><b>Variante</b><br />Nume: Valea Iedului, Hartă: PDT, Limbă: Limba română</description><Point><coordinates>24.127985,44.676396,0</coordinates></Point></Placemark></Document></kml>