<?xml version="1.0" encoding="UTF-8"?><kml xmlns="http://www.opengis.net/kml/2.2"><Document><Placemark><name>Balica</name><description>Nume: Balica, Tip: balica, Nivel: 2, Județ: Vaslui, Formă: Localitate, ID: 4630 <br /><b>Variante</b><br />Nume: Balica, Hartă: PDT, Limbă: Limba română<br />Nume: Balica, Hartă: Geomil 25000, Limbă: Limba română</description><Point><coordinates>27.451964,46.627005</coordinates></Point></Placemark>
<Placemark><name>Dealul Balica</name><description>Nume: Dealul Balica, Tip: balica, Nivel: 2, Județ: Mehedinti, Formă: Deal, ID: 11021 <br /><b>Variante</b><br />Nume: Dealul Balica, Hartă: Geomil 25000, Limbă: Limba română</description><Point><coordinates>23.041229,44.324947</coordinates></Point></Placemark>
<Placemark><name>Valea Balica</name><description>Nume: Valea Balica, Tip: balica, Nivel: 2, Județ: Mehedinti, Formă: Vale, ID: 12719 <br /><b>Variante</b><br />Nume: Valea Balica, Hartă: Geomil 25000, Limbă: Limba română</description><Point><coordinates>22.836195,44.704134</coordinates></Point></Placemark>
<Placemark><name>Piscul Balica</name><description>Nume: Piscul Balica, Tip: balica, Nivel: 2, Județ: Mehedinti, Formă: Înălțime, ID: 12720 <br /><b>Variante</b><br />Nume: Piscul Balica, Hartă: Geomil 25000, Limbă: Limba română</description><Point><coordinates>23.242371,44.636763</coordinates></Point></Placemark>
<Placemark><name>Piciorul lui Balic</name><description>Nume: Piciorul lui Balic, Tip: balic, Nivel: 3, Județ: Bacau, Formă: Înălțime, ID: 9161 <br /><b>Variante</b><br />Nume: Piciorul lui Balic, Hartă: PDT, Limbă: Limba română</description><Point><coordinates>26.336240,46.613115</coordinates></Point></Placemark></Document></kml>