<?xml version="1.0" encoding="UTF-8"?><kml xmlns="http://www.opengis.net/kml/2.2"><Document><Placemark><name>Vârfu Hurezului</name><description>Nume: Vârfu Hurezului, Tip: hurez, Nivel: 2, Județ: Arad, Formă: Înălțime, ID: 12522 <br /><b>Variante</b><br />Nume: Vârfu Hurezului, Hartă: Geomil 25000, Limbă: Limba română</description><Point><coordinates>22.121293,46.228477,0</coordinates></Point></Placemark>
<Placemark><name>Vârful Horezu</name><description>Nume: Vârful Horezu, Tip: horezu, Nivel: 3, Județ: Brasov, Formă: Înălțime, ID: 12668 <br /><b>Variante</b><br />Nume: Vârful Horezu, Hartă: Geomil 25000, Limbă: Limba română</description><Point><coordinates>25.414399,45.866776,0</coordinates></Point></Placemark>
<Placemark><name>Hurez</name><description>Nume: Hurez, Tip: hurez, Nivel: 2, Județ: Brasov, Formă: Localitate, ID: 11935 <br /><b>Variante</b><br />Nume: Hurez, Hartă: Geomil 25000, Limbă: Limba română</description><Point><coordinates>24.951752,45.801047,0</coordinates></Point></Placemark>
<Placemark><name>Hurez</name><description>Nume: Hurez, Tip: hurez, Nivel: 2, Județ: Gorj, Formă: Localitate, ID: 12107 <br /><b>Variante</b><br />Nume: Hurez, Hartă: Valahia-Moldova (1773-1774), Limbă: Limba română</description><Point><coordinates>23.292353,45.152620,0</coordinates></Point></Placemark>
<Placemark><name>Hurezani</name><description>Nume: Hurezani, Tip: hurezani, Nivel: 3, Județ: Gorj, Formă: Localitate, ID: 12678 <br /><b>Variante</b><br />Nume: Hurezani, Hartă: Geomil 25000, Limbă: Limba română</description><Point><coordinates>23.645802,44.801487,0</coordinates></Point></Placemark>
<Placemark><name>Orezu</name><description>Nume: Orezu, Tip: orezu, Nivel: 3, Județ: Ialomita, Formă: Localitate, ID: 12409 <br /><b>Variante</b><br />Nume: Orezu, Hartă: Geomil 25000, Limbă: Limba română<br />Nume: Orezu, Hartă: Austriacă, Limbă: Limba română</description><Point><coordinates>26.992747,44.587263,0</coordinates></Point></Placemark>
<Placemark><name>Horezu</name><description>Nume: Horezu, Tip: horezu, Nivel: 3, Județ: Olt, Formă: Localitate, ID: 12234 <br /><b>Variante</b><br />Nume: Horezu, Hartă: Geomil 25000, Limbă: Limba română</description><Point><coordinates>23.955545,44.470482,0</coordinates></Point></Placemark>
<Placemark><name>Hurez</name><description>Nume: Hurez, Tip: hurez, Nivel: 2, Județ: Salaj, Formă: Localitate, ID: 12786 <br /><b>Variante</b><br />Nume: Hurez, Hartă: PDT, Limbă: Limba română<br />Nume: Hurez, Hartă: Geomil 25000, Limbă: Limba română</description><Point><coordinates>22.911885,47.070747,0</coordinates></Point></Placemark>
<Placemark><name>La Hurezi</name><description>Nume: La Hurezi, Tip: hurezi, Nivel: 3, Județ: Salaj, Formă: Altele, ID: 11914 <br /><b>Variante</b><br />Nume: La Hurezi, Hartă: Geomil 25000, Limbă: Limba română</description><Point><coordinates>22.618194,47.119281,0</coordinates></Point></Placemark>
<Placemark><name>Hurezu Mare</name><description>Nume: Hurezu Mare, Tip: hurez, Nivel: 2, Județ: Satu Mare, Formă: Localitate, ID: 12143 <br /><b>Variante</b><br />Nume: Hurezu Mare, Hartă: Geomil 25000, Limbă: Limba română</description><Point><coordinates>22.837073,47.465026,0</coordinates></Point></Placemark>
<Placemark><name>Horezu</name><description>Nume: Horezu, Tip: horezu, Nivel: 3, Județ: Valcea, Formă: Localitate, ID: 12848 <br /><b>Variante</b><br />Nume: Horezu, Hartă: Geomil 25000, Limbă: Limba română</description><Point><coordinates>23.990331,45.145759,0</coordinates></Point></Placemark></Document></kml>