<?xml version="1.0" encoding="UTF-8"?><kml xmlns="http://www.opengis.net/kml/2.2"><Document><Placemark><name>Cărbuniște</name><description>Nume: Cărbuniște, Tip: cărbuniște, Nivel: 3, Județ: Cluj, Formă: Altele, ID: 8946 <br /><b>Variante</b><br />Nume: Cărbuniște, Hartă: PDT, Limbă: Limba română</description><Point><coordinates>23.486769,46.977374,0</coordinates></Point></Placemark>
<Placemark><name>Dealu Cărbuniștea</name><description>Nume: Dealu Cărbuniștea, Tip: cărbuniște, Nivel: 3, Județ: Cluj, Formă: Deal, ID: 7042 <br /><b>Variante</b><br />Nume: Dealu Cărbuniștea, Hartă: Geomil 25000, Limbă: Limba română</description><Point><coordinates>23.584756,47.034290,0</coordinates></Point></Placemark>
<Placemark><name>Valea Cărbuniștea</name><description>Nume: Valea Cărbuniștea, Tip: cărbuniște, Nivel: 3, Județ: Cluj, Formă: Vale, ID: 7043, ID Părinte: 7042 <br /><b>Variante</b><br />Nume: Valea Cărbuniștea, Hartă: Geomil 25000, Limbă: Limba română</description><Point><coordinates>23.590564,47.034730,0</coordinates></Point></Placemark>
<Placemark><LineString id="7043_7042"><tessellate>1</tessellate><coordinates>23.590564,47.034730,0.
23.584756,47.034290,0</coordinates></LineString><Style><LineStyle><width>3</width></LineStyle></Style></Placemark>
<Placemark><name>Cărbuniștea</name><description>Nume: Cărbuniștea, Tip: cărbuniște, Nivel: 3, Județ: Satu Mare, Formă: Altele, ID: 15939 <br /><b>Variante</b><br />Nume: Cărbuniștea, Hartă: ANCPI, Limbă: Limba română</description><Point><coordinates>23.225566,47.968262,0</coordinates></Point></Placemark>
<Placemark><name>Dealu carbuniste</name><description>Nume: Dealu carbuniste, Tip: cărbuniște, Nivel: 3, Județ: Satu Mare, Formă: Deal, ID: 10547 <br /><b>Variante</b><br />Nume: Dealu carbuniste, Hartă: Imperiul Habsburgic (1887), Limbă: Limba română</description><Point><coordinates>23.074114,47.611634,0</coordinates></Point></Placemark></Document></kml>