<?xml version="1.0" encoding="UTF-8"?><kml xmlns="http://www.opengis.net/kml/2.2"><Document><Placemark><name>Șilea-maghiară</name><description>Nume: Șilea-maghiară, Tip: maghiar, Nivel: 3, Județ: Alba, Formă: Localitate, ID: 10807 <br /><b>Variante</b><br />Nume: Șilea-maghiară, Hartă: Imperiul Habsburgic (1887), Limbă: Limba română</description><Point><coordinates>24.112086,46.324977,0</coordinates></Point></Placemark>
<Placemark><name>Magyar-Bénye</name><description>Nume: Magyar-Bénye, Tip: magyar, Nivel: 4, Județ: Alba, Formă: Localitate, ID: 14496 <br /><b>Variante</b><br />Nume: Magyar-Bénye, Hartă: Transilvania (1769-1773), Limbă: Limba maghiară</description><Point><coordinates>24.004241,46.231562,0</coordinates></Point></Placemark>
<Placemark><name>Colțu Ungurului</name><description>Nume: Colțu Ungurului, Tip: ungur, Nivel: 3, Județ: Alba, Formă: Înălțime, ID: 2584 <br /><b>Variante</b><br />Nume: Colțu Ungurului, Hartă: Geomil 25000, Limbă: Limba română</description><Point><coordinates>23.290016,46.488821,0</coordinates></Point></Placemark>
<Placemark><name>Pârâul Ungurului</name><description>Nume: Pârâul Ungurului, Tip: ungur, Nivel: 3, Județ: Alba, Formă: Vale, ID: 13694 <br /><b>Variante</b><br />Nume: Pârâul Ungurului, Hartă: Imperiul Habsburgic (1887), Limbă: Limba română</description><Point><coordinates>23.333438,46.341599,0</coordinates></Point></Placemark>
<Placemark><name>Peatra Ungurului</name><description>Nume: Peatra Ungurului, Tip: ungur, Nivel: 3, Județ: Alba, Formă: Înălțime, ID: 13714, ID Părinte: 2584 <br /><b>Variante</b><br />Nume: Peatra Ungurului, Hartă: Imperiul Habsburgic (1887), Limbă: Limba română</description><Point><coordinates>23.291925,46.508942,0</coordinates></Point></Placemark>
<Placemark><LineString id="13714_2584"><tessellate>1</tessellate><coordinates>23.291925,46.508942,0.
23.290016,46.488821,0</coordinates></LineString><Style><LineStyle><width>3</width></LineStyle></Style></Placemark>
<Placemark><name>Bucerdea Ungurească</name><description>Nume: Bucerdea Ungurească, Tip: ungureasca, Nivel: 3, Județ: Alba, Formă: Localitate, ID: 10673 <br /><b>Variante</b><br />Nume: Bucerdea Ungurească, Hartă: Imperiul Habsburgic (1887), Limbă: Limba română</description><Point><coordinates>23.529388,46.159704,0</coordinates></Point></Placemark>
<Placemark><name>Ghribova unguresce</name><description>Nume: Ghribova unguresce, Tip: ungureasca, Nivel: 3, Județ: Alba, Formă: Localitate, ID: 10502 <br /><b>Variante</b><br />Nume: Ghribova unguresce, Hartă: Transilvania (1869-1870), Limbă: Limba română</description><Point><coordinates>23.669226,46.257931,0</coordinates></Point></Placemark>
<Placemark><name>Lopadea ungureasca</name><description>Nume: Lopadea ungureasca, Tip: ungureasca, Nivel: 3, Județ: Alba, Formă: Localitate, ID: 10543 <br /><b>Variante</b><br />Nume: Lopadea ungureasca, Hartă: Imperiul Habsburgic (1887), Limbă: Limba română</description><Point><coordinates>23.818344,46.291540,0</coordinates></Point></Placemark>
<Placemark><name>Măgura Ungurească</name><description>Nume: Măgura Ungurească, Tip: ungureasca, Nivel: 3, Județ: Alba, Formă: Înălțime, ID: 11952 <br /><b>Variante</b><br />Nume: Măgura Ungurească, Hartă: PDT, Limbă: Limba română</description><Point><coordinates>23.217089,46.118014,0</coordinates></Point></Placemark>
<Placemark><name>Ungurei</name><description>Nume: Ungurei, Tip: ungurei, Nivel: 3, Județ: Alba, Formă: Localitate, ID: 10576, ID Părinte: 2549 <br /><b>Variante</b><br />Nume: Ungurei, Hartă: Imperiul Habsburgic (1887), Limbă: Limba română</description><Point><coordinates>23.826102,46.015423,0</coordinates></Point></Placemark>
<Placemark><LineString id="10576_2549"><tessellate>1</tessellate><coordinates>23.826102,46.015423,0.
23.869654,46.041616,0</coordinates></LineString><Style><LineStyle><width>3</width></LineStyle></Style></Placemark>
<Placemark><name>Calea Ungureiului</name><description>Nume: Calea Ungureiului, Tip: ungurei (singular), Nivel: 3, Județ: Alba, Formă: Înălțime, ID: 2549 <br /><b>Variante</b><br />Nume: Calea Ungureiului, Hartă: Geomil 25000, Limbă: Limba română</description><Point><coordinates>23.869654,46.041616,0</coordinates></Point></Placemark>
<Placemark><name>Dealu Ungureiului</name><description>Nume: Dealu Ungureiului, Tip: ungurei (singular), Nivel: 3, Județ: Alba, Formă: Deal, ID: 2550, ID Părinte: 2549 <br /><b>Variante</b><br />Nume: Dealu Ungureiului, Hartă: Geomil 25000, Limbă: Limba română</description><Point><coordinates>23.860603,46.030752,0</coordinates></Point></Placemark>
<Placemark><LineString id="2550_2549"><tessellate>1</tessellate><coordinates>23.860603,46.030752,0.
23.869654,46.041616,0</coordinates></LineString><Style><LineStyle><width>3</width></LineStyle></Style></Placemark>
<Placemark><name>Valea Ungureiului</name><description>Nume: Valea Ungureiului, Tip: ungurei (singular), Nivel: 3, Județ: Alba, Formă: Vale, ID: 2548, ID Părinte: 2549 <br /><b>Variante</b><br />Nume: Valea Ungureiului, Hartă: Geomil 25000, Limbă: Limba română</description><Point><coordinates>23.855232,46.043455,0</coordinates></Point></Placemark>
<Placemark><LineString id="2548_2549"><tessellate>1</tessellate><coordinates>23.855232,46.043455,0.
23.869654,46.041616,0</coordinates></LineString><Style><LineStyle><width>3</width></LineStyle></Style></Placemark>
<Placemark><name>La Viile Maghiare</name><description>Nume: La Viile Maghiare, Tip: maghiar, Nivel: 3, Județ: Arad, Formă: Altele, ID: 11903 <br /><b>Variante</b><br />Nume: La Viile Maghiare, Hartă: Geomil 25000, Limbă: Limba română</description><Point><coordinates>21.010240,46.171362,0</coordinates></Point></Placemark>
<Placemark><name>Dâmbu Ungurului</name><description>Nume: Dâmbu Ungurului, Tip: ungur, Nivel: 3, Județ: Arad, Formă: Înălțime, ID: 5595 <br /><b>Variante</b><br />Nume: Dâmbu Ungurului, Hartă: Geomil 25000, Limbă: Limba română<br />Nume: Dâmbul Ungurului, Hartă: PDT, Limbă: Limba română</description><Point><coordinates>22.522803,46.343007,0</coordinates></Point></Placemark>
<Placemark><name>Valea Ungurului</name><description>Nume: Valea Ungurului, Tip: ungur, Nivel: 3, Județ: Arad, Formă: Vale, ID: 969 <br /><b>Variante</b><br />Nume: Valea Ungurului, Hartă: Geomil 25000, Limbă: Limba română</description><Point><coordinates>22.181169,46.164788,0</coordinates></Point></Placemark>
<Placemark><name>Pârâul Unguresc</name><description>Nume: Pârâul Unguresc, Tip: unguresc, Nivel: 3, Județ: Arad, Formă: Vale, ID: 7659 <br /><b>Variante</b><br />Nume: Pârâul Unguresc, Hartă: PDT, Limbă: Limba română</description><Point><coordinates>22.093448,46.430573,0</coordinates></Point></Placemark>
<Placemark><name>Perii Ungurului</name><description>Nume: Perii Ungurului, Tip: ungur, Nivel: 3, Județ: Arges, Formă: Altele, ID: 11124 <br /><b>Variante</b><br />Nume: Perii Ungurului, Hartă: PDT, Limbă: Limba română</description><Point><coordinates>25.074244,45.214515,0</coordinates></Point></Placemark>
<Placemark><name>Dealul Ungurului</name><description>Nume: Dealul Ungurului, Tip: ungur, Nivel: 3, Județ: Bacau, Formă: Deal, ID: 1607 <br /><b>Variante</b><br />Nume: Dealul Ungurului, Hartă: Geomil 25000, Limbă: Limba română</description><Point><coordinates>27.148272,46.737633,0</coordinates></Point></Placemark>
<Placemark><name>Dealul Ungurului</name><description>Nume: Dealul Ungurului, Tip: ungur, Nivel: 3, Județ: Bacau, Formă: Deal, ID: 2045 <br /><b>Variante</b><br />Nume: Dealul Ungurului, Hartă: Geomil 25000, Limbă: Limba română<br />Nume: Dealul Ungurului, Hartă: PDT, Limbă: Limba română</description><Point><coordinates>26.735941,46.712117,0</coordinates></Point></Placemark>
<Placemark><name>Dealul Ungurului</name><description>Nume: Dealul Ungurului, Tip: ungur, Nivel: 3, Județ: Bacau, Formă: Deal, ID: 4578 <br /><b>Variante</b><br />Nume: Dealul Ungurului, Hartă: Geomil 25000, Limbă: Limba română</description><Point><coordinates>26.685854,46.336642,0</coordinates></Point></Placemark>
<Placemark><name>Poiana Ungurului</name><description>Nume: Poiana Ungurului, Tip: ungur, Nivel: 3, Județ: Bacau, Formă: Poiană, ID: 3829 <br /><b>Variante</b><br />Nume: Poiana Ungurului, Hartă: Geomil 25000, Limbă: Limba română</description><Point><coordinates>26.658909,46.633162,0</coordinates></Point></Placemark>
<Placemark><name>Dealul Ungurașului</name><description>Nume: Dealul Ungurașului, Tip: unguraș, Nivel: 3, Județ: Bacau, Formă: Deal, ID: 7836 <br /><b>Variante</b><br />Nume: Dealul Ungurașului, Hartă: Geomil 25000, Limbă: Limba română</description><Point><coordinates>26.885431,46.270115,0</coordinates></Point></Placemark>
<Placemark><name>Poiana Ungurașului</name><description>Nume: Poiana Ungurașului, Tip: unguraș, Nivel: 3, Județ: Bacau, Formă: Poiană, ID: 9524, ID Părinte: 7836 <br /><b>Variante</b><br />Nume: Poiana Ungurașului, Hartă: Moldova (1892-1898), Limbă: Limba română</description><Point><coordinates>26.885623,46.267058,0</coordinates></Point></Placemark>
<Placemark><LineString id="9524_7836"><tessellate>1</tessellate><coordinates>26.885623,46.267058,0.
26.885431,46.270115,0</coordinates></LineString><Style><LineStyle><width>3</width></LineStyle></Style></Placemark>
<Placemark><name>Unguri</name><description>Nume: Unguri, Tip: unguri, Nivel: 2, Județ: Bacau, Formă: Localitate, ID: 7888 <br /><b>Variante</b><br />Nume: Unguri, Hartă: PDT, Limbă: Limba română</description><Point><coordinates>27.186286,46.351948,0</coordinates></Point></Placemark>
<Placemark><name>Unguri ok Lunka Mare</name><description>Nume: Unguri ok Lunka Mare, Tip: unguri, Nivel: 2, Județ: Bacau, Formă: Localitate, ID: 12031 <br /><b>Variante</b><br />Nume: Unguri ok Lunka Mare, Hartă: Moldova (1788-1790), Limbă: Limba română</description><Point><coordinates>26.933599,46.404213,0</coordinates></Point></Placemark>
<Placemark><name>Valea Ungurilor</name><description>Nume: Valea Ungurilor, Tip: unguri, Nivel: 2, Județ: Bacau, Formă: Vale, ID: 7885 <br /><b>Variante</b><br />Nume: Valea Ungurilor, Hartă: PDT, Limbă: Limba română</description><Point><coordinates>27.104307,46.351508,0</coordinates></Point></Placemark>
<Placemark><name>Valea Maghiar</name><description>Nume: Valea Maghiar, Tip: maghiar, Nivel: 3, Județ: Bihor, Formă: Vale, ID: 7671 <br /><b>Variante</b><br />Nume: Valea Maghiar, Hartă: PDT, Limbă: Limba română</description><Point><coordinates>22.488844,47.367305,0</coordinates></Point></Placemark>
<Placemark><name>Valea Ungurului</name><description>Nume: Valea Ungurului, Tip: ungur, Nivel: 3, Județ: Bihor, Formă: Vale, ID: 1084 <br /><b>Variante</b><br />Nume: Valea Ungurului, Hartă: Geomil 25000, Limbă: Limba română</description><Point><coordinates>22.061595,46.894832,0</coordinates></Point></Placemark>
<Placemark><name>Ungureasca</name><description>Nume: Ungureasca, Tip: ungureasca, Nivel: 3, Județ: Bihor, Formă: Altele, ID: 985 <br /><b>Variante</b><br />Nume: Ungureasca, Hartă: Geomil 25000, Limbă: Limba română</description><Point><coordinates>22.209263,46.677003,0</coordinates></Point></Placemark>
<Placemark><name>Ungurești</name><description>Nume: Ungurești, Tip: ungurești, Nivel: 3, Județ: Bihor, Formă: Altele, ID: 10280 <br /><b>Variante</b><br />Nume: Ungurești, Hartă: PDT, Limbă: Limba română</description><Point><coordinates>22.624352,46.892527,0</coordinates></Point></Placemark>
<Placemark><name>Viile Ungurești</name><description>Nume: Viile Ungurești, Tip: ungurești, Nivel: 3, Județ: Bihor, Formă: Altele, ID: 4184 <br /><b>Variante</b><br />Nume: Viile Ungurești, Hartă: PDT, Limbă: Limba română</description><Point><coordinates>22.094802,47.095666,0</coordinates></Point></Placemark>
<Placemark><name>Valea Ungurilor</name><description>Nume: Valea Ungurilor, Tip: unguri, Nivel: 2, Județ: Bihor, Formă: Vale, ID: 10271 <br /><b>Variante</b><br />Nume: Valea Ungurilor, Hartă: Geomil 25000, Limbă: Limba română</description><Point><coordinates>22.296006,47.040186,0</coordinates></Point></Placemark>
<Placemark><name>Șieu-Măgheruș</name><description>Nume: Șieu-Măgheruș, Tip: măgheruș, Nivel: 3, Județ: Bistrita Nasaud, Formă: Localitate, ID: 10464 <br /><b>Variante</b><br />Nume: Șieu-Măgheruș, Hartă: Geomil 25000, Limbă: Limba română</description><Point><coordinates>24.374726,47.090815,0</coordinates></Point></Placemark>
<Placemark><name>Ungurul</name><description>Nume: Ungurul, Tip: ungur, Nivel: 3, Județ: Bistrita Nasaud, Formă: Vale, ID: 11103 <br /><b>Variante</b><br />Nume: Ungurul, Hartă: Geomil 25000, Limbă: Limba română</description><Point><coordinates>24.929540,47.247650,0</coordinates></Point></Placemark>
<Placemark><name>Ungurul</name><description>Nume: Ungurul, Tip: ungur, Nivel: 3, Județ: Bistrita Nasaud, Formă: Vale, ID: 12892 <br /><b>Variante</b><br />Nume: Ungurul, Hartă: Geomil 25000, Limbă: Limba română</description><Point><coordinates>25.005546,47.469570,0</coordinates></Point></Placemark>
<Placemark><name>Nimigea ungurească</name><description>Nume: Nimigea ungurească, Tip: ungureasca, Nivel: 3, Județ: Bistrita Nasaud, Formă: Localitate, ID: 10584 <br /><b>Variante</b><br />Nume: Nimigea ungurească, Hartă: Imperiul Habsburgic (1887), Limbă: Limba română</description><Point><coordinates>24.299990,47.253421,0</coordinates></Point></Placemark>
<Placemark><name>Via Ungurească</name><description>Nume: Via Ungurească, Tip: ungureasca, Nivel: 3, Județ: Bistrita Nasaud, Formă: Altele, ID: 9053 <br /><b>Variante</b><br />Nume: Via Ungurească, Hartă: PDT, Limbă: Limba română</description><Point><coordinates>24.414391,47.138158,0</coordinates></Point></Placemark>
<Placemark><name>Dealul Ungiurelului</name><description>Nume: Dealul Ungiurelului, Tip: ungurel, Nivel: 3, Județ: Bistrita Nasaud, Formă: Deal, ID: 10588 <br /><b>Variante</b><br />Nume: Dealul Ungiurelului, Hartă: Imperiul Habsburgic (1887), Limbă: Limba română</description><Point><coordinates>24.369756,47.306142,0</coordinates></Point></Placemark>
<Placemark><name>Vervu Unguriloru</name><description>Nume: Vervu Unguriloru, Tip: unguri, Nivel: 2, Județ: Bistrita Nasaud, Formă: Înălțime, ID: 10498 <br /><b>Variante</b><br />Nume: Vervu Unguriloru, Hartă: Transilvania (1869-1870), Limbă: Limba română</description><Point><coordinates>24.376502,47.263672,0</coordinates></Point></Placemark>
<Placemark><name>Valea Ungurului</name><description>Nume: Valea Ungurului, Tip: ungur, Nivel: 3, Județ: Botosani, Formă: Vale, ID: 3568 <br /><b>Variante</b><br />Nume: Valea Ungurului, Hartă: PDT, Limbă: Limba română</description><Point><coordinates>26.719850,47.819802,0</coordinates></Point></Placemark>
<Placemark><name>Unguroaia</name><description>Nume: Unguroaia, Tip: unguroaie, Nivel: 3, Județ: Botosani, Formă: Localitate, ID: 2358 <br /><b>Variante</b><br />Nume: Unguroaia, Hartă: Geomil 25000, Limbă: Limba română</description><Point><coordinates>26.701020,47.611155,0</coordinates></Point></Placemark>
<Placemark><name>Unguroaia</name><description>Nume: Unguroaia, Tip: unguroaie, Nivel: 3, Județ: Botosani, Formă: Vale, ID: 2359, ID Părinte: 2358 <br /><b>Variante</b><br />Nume: Unguroaia, Hartă: Geomil 25000, Limbă: Limba română</description><Point><coordinates>26.686876,47.607140,0</coordinates></Point></Placemark>
<Placemark><LineString id="2359_2358"><tessellate>1</tessellate><coordinates>26.686876,47.607140,0.
26.701020,47.611155,0</coordinates></LineString><Style><LineStyle><width>3</width></LineStyle></Style></Placemark>
<Placemark><name>Puțu Ungurului</name><description>Nume: Puțu Ungurului, Tip: ungur, Nivel: 3, Județ: Braila, Formă: Altele, ID: 12460 <br /><b>Variante</b><br />Nume: Puțu Ungurului, Hartă: PDT, Limbă: Limba română</description><Point><coordinates>27.541892,45.101668,0</coordinates></Point></Placemark>
<Placemark><name>Dealul Maghiarușului</name><description>Nume: Dealul Maghiarușului, Tip: maghiaruș, Nivel: 3, Județ: Brasov, Formă: Deal, ID: 2766 <br /><b>Variante</b><br />Nume: Dealul Maghiarușului, Hartă: Geomil 25000, Limbă: Limba română</description><Point><coordinates>25.857623,45.690939,0</coordinates></Point></Placemark>
<Placemark><name>Dealul Unguresc</name><description>Nume: Dealul Unguresc, Tip: unguresc, Nivel: 3, Județ: Brasov, Formă: Deal, ID: 10833 <br /><b>Variante</b><br />Nume: Dealul Unguresc, Hartă: Geomil 25000, Limbă: Limba română</description><Point><coordinates>25.421490,46.047779,0</coordinates></Point></Placemark>
<Placemark><name>Harhamul Unguresc</name><description>Nume: Harhamul Unguresc, Tip: unguresc, Nivel: 3, Județ: Brasov, Formă: Înălțime, ID: 6802 <br /><b>Variante</b><br />Nume: Harhamul Unguresc, Hartă: PDT, Limbă: Limba română</description><Point><coordinates>25.367420,45.912487,0</coordinates></Point></Placemark>
<Placemark><name>Plaiul Ungurului</name><description>Nume: Plaiul Ungurului, Tip: ungur, Nivel: 3, Județ: Buzau, Formă: Înălțime, ID: 6033, ID Părinte: 6032 <br /><b>Variante</b><br />Nume: Plaiul Ungurului, Hartă: Geomil 25000, Limbă: Limba română</description><Point><coordinates>26.389952,45.186809,0</coordinates></Point></Placemark>
<Placemark><LineString id="6033_6032"><tessellate>1</tessellate><coordinates>26.389952,45.186809,0.
26.399325,45.183909,0</coordinates></LineString><Style><LineStyle><width>3</width></LineStyle></Style></Placemark>
<Placemark><name>Valea Ungurului</name><description>Nume: Valea Ungurului, Tip: ungur, Nivel: 3, Județ: Buzau, Formă: Vale, ID: 6032 <br /><b>Variante</b><br />Nume: Valea Ungurului, Hartă: Geomil 25000, Limbă: Limba română</description><Point><coordinates>26.399325,45.183909,0</coordinates></Point></Placemark>
<Placemark><name>Unguriu</name><description>Nume: Unguriu, Tip: unguriu, Nivel: 4, Județ: Buzau, Formă: Localitate, ID: 6021 <br /><b>Variante</b><br />Nume: Unguriu, Hartă: Geomil 25000, Limbă: Limba română</description><Point><coordinates>26.617655,45.279112,0</coordinates></Point></Placemark>
<Placemark><name>Ungurul Mare</name><description>Nume: Ungurul Mare, Tip: ungur, Nivel: 3, Județ: Calarasi, Formă: Altele, ID: 3207 <br /><b>Variante</b><br />Nume: Ungurul Mare, Hartă: PDT, Limbă: Limba română</description><Point><coordinates>27.702370,44.296386,0</coordinates></Point></Placemark>
<Placemark><name>Ungurul Mare</name><description>Nume: Ungurul Mare, Tip: ungur, Nivel: 3, Județ: Calarasi, Formă: Altele, ID: 3208, ID Părinte: 3207 <br /><b>Variante</b><br />Nume: Ungurul Mare, Hartă: PDT, Limbă: Limba română</description><Point><coordinates>27.694486,44.288618,0</coordinates></Point></Placemark>
<Placemark><LineString id="3208_3207"><tessellate>1</tessellate><coordinates>27.694486,44.288618,0.
27.702370,44.296386,0</coordinates></LineString><Style><LineStyle><width>3</width></LineStyle></Style></Placemark>
<Placemark><name>Dealu Ungurului</name><description>Nume: Dealu Ungurului, Tip: ungur, Nivel: 3, Județ: Caras Severin, Formă: Deal, ID: 1210 <br /><b>Variante</b><br />Nume: Dealu Ungurului, Hartă: Geomil 25000, Limbă: Limba română</description><Point><coordinates>22.318809,45.330040,0</coordinates></Point></Placemark>
<Placemark><name>Fața Ungurului</name><description>Nume: Fața Ungurului, Tip: ungur, Nivel: 3, Județ: Caras Severin, Formă: Altele, ID: 851 <br /><b>Variante</b><br />Nume: Fața Ungurului, Hartă: Geomil 25000, Limbă: Limba română</description><Point><coordinates>22.503618,45.256728,0</coordinates></Point></Placemark>
<Placemark><name>Valea Ungurului</name><description>Nume: Valea Ungurului, Tip: ungur, Nivel: 3, Județ: Caras Severin, Formă: Vale, ID: 9425 <br /><b>Variante</b><br />Nume: Valea Ungurului, Hartă: Geomil 25000, Limbă: Limba română</description><Point><coordinates>22.090260,45.447307,0</coordinates></Point></Placemark>
<Placemark><name>Valea Ungurească</name><description>Nume: Valea Ungurească, Tip: ungureasca, Nivel: 3, Județ: Caras Severin, Formă: Vale, ID: 7609 <br /><b>Variante</b><br />Nume: Valea Ungurească, Hartă: PDT, Limbă: Limba română</description><Point><coordinates>21.486078,45.484332,0</coordinates></Point></Placemark>
<Placemark><name>Pădurea Măgherușului</name><description>Nume: Pădurea Măgherușului, Tip: măgheruș, Nivel: 3, Județ: Cluj, Formă: Pădure, ID: 8133 <br /><b>Variante</b><br />Nume: Pădurea Măgherușului, Hartă: PDT, Limbă: Limba română</description><Point><coordinates>23.888282,46.787781,0</coordinates></Point></Placemark>
<Placemark><name>Valea Măgherușu</name><description>Nume: Valea Măgherușu, Tip: măgheruș, Nivel: 3, Județ: Cluj, Formă: Vale, ID: 10399 <br /><b>Variante</b><br />Nume: Valea Măgherușu, Hartă: Geomil 25000, Limbă: Limba română</description><Point><coordinates>23.587699,46.986939,0</coordinates></Point></Placemark>
<Placemark><name>Dâmbul Maghiar</name><description>Nume: Dâmbul Maghiar, Tip: maghiar, Nivel: 3, Județ: Cluj, Formă: Înălțime, ID: 8945 <br /><b>Variante</b><br />Nume: Dâmbul Maghiar, Hartă: PDT, Limbă: Limba română</description><Point><coordinates>23.509005,46.956005,0</coordinates></Point></Placemark>
<Placemark><name>Maghiaroș</name><description>Nume: Maghiaroș, Tip: maghiaruș, Nivel: 3, Județ: Cluj, Formă: Altele, ID: 10400, ID Părinte: 10399 <br /><b>Variante</b><br />Nume: Maghiaroș, Hartă: PDT, Limbă: Limba română</description><Point><coordinates>23.603114,46.991282,0</coordinates></Point></Placemark>
<Placemark><LineString id="10400_10399"><tessellate>1</tessellate><coordinates>23.603114,46.991282,0.
23.587699,46.986939,0</coordinates></LineString><Style><LineStyle><width>3</width></LineStyle></Style></Placemark>
<Placemark><name>Magyar Fráta</name><description>Nume: Magyar Fráta, Tip: magyar, Nivel: 4, Județ: Cluj, Formă: Localitate, ID: 10651 <br /><b>Variante</b><br />Nume: Magyar Fráta, Hartă: Imperiul Habsburgic (1887), Limbă: Limba română<br />Nume: Magyar Fráta, Hartă: Transilvania (1869-1870), Limbă: Limba română</description><Point><coordinates>24.056464,46.703241,0</coordinates></Point></Placemark>
<Placemark><name>Magyar Gorbó (Gârbăul Unguresc)</name><description>Nume: Magyar Gorbó (Gârbăul Unguresc), Tip: magyar, Nivel: 4, Județ: Cluj, Formă: Localitate, ID: 10418 <br /><b>Variante</b><br />Nume: Magyar Gorbó (Gârbăul Unguresc), Hartă: Transilvania (1869-1870), Limbă: Limba română</description><Point><coordinates>23.351846,46.832573,0</coordinates></Point></Placemark>
<Placemark><name>Magyar Léta</name><description>Nume: Magyar Léta, Tip: magyar, Nivel: 4, Județ: Cluj, Formă: Localitate, ID: 10436 <br /><b>Variante</b><br />Nume: Magyar Léta, Hartă: Transilvania (1869-1870), Limbă: Limba maghiară</description><Point><coordinates>23.453463,46.619407,0</coordinates></Point></Placemark>
<Placemark><name>Magyaros</name><description>Nume: Magyaros, Tip: magyaros, Nivel: 4, Județ: Cluj, Formă: Înălțime, ID: 10416 <br /><b>Variante</b><br />Nume: Magyaros, Hartă: Transilvania (1869-1870), Limbă: Limba română</description><Point><coordinates>23.854713,46.793818,0</coordinates></Point></Placemark>
<Placemark><name>Valea Moghioruș</name><description>Nume: Valea Moghioruș, Tip: moghioruș, Nivel: 4, Județ: Cluj, Formă: Vale, ID: 5875 <br /><b>Variante</b><br />Nume: Valea Moghioruș, Hartă: Geomil 25000, Limbă: Limba română</description><Point><coordinates>23.862760,46.745371,0</coordinates></Point></Placemark>
<Placemark><name>Dealu Ungurului</name><description>Nume: Dealu Ungurului, Tip: ungur, Nivel: 3, Județ: Cluj, Formă: Deal, ID: 1104 <br /><b>Variante</b><br />Nume: Dealu Ungurului, Hartă: Geomil 25000, Limbă: Limba română</description><Point><coordinates>23.456624,47.073925,0</coordinates></Point></Placemark>
<Placemark><name>Pojana Ungurului</name><description>Nume: Pojana Ungurului, Tip: ungur, Nivel: 3, Județ: Cluj, Formă: Poiană, ID: 13313 <br /><b>Variante</b><br />Nume: Pojana Ungurului, Hartă: Transilvania (1869-1870), Limbă: Limba română</description><Point><coordinates>23.673601,47.078016,0</coordinates></Point></Placemark>
<Placemark><name>Valea Ungurului</name><description>Nume: Valea Ungurului, Tip: ungur, Nivel: 3, Județ: Cluj, Formă: Vale, ID: 1103, ID Părinte: 1104 <br /><b>Variante</b><br />Nume: Valea Ungurului, Hartă: Geomil 25000, Limbă: Limba română</description><Point><coordinates>23.448374,47.078587,0</coordinates></Point></Placemark>
<Placemark><LineString id="1103_1104"><tessellate>1</tessellate><coordinates>23.448374,47.078587,0.
23.456624,47.073925,0</coordinates></LineString><Style><LineStyle><width>3</width></LineStyle></Style></Placemark>
<Placemark><name>Valle Ungur</name><description>Nume: Valle Ungur, Tip: ungur, Nivel: 3, Județ: Cluj, Formă: Vale, ID: 11936 <br /><b>Variante</b><br />Nume: Valle Ungur, Hartă: Transilvania (1769-1773), Limbă: Limba română</description><Point><coordinates>23.463408,46.665470,0</coordinates></Point></Placemark>
<Placemark><name>Unguraș</name><description>Nume: Unguraș, Tip: unguraș, Nivel: 3, Județ: Cluj, Formă: Localitate, ID: 5854, ID Părinte: 5855 <br /><b>Variante</b><br />Nume: Unguraș, Hartă: Geomil 25000, Limbă: Limba română</description><Point><coordinates>24.049699,47.112496,0</coordinates></Point></Placemark>
<Placemark><LineString id="5854_5855"><tessellate>1</tessellate><coordinates>24.049699,47.112496,0.
24.091493,47.103729,0</coordinates></LineString><Style><LineStyle><width>3</width></LineStyle></Style></Placemark>
<Placemark><name>Ungurașul</name><description>Nume: Ungurașul, Tip: unguraș, Nivel: 3, Județ: Cluj, Formă: Înălțime, ID: 5855 <br /><b>Variante</b><br />Nume: Ungurașul, Hartă: Geomil 25000, Limbă: Limba română</description><Point><coordinates>24.091493,47.103729,0</coordinates></Point></Placemark>
<Placemark><name>Valea Ungurașului</name><description>Nume: Valea Ungurașului, Tip: unguraș, Nivel: 3, Județ: Cluj, Formă: Vale, ID: 5857, ID Părinte: 5854 <br /><b>Variante</b><br />Nume: Valea Ungurașului, Hartă: Geomil 25000, Limbă: Limba română</description><Point><coordinates>24.113859,47.077172,0</coordinates></Point></Placemark>
<Placemark><LineString id="5857_5854"><tessellate>1</tessellate><coordinates>24.113859,47.077172,0.
24.049699,47.112496,0</coordinates></LineString><Style><LineStyle><width>3</width></LineStyle></Style></Placemark>
<Placemark><name>Valea Ungurașului</name><description>Nume: Valea Ungurașului, Tip: unguraș, Nivel: 3, Județ: Cluj, Formă: Vale, ID: 5858, ID Părinte: 5854 <br /><b>Variante</b><br />Nume: Valea Ungurașului, Hartă: Geomil 25000, Limbă: Limba română</description><Point><coordinates>24.086427,47.087610,0</coordinates></Point></Placemark>
<Placemark><LineString id="5858_5854"><tessellate>1</tessellate><coordinates>24.086427,47.087610,0.
24.049699,47.112496,0</coordinates></LineString><Style><LineStyle><width>3</width></LineStyle></Style></Placemark>
<Placemark><name>Dealul Unguresc</name><description>Nume: Dealul Unguresc, Tip: unguresc, Nivel: 3, Județ: Cluj, Formă: Deal, ID: 8950 <br /><b>Variante</b><br />Nume: Dealul Unguresc, Hartă: PDT, Limbă: Limba română</description><Point><coordinates>23.616505,47.167420,0</coordinates></Point></Placemark>
<Placemark><name>Petridul Unguresc</name><description>Nume: Petridul Unguresc, Tip: unguresc, Nivel: 3, Județ: Cluj, Formă: Localitate, ID: 10541 <br /><b>Variante</b><br />Nume: Petridul Unguresc, Hartă: Imperiul Habsburgic (1887), Limbă: Limba română</description><Point><coordinates>23.653360,46.579706,0</coordinates></Point></Placemark>
<Placemark><name>Vâlcăul-Unguresc</name><description>Nume: Vâlcăul-Unguresc, Tip: unguresc, Nivel: 3, Județ: Cluj, Formă: Localitate, ID: 10430 <br /><b>Variante</b><br />Nume: Vâlcăul-Unguresc, Hartă: PDT, Limbă: Limba română<br />Nume: Magyarvalkó, Hartă: Transilvania (1869-1870), Limbă: Limba maghiară</description><Point><coordinates>23.028527,46.778922,0</coordinates></Point></Placemark>
<Placemark><name>Râtu Ungurilor</name><description>Nume: Râtu Ungurilor, Tip: unguri, Nivel: 2, Județ: Cluj, Formă: Altele, ID: 8139 <br /><b>Variante</b><br />Nume: Râtu Ungurilor, Hartă: PDT, Limbă: Limba română</description><Point><coordinates>23.634912,46.554138,0</coordinates></Point></Placemark>
<Placemark><name>Vârfu Ungurilor</name><description>Nume: Vârfu Ungurilor, Tip: unguri, Nivel: 2, Județ: Cluj, Formă: Înălțime, ID: 4398 <br /><b>Variante</b><br />Nume: Vârfu Ungurilor, Hartă: Geomil 25000, Limbă: Limba română<br />Nume: Vârful Ungurilor, Hartă: PDT, Limbă: Limba română</description><Point><coordinates>23.899355,47.256957,0</coordinates></Point></Placemark>
<Placemark><name>Măgheruș</name><description>Nume: Măgheruș, Tip: măgheruș, Nivel: 3, Județ: Covasna, Formă: Localitate, ID: 10476 <br /><b>Variante</b><br />Nume: Măgheruș, Hartă: Geomil 25000, Limbă: Limba română</description><Point><coordinates>25.923158,45.790309,0</coordinates></Point></Placemark>
<Placemark><name>Culmea Maghiară</name><description>Nume: Culmea Maghiară, Tip: maghiar, Nivel: 3, Județ: Covasna, Formă: Înălțime, ID: 10961 <br /><b>Variante</b><br />Nume: Culmea Maghiară, Hartă: Geomil 25000, Limbă: Limba română</description><Point><coordinates>26.360467,46.075419,0</coordinates></Point></Placemark>
<Placemark><name>Vadul Ungurului</name><description>Nume: Vadul Ungurului, Tip: ungur, Nivel: 3, Județ: Galati, Formă: Altele, ID: 9602 <br /><b>Variante</b><br />Nume: Vadul Ungurului, Hartă: Moldova (1892-1898), Limbă: Limba română</description><Point><coordinates>28.047390,45.467707,0</coordinates></Point></Placemark>
<Placemark><name>Valea Ungurului</name><description>Nume: Valea Ungurului, Tip: ungur, Nivel: 3, Județ: Galati, Formă: Vale, ID: 14985 <br /><b>Variante</b><br />Nume: Valea Ungurului, Hartă: PDT, Limbă: Limba română</description><Point><coordinates>27.696570,46.083869,0</coordinates></Point></Placemark>
<Placemark><name>Pârâul Ungurelașu</name><description>Nume: Pârâul Ungurelașu, Tip: ungurel, Nivel: 3, Județ: Gorj, Formă: Vale, ID: 2922, ID Părinte: 2923 <br /><b>Variante</b><br />Nume: Pârâul Ungurelașu, Hartă: Geomil 25000, Limbă: Limba română</description><Point><coordinates>23.773516,45.309389,0</coordinates></Point></Placemark>
<Placemark><LineString id="2922_2923"><tessellate>1</tessellate><coordinates>23.773516,45.309389,0.
23.758875,45.305928,0</coordinates></LineString><Style><LineStyle><width>3</width></LineStyle></Style></Placemark>
<Placemark><name>Pârâul Ungurelu</name><description>Nume: Pârâul Ungurelu, Tip: ungurel, Nivel: 3, Județ: Gorj, Formă: Vale, ID: 2923 <br /><b>Variante</b><br />Nume: Pârâul Ungurelu, Hartă: Geomil 25000, Limbă: Limba română</description><Point><coordinates>23.758875,45.305928,0</coordinates></Point></Placemark>
<Placemark><name>Ungurelu</name><description>Nume: Ungurelu, Tip: ungurel, Nivel: 3, Județ: Gorj, Formă: Localitate, ID: 5095 <br /><b>Variante</b><br />Nume: Ungurelu, Hartă: Austriacă, Limbă: Limba română<br />Nume: Ungurelul, Hartă: PDT, Limbă: Limba română</description><Point><coordinates>23.549784,44.958063,0</coordinates></Point></Placemark>
<Placemark><name>Ungurelu-de-Jos</name><description>Nume: Ungurelu-de-Jos, Tip: ungurel, Nivel: 3, Județ: Gorj, Formă: Localitate, ID: 5841 <br /><b>Variante</b><br />Nume: Ungurelu-de-Jos, Hartă: Austriacă, Limbă: Limba română</description><Point><coordinates>23.568054,44.980010,0</coordinates></Point></Placemark>
<Placemark><name>Ungurelu-de-Sus</name><description>Nume: Ungurelu-de-Sus, Tip: ungurel, Nivel: 3, Județ: Gorj, Formă: Localitate, ID: 5839, ID Părinte: 5841 <br /><b>Variante</b><br />Nume: Ungurelu-de-Sus, Hartă: Austriacă, Limbă: Limba română</description><Point><coordinates>23.621792,44.997437,0</coordinates></Point></Placemark>
<Placemark><LineString id="5839_5841"><tessellate>1</tessellate><coordinates>23.621792,44.997437,0.
23.568054,44.980010,0</coordinates></LineString><Style><LineStyle><width>3</width></LineStyle></Style></Placemark>
<Placemark><name>Valea Ungurelul</name><description>Nume: Valea Ungurelul, Tip: ungurel, Nivel: 3, Județ: Gorj, Formă: Vale, ID: 8398, ID Părinte: 5095 <br /><b>Variante</b><br />Nume: Valea Ungurelul, Hartă: PDT, Limbă: Limba română</description><Point><coordinates>23.555152,44.973121,0</coordinates></Point></Placemark>
<Placemark><LineString id="8398_5095"><tessellate>1</tessellate><coordinates>23.555152,44.973121,0.
23.549784,44.958063,0</coordinates></LineString><Style><LineStyle><width>3</width></LineStyle></Style></Placemark>
<Placemark><name>La Hanul Unguroaicei</name><description>Nume: La Hanul Unguroaicei, Tip: unguroaică, Nivel: 3, Județ: Gorj, Formă: Altele, ID: 7431 <br /><b>Variante</b><br />Nume: La Hanul Unguroaicei, Hartă: PDT, Limbă: Limba română</description><Point><coordinates>23.644714,44.688579,0</coordinates></Point></Placemark>
<Placemark><name>Măgheruș</name><description>Nume: Măgheruș, Tip: măgheruș, Nivel: 3, Județ: Harghita, Formă: Localitate, ID: 5415 <br /><b>Variante</b><br />Nume: Măgheruș, Hartă: Geomil 25000, Limbă: Limba română</description><Point><coordinates>25.338093,46.920542,0</coordinates></Point></Placemark>
<Placemark><name>Pârâul Măgheruș</name><description>Nume: Pârâul Măgheruș, Tip: măgheruș, Nivel: 3, Județ: Harghita, Formă: Vale, ID: 5414, ID Părinte: 5415 <br /><b>Variante</b><br />Nume: Pârâul Măgheruș, Hartă: Geomil 25000, Limbă: Limba română</description><Point><coordinates>25.295254,46.884735,0</coordinates></Point></Placemark>
<Placemark><LineString id="5414_5415"><tessellate>1</tessellate><coordinates>25.295254,46.884735,0.
25.338093,46.920542,0</coordinates></LineString><Style><LineStyle><width>3</width></LineStyle></Style></Placemark>
<Placemark><name>Magyar Lindsina</name><description>Nume: Magyar Lindsina, Tip: magyar, Nivel: 4, Județ: Hunedoara, Formă: Localitate, ID: 12317 <br /><b>Variante</b><br />Nume: Magyar Lindsina, Hartă: Imperiul Habsburgic (1887), Limbă: Limba maghiară</description><Point><coordinates>22.856835,45.667720,0</coordinates></Point></Placemark>
<Placemark><name>Dealu Ungurului</name><description>Nume: Dealu Ungurului, Tip: ungur, Nivel: 3, Județ: Hunedoara, Formă: Deal, ID: 1124 <br /><b>Variante</b><br />Nume: Dealu Ungurului, Hartă: Geomil 25000, Limbă: Limba română</description><Point><coordinates>23.082422,45.708799,0</coordinates></Point></Placemark>
<Placemark><name>Moara Ungurului</name><description>Nume: Moara Ungurului, Tip: ungur, Nivel: 3, Județ: Hunedoara, Formă: Altele, ID: 12316 <br /><b>Variante</b><br />Nume: Moara Ungurului, Hartă: Imperiul Habsburgic (1887), Limbă: Limba română</description><Point><coordinates>22.844215,45.687618,0</coordinates></Point></Placemark>
<Placemark><name>Valea Ungurului</name><description>Nume: Valea Ungurului, Tip: ungur, Nivel: 3, Județ: Hunedoara, Formă: Vale, ID: 5547 <br /><b>Variante</b><br />Nume: Valea Ungurului, Hartă: Geomil 25000, Limbă: Limba română</description><Point><coordinates>22.930431,45.630613,0</coordinates></Point></Placemark>
<Placemark><name>Valea Ungurului</name><description>Nume: Valea Ungurului, Tip: ungur, Nivel: 3, Județ: Hunedoara, Formă: Vale, ID: 12469 <br /><b>Variante</b><br />Nume: Valea Ungurului, Hartă: Geomil 25000, Limbă: Limba română</description><Point><coordinates>23.315602,45.357069,0</coordinates></Point></Placemark>
<Placemark><name>Vârfu Ungurului</name><description>Nume: Vârfu Ungurului, Tip: ungur, Nivel: 3, Județ: Hunedoara, Formă: Înălțime, ID: 6246 <br /><b>Variante</b><br />Nume: Vârfu Ungurului, Hartă: Geomil 25000, Limbă: Limba română</description><Point><coordinates>23.061169,46.138991,0</coordinates></Point></Placemark>
<Placemark><name>Bretea ungurească</name><description>Nume: Bretea ungurească, Tip: ungureasca, Nivel: 3, Județ: Hunedoara, Formă: Localitate, ID: 5557 <br /><b>Variante</b><br />Nume: Bretea ungurească, Hartă: PDT, Limbă: Limba română</description><Point><coordinates>23.001541,45.657259,0</coordinates></Point></Placemark>
<Placemark><name>Valea Ungureștilor</name><description>Nume: Valea Ungureștilor, Tip: ungurești, Nivel: 3, Județ: Hunedoara, Formă: Vale, ID: 6105 <br /><b>Variante</b><br />Nume: Valea Ungureștilor, Hartă: Geomil 25000, Limbă: Limba română</description><Point><coordinates>22.805920,45.669856,0</coordinates></Point></Placemark>
<Placemark><name>Pârâu Unguroiu</name><description>Nume: Pârâu Unguroiu, Tip: unguroiu, Nivel: 3, Județ: Hunedoara, Formă: Vale, ID: 6269 <br /><b>Variante</b><br />Nume: Pârâu Unguroiu, Hartă: Geomil 25000, Limbă: Limba română</description><Point><coordinates>22.671797,46.139134,0</coordinates></Point></Placemark>
<Placemark><name>Privalul Unguru</name><description>Nume: Privalul Unguru, Tip: ungur, Nivel: 3, Județ: Ialomita, Formă: Apă-deal-câmpie, ID: 2836 <br /><b>Variante</b><br />Nume: Privalul Unguru, Hartă: Geomil 25000, Limbă: Limba română</description><Point><coordinates>27.968079,44.542687,0</coordinates></Point></Placemark>
<Placemark><name>Dealul Ungurului</name><description>Nume: Dealul Ungurului, Tip: ungur, Nivel: 3, Județ: Iasi, Formă: Deal, ID: 1699 <br /><b>Variante</b><br />Nume: Dealul Ungurului, Hartă: Geomil 25000, Limbă: Limba română<br />Nume: Dealu Unguru, Hartă: PDT, Limbă: Limba română</description><Point><coordinates>28.017408,46.884620,0</coordinates></Point></Placemark>
<Placemark><name>Groapa Ungurului</name><description>Nume: Groapa Ungurului, Tip: ungur, Nivel: 3, Județ: Iasi, Formă: Altele, ID: 8923 <br /><b>Variante</b><br />Nume: Groapa Ungurului, Hartă: PDT, Limbă: Limba română</description><Point><coordinates>26.830607,47.386969,0</coordinates></Point></Placemark>
<Placemark><name>Iazul Ungurului</name><description>Nume: Iazul Ungurului, Tip: ungur, Nivel: 3, Județ: Iasi, Formă: Apă-deal-câmpie, ID: 9726 <br /><b>Variante</b><br />Nume: Iazul Ungurului, Hartă: Moldova (1892-1898), Limbă: Limba română</description><Point><coordinates>27.160922,47.328965,0</coordinates></Point></Placemark>
<Placemark><name>Bârlești Unguri</name><description>Nume: Bârlești Unguri, Tip: unguri, Nivel: 2, Județ: Iasi, Formă: Localitate, ID: 9568 <br /><b>Variante</b><br />Nume: Bârlești Unguri, Hartă: Moldova (1892-1898), Limbă: Limba română</description><Point><coordinates>27.252844,47.238038,0</coordinates></Point></Placemark>
<Placemark><name>Pădurea Ungurilor</name><description>Nume: Pădurea Ungurilor, Tip: unguri, Nivel: 2, Județ: Iasi, Formă: Pădure, ID: 11636 <br /><b>Variante</b><br />Nume: Pădurea Ungurilor, Hartă: ANCPI, Limbă: Limba română</description><Point><coordinates>26.697125,47.167184,0</coordinates></Point></Placemark>
<Placemark><name>Dealul Măgheruș</name><description>Nume: Dealul Măgheruș, Tip: măgheruș, Nivel: 3, Județ: Maramures, Formă: Deal, ID: 8228, ID Părinte: 8227 <br /><b>Variante</b><br />Nume: Dealul Măgheruș, Hartă: PDT, Limbă: Limba română</description><Point><coordinates>23.499716,47.666297,0</coordinates></Point></Placemark>
<Placemark><LineString id="8228_8227"><tessellate>1</tessellate><coordinates>23.499716,47.666297,0.
23.479604,47.665755,0</coordinates></LineString><Style><LineStyle><width>3</width></LineStyle></Style></Placemark>
<Placemark><name>Dealul Măgheruș</name><description>Nume: Dealul Măgheruș, Tip: măgheruș, Nivel: 3, Județ: Maramures, Formă: Deal, ID: 10257 <br /><b>Variante</b><br />Nume: Dealul Măgheruș, Hartă: Geomil 25000, Limbă: Limba română</description><Point><coordinates>23.678678,47.595284,0</coordinates></Point></Placemark>
<Placemark><name>Măgheruș</name><description>Nume: Măgheruș, Tip: măgheruș, Nivel: 3, Județ: Maramures, Formă: Localitate, ID: 8227 <br /><b>Variante</b><br />Nume: Măgheruș, Hartă: PDT, Limbă: Limba română</description><Point><coordinates>23.479604,47.665755,0</coordinates></Point></Placemark>
<Placemark><name>Valea Ungurului</name><description>Nume: Valea Ungurului, Tip: ungur, Nivel: 3, Județ: Maramures, Formă: Vale, ID: 5968 <br /><b>Variante</b><br />Nume: Valea Ungurului, Hartă: Geomil 25000, Limbă: Limba română</description><Point><coordinates>23.333916,47.768475,0</coordinates></Point></Placemark>
<Placemark><name>Unguraș</name><description>Nume: Unguraș, Tip: unguraș, Nivel: 3, Județ: Maramures, Formă: Localitate, ID: 7207 <br /><b>Variante</b><br />Nume: Unguraș, Hartă: Geomil 25000, Limbă: Limba română</description><Point><coordinates>23.675690,47.628816,0</coordinates></Point></Placemark>
<Placemark><name>Valea Ungurașului</name><description>Nume: Valea Ungurașului, Tip: unguraș, Nivel: 3, Județ: Maramures, Formă: Vale, ID: 4442 <br /><b>Variante</b><br />Nume: Valea Ungurașului, Hartă: Geomil 25000, Limbă: Limba română</description><Point><coordinates>23.918649,47.433851,0</coordinates></Point></Placemark>
<Placemark><name>Pădurea Ungurească</name><description>Nume: Pădurea Ungurească, Tip: ungureasca, Nivel: 3, Județ: Maramures, Formă: Pădure, ID: 1036 <br /><b>Variante</b><br />Nume: Pădurea Ungurească, Hartă: Geomil 25000, Limbă: Limba română</description><Point><coordinates>23.843396,47.540004,0</coordinates></Point></Placemark>
<Placemark><name>Valea Ungurească</name><description>Nume: Valea Ungurească, Tip: ungureasca, Nivel: 3, Județ: Maramures, Formă: Vale, ID: 11519 <br /><b>Variante</b><br />Nume: Valea Ungurească, Hartă: Geomil 25000, Limbă: Limba română</description><Point><coordinates>23.804158,47.902968,0</coordinates></Point></Placemark>
<Placemark><name>Lăpuşu unguresc</name><description>Nume: Lăpuşu unguresc, Tip: unguresc, Nivel: 3, Județ: Maramures, Formă: Localitate, ID: 10790 <br /><b>Variante</b><br />Nume: Lăpuşu unguresc, Hartă: Imperiul Habsburgic (1887), Limbă: Limba română</description><Point><coordinates>23.872069,47.450701,0</coordinates></Point></Placemark>
<Placemark><name>Dealul Ungurilor</name><description>Nume: Dealul Ungurilor, Tip: unguri, Nivel: 2, Județ: Maramures, Formă: Deal, ID: 8235, ID Părinte: 1036 <br /><b>Variante</b><br />Nume: Dealul Ungurilor, Hartă: PDT, Limbă: Limba română</description><Point><coordinates>23.850251,47.524050,0</coordinates></Point></Placemark>
<Placemark><LineString id="8235_1036"><tessellate>1</tessellate><coordinates>23.850251,47.524050,0.
23.843396,47.540004,0</coordinates></LineString><Style><LineStyle><width>3</width></LineStyle></Style></Placemark>
<Placemark><name>Poiana Vezău Unguresc</name><description>Nume: Poiana Vezău Unguresc, Tip: unguri, Nivel: 2, Județ: Maramures, Formă: Poiană, ID: 913 <br /><b>Variante</b><br />Nume: Poiana Vezău Unguresc, Hartă: Geomil 25000, Limbă: Limba română</description><Point><coordinates>23.567954,47.942661,0</coordinates></Point></Placemark>
<Placemark><name>D. Unkurului</name><description>Nume: D. Unkurului, Tip: ungur, Nivel: 3, Județ: Mehedinti, Formă: Deal, ID: 8066 <br /><b>Variante</b><br />Nume: D. Unkurului, Hartă: Austriacă, Limbă: Limba română</description><Point><coordinates>22.806402,44.717947,0</coordinates></Point></Placemark>
<Placemark><name>Măgheruș</name><description>Nume: Măgheruș, Tip: măgheruș, Nivel: 3, Județ: Mures, Formă: Localitate, ID: 8656 <br /><b>Variante</b><br />Nume: Măgheruș, Hartă: Geomil 25000, Limbă: Limba română</description><Point><coordinates>24.688064,46.320885,0</coordinates></Point></Placemark>
<Placemark><name>Măgheruș</name><description>Nume: Măgheruș, Tip: măgheruș, Nivel: 3, Județ: Mures, Formă: Înălțime, ID: 8658, ID Părinte: 8656 <br /><b>Variante</b><br />Nume: Măgheruș, Hartă: Geomil 25000, Limbă: Limba română</description><Point><coordinates>24.677085,46.319777,0</coordinates></Point></Placemark>
<Placemark><LineString id="8658_8656"><tessellate>1</tessellate><coordinates>24.677085,46.319777,0.
24.688064,46.320885,0</coordinates></LineString><Style><LineStyle><width>3</width></LineStyle></Style></Placemark>
<Placemark><name>Măgherușul</name><description>Nume: Măgherușul, Tip: măgheruș, Nivel: 3, Județ: Mures, Formă: Altele, ID: 7347 <br /><b>Variante</b><br />Nume: Măgherușul, Hartă: Geomil 25000, Limbă: Limba română</description><Point><coordinates>24.295182,46.456673,0</coordinates></Point></Placemark>
<Placemark><name>Valea Măgherușului</name><description>Nume: Valea Măgherușului, Tip: măgheruș, Nivel: 3, Județ: Mures, Formă: Vale, ID: 8657, ID Părinte: 8656 <br /><b>Variante</b><br />Nume: Valea Măgherușului, Hartă: Geomil 25000, Limbă: Limba română</description><Point><coordinates>24.690792,46.310281,0</coordinates></Point></Placemark>
<Placemark><LineString id="8657_8656"><tessellate>1</tessellate><coordinates>24.690792,46.310281,0.
24.688064,46.320885,0</coordinates></LineString><Style><LineStyle><width>3</width></LineStyle></Style></Placemark>
<Placemark><name>Herepea-maghiară</name><description>Nume: Herepea-maghiară, Tip: maghiar, Nivel: 3, Județ: Mures, Formă: Localitate, ID: 10808 <br /><b>Variante</b><br />Nume: Herepea-maghiară, Hartă: Imperiul Habsburgic (1887), Limbă: Limba română</description><Point><coordinates>24.151553,46.330878,0</coordinates></Point></Placemark>
<Placemark><name>Petrilaca Maghiară</name><description>Nume: Petrilaca Maghiară, Tip: maghiar, Nivel: 3, Județ: Mures, Formă: Localitate, ID: 10474 <br /><b>Variante</b><br />Nume: Petrilaca Maghiară, Hartă: PDT, Limbă: Limba română</description><Point><coordinates>24.757111,46.687712,0</coordinates></Point></Placemark>
<Placemark><name>Magyar Fülpös</name><description>Nume: Magyar Fülpös, Tip: magyar, Nivel: 4, Județ: Mures, Formă: Localitate, ID: 10656 <br /><b>Variante</b><br />Nume: Magyar Fülpös, Hartă: Transilvania (1869-1870), Limbă: Limba maghiară</description><Point><coordinates>24.589062,46.754924,0</coordinates></Point></Placemark>
<Placemark><name>Magyar-Régen</name><description>Nume: Magyar-Régen, Tip: magyar, Nivel: 4, Județ: Mures, Formă: Localitate, ID: 10470 <br /><b>Variante</b><br />Nume: Magyar-Régen, Hartă: Transilvania (1869-1870), Limbă: Limba maghiară</description><Point><coordinates>24.711754,46.785985,0</coordinates></Point></Placemark>
<Placemark><name>Ungurul</name><description>Nume: Ungurul, Tip: ungur, Nivel: 3, Județ: Mures, Formă: Vale, ID: 5400 <br /><b>Variante</b><br />Nume: Ungurul, Hartă: Geomil 25000, Limbă: Limba română</description><Point><coordinates>25.147448,46.939409,0</coordinates></Point></Placemark>
<Placemark><name>Valea Ungurului</name><description>Nume: Valea Ungurului, Tip: ungur, Nivel: 3, Județ: Mures, Formă: Localitate, ID: 5467 <br /><b>Variante</b><br />Nume: Valea Ungurului, Hartă: Geomil 25000, Limbă: Limba română</description><Point><coordinates>24.484006,46.808477,0</coordinates></Point></Placemark>
<Placemark><name>Ungurașul</name><description>Nume: Ungurașul, Tip: unguraș, Nivel: 3, Județ: Mures, Formă: Vale, ID: 7325 <br /><b>Variante</b><br />Nume: Ungurașul, Hartă: Geomil 25000, Limbă: Limba română</description><Point><coordinates>25.120791,46.981571,0</coordinates></Point></Placemark>
<Placemark><name>Ungurașul Mare</name><description>Nume: Ungurașul Mare, Tip: unguraș, Nivel: 3, Județ: Mures, Formă: Vale, ID: 7326, ID Părinte: 7325 <br /><b>Variante</b><br />Nume: Ungurașul Mare, Hartă: Geomil 25000, Limbă: Limba română</description><Point><coordinates>25.129905,46.988892,0</coordinates></Point></Placemark>
<Placemark><LineString id="7326_7325"><tessellate>1</tessellate><coordinates>25.129905,46.988892,0.
25.120791,46.981571,0</coordinates></LineString><Style><LineStyle><width>3</width></LineStyle></Style></Placemark>
<Placemark><name>Ungurașul Mic</name><description>Nume: Ungurașul Mic, Tip: unguraș, Nivel: 3, Județ: Mures, Formă: Vale, ID: 7327, ID Părinte: 7325 <br /><b>Variante</b><br />Nume: Ungurașul Mic, Hartă: Geomil 25000, Limbă: Limba română</description><Point><coordinates>25.134171,46.985964,0</coordinates></Point></Placemark>
<Placemark><LineString id="7327_7325"><tessellate>1</tessellate><coordinates>25.134171,46.985964,0.
25.120791,46.981571,0</coordinates></LineString><Style><LineStyle><width>3</width></LineStyle></Style></Placemark>
<Placemark><name>Böca unguriască</name><description>Nume: Böca unguriască, Tip: ungureasca, Nivel: 3, Județ: Mures, Formă: Localitate, ID: 10473 <br /><b>Variante</b><br />Nume: Böca unguriască, Hartă: Transilvania (1869-1870), Limbă: Limba română</description><Point><coordinates>24.798368,46.734775,0</coordinates></Point></Placemark>
<Placemark><name>Valea Tăul Unguresc</name><description>Nume: Valea Tăul Unguresc, Tip: unguresc, Nivel: 3, Județ: Mures, Formă: Vale, ID: 6769 <br /><b>Variante</b><br />Nume: Valea Tăul Unguresc, Hartă: Geomil 25000, Limbă: Limba română</description><Point><coordinates>24.343465,46.579179,0</coordinates></Point></Placemark>
<Placemark><name>Sortile Ungurești</name><description>Nume: Sortile Ungurești, Tip: ungurești, Nivel: 3, Județ: Mures, Formă: Altele, ID: 14334 <br /><b>Variante</b><br />Nume: Sortile Ungurești, Hartă: PDT, Limbă: Limba română</description><Point><coordinates>24.883610,46.267939,0</coordinates></Point></Placemark>
<Placemark><name>Dealul La Unguri</name><description>Nume: Dealul La Unguri, Tip: unguri, Nivel: 2, Județ: Mures, Formă: Deal, ID: 7318 <br /><b>Variante</b><br />Nume: Dealul La Unguri, Hartă: Geomil 25000, Limbă: Limba română</description><Point><coordinates>24.756193,46.678385,0</coordinates></Point></Placemark>
<Placemark><name>Arșița Ungurului</name><description>Nume: Arșița Ungurului, Tip: ungur, Nivel: 3, Județ: Neamt, Formă: Altele, ID: 2064, ID Părinte: 2065 <br /><b>Variante</b><br />Nume: Arșița Ungurului, Hartă: Geomil 25000, Limbă: Limba română</description><Point><coordinates>25.890380,47.237496,0</coordinates></Point></Placemark>
<Placemark><LineString id="2064_2065"><tessellate>1</tessellate><coordinates>25.890380,47.237496,0.
25.879433,47.234208,0</coordinates></LineString><Style><LineStyle><width>3</width></LineStyle></Style></Placemark>
<Placemark><name>Dealul Fântâna Ungurului</name><description>Nume: Dealul Fântâna Ungurului, Tip: ungur, Nivel: 3, Județ: Neamt, Formă: Deal, ID: 9820 <br /><b>Variante</b><br />Nume: Dealul Fântâna Ungurului, Hartă: Geomil 25000, Limbă: Limba română</description><Point><coordinates>27.151971,46.926556,0</coordinates></Point></Placemark>
<Placemark><name>Pârâul Ungurul de Jos</name><description>Nume: Pârâul Ungurul de Jos, Tip: ungur, Nivel: 3, Județ: Neamt, Formă: Vale, ID: 2066, ID Părinte: 2065 <br /><b>Variante</b><br />Nume: Pârâul Ungurul de Jos, Hartă: Geomil 25000, Limbă: Limba română</description><Point><coordinates>25.884083,47.232040,0</coordinates></Point></Placemark>
<Placemark><LineString id="2066_2065"><tessellate>1</tessellate><coordinates>25.884083,47.232040,0.
25.879433,47.234208,0</coordinates></LineString><Style><LineStyle><width>3</width></LineStyle></Style></Placemark>
<Placemark><name>Pârâul Ungurul de Sus</name><description>Nume: Pârâul Ungurul de Sus, Tip: ungur, Nivel: 3, Județ: Neamt, Formă: Vale, ID: 2067, ID Părinte: 2065 <br /><b>Variante</b><br />Nume: Pârâul Ungurul de Sus, Hartă: Geomil 25000, Limbă: Limba română</description><Point><coordinates>25.889503,47.239598,0</coordinates></Point></Placemark>
<Placemark><LineString id="2067_2065"><tessellate>1</tessellate><coordinates>25.889503,47.239598,0.
25.879433,47.234208,0</coordinates></LineString><Style><LineStyle><width>3</width></LineStyle></Style></Placemark>
<Placemark><name>Plaiul Ungurului</name><description>Nume: Plaiul Ungurului, Tip: ungur, Nivel: 3, Județ: Neamt, Formă: Înălțime, ID: 2065 <br /><b>Variante</b><br />Nume: Plaiul Ungurului, Hartă: Geomil 25000, Limbă: Limba română</description><Point><coordinates>25.879433,47.234208,0</coordinates></Point></Placemark>
<Placemark><name>Dealul Ungurașului</name><description>Nume: Dealul Ungurașului, Tip: unguraș, Nivel: 3, Județ: Neamt, Formă: Deal, ID: 11963 <br /><b>Variante</b><br />Nume: Dealul Ungurașului, Hartă: Moldova (1892-1898), Limbă: Limba română</description><Point><coordinates>26.599000,46.954832,0</coordinates></Point></Placemark>
<Placemark><name>La Unguraș</name><description>Nume: La Unguraș, Tip: unguraș, Nivel: 3, Județ: Neamt, Formă: Altele, ID: 3897 <br /><b>Variante</b><br />Nume: La Unguraș, Hartă: PDT, Limbă: Limba română</description><Point><coordinates>26.741890,46.965336,0</coordinates></Point></Placemark>
<Placemark><name>Pădurea Unguraș</name><description>Nume: Pădurea Unguraș, Tip: unguraș, Nivel: 3, Județ: Neamt, Formă: Pădure, ID: 3898, ID Părinte: 3897 <br /><b>Variante</b><br />Nume: Pădurea Unguraș, Hartă: PDT, Limbă: Limba română</description><Point><coordinates>26.744574,46.963607,0</coordinates></Point></Placemark>
<Placemark><LineString id="3898_3897"><tessellate>1</tessellate><coordinates>26.744574,46.963607,0.
26.741890,46.965336,0</coordinates></LineString><Style><LineStyle><width>3</width></LineStyle></Style></Placemark>
<Placemark><name>Dealul Unguresc</name><description>Nume: Dealul Unguresc, Tip: unguresc, Nivel: 3, Județ: Neamt, Formă: Deal, ID: 11395 <br /><b>Variante</b><br />Nume: Dealul Unguresc, Hartă: Geomil 25000, Limbă: Limba română</description><Point><coordinates>26.588074,47.077034,0</coordinates></Point></Placemark>
<Placemark><name>Dealu Măgheruș</name><description>Nume: Dealu Măgheruș, Tip: măgheruș, Nivel: 3, Județ: Olt, Formă: Deal, ID: 5874, ID Părinte: 8133 <br /><b>Variante</b><br />Nume: Dealu Măgheruș, Hartă: Geomil 25000, Limbă: Limba română<br />Nume: Dealul Măgherușului, Hartă: PDT, Limbă: Limba română</description><Point><coordinates>23.880494,46.788955,0</coordinates></Point></Placemark>
<Placemark><LineString id="5874_8133"><tessellate>1</tessellate><coordinates>23.880494,46.788955,0.
23.888282,46.787781,0</coordinates></LineString><Style><LineStyle><width>3</width></LineStyle></Style></Placemark>
<Placemark><name>Dealul Ungureilor</name><description>Nume: Dealul Ungureilor, Tip: ungurei, Nivel: 3, Județ: Olt, Formă: Deal, ID: 10990, ID Părinte: 5795 <br /><b>Variante</b><br />Nume: Dealul Ungureilor, Hartă: PDT, Limbă: Limba română</description><Point><coordinates>24.745055,44.284744,0</coordinates></Point></Placemark>
<Placemark><LineString id="10990_5795"><tessellate>1</tessellate><coordinates>24.745055,44.284744,0.
24.755047,44.279280,0</coordinates></LineString><Style><LineStyle><width>3</width></LineStyle></Style></Placemark>
<Placemark><name>Lacul Unguroaica</name><description>Nume: Lacul Unguroaica, Tip: unguroaică, Nivel: 3, Județ: Olt, Formă: Lac, ID: 11186 <br /><b>Variante</b><br />Nume: Lacul Unguroaica, Hartă: ANCPI, Limbă: Limba română</description><Point><coordinates>24.705672,44.265494,0</coordinates></Point></Placemark>
<Placemark><name>Magyar Bikal</name><description>Nume: Magyar Bikal, Tip: magyar, Nivel: 4, Județ: Salaj, Formă: Localitate, ID: 10427 <br /><b>Variante</b><br />Nume: Magyar Bikal, Hartă: Transilvania (1869-1870), Limbă: Limba maghiară</description><Point><coordinates>23.049467,46.879282,0</coordinates></Point></Placemark>
<Placemark><name>Magyar Nagy Zsombor</name><description>Nume: Magyar Nagy Zsombor, Tip: magyar, Nivel: 4, Județ: Salaj, Formă: Localitate, ID: 10421 <br /><b>Variante</b><br />Nume: Magyar Nagy Zsombor, Hartă: Transilvania (1869-1870), Limbă: Limba maghiară</description><Point><coordinates>23.263134,47.000732,0</coordinates></Point></Placemark>
<Placemark><name>Valea Ungurului</name><description>Nume: Valea Ungurului, Tip: ungur, Nivel: 3, Județ: Salaj, Formă: Vale, ID: 1070 <br /><b>Variante</b><br />Nume: Valea Ungurului, Hartă: Geomil 25000, Limbă: Limba română</description><Point><coordinates>22.564121,47.089384,0</coordinates></Point></Placemark>
<Placemark><name>Valea Ungurului</name><description>Nume: Valea Ungurului, Tip: ungur, Nivel: 3, Județ: Salaj, Formă: Vale, ID: 7530 <br /><b>Variante</b><br />Nume: Valea Ungurului, Hartă: PDT, Limbă: Limba română</description><Point><coordinates>23.030405,47.014472,0</coordinates></Point></Placemark>
<Placemark><name>Valea Ungurului</name><description>Nume: Valea Ungurului, Tip: ungur, Nivel: 3, Județ: Salaj, Formă: Vale, ID: 9000 <br /><b>Variante</b><br />Nume: Valea Ungurului, Hartă: PDT, Limbă: Limba română</description><Point><coordinates>23.392677,47.140629,0</coordinates></Point></Placemark>
<Placemark><name>Valea Ungurului</name><description>Nume: Valea Ungurului, Tip: ungur, Nivel: 3, Județ: Salaj, Formă: Vale, ID: 10383 <br /><b>Variante</b><br />Nume: Valea Ungurului, Hartă: Geomil 25000, Limbă: Limba română</description><Point><coordinates>23.080316,47.225913,0</coordinates></Point></Placemark>
<Placemark><name>Unguraș</name><description>Nume: Unguraș, Tip: unguraș, Nivel: 3, Județ: Salaj, Formă: Localitate, ID: 10423 <br /><b>Variante</b><br />Nume: Unguraș, Hartă: PDT, Limbă: Limba română<br />Nume: Magyar-Egregy, Hartă: Transilvania (1869-1870), Limbă: Limba maghiară</description><Point><coordinates>23.189421,47.112504,0</coordinates></Point></Placemark>
<Placemark><name>Pădurea Ungurasca</name><description>Nume: Pădurea Ungurasca, Tip: ungureasca, Nivel: 3, Județ: Salaj, Formă: Pădure, ID: 10785 <br /><b>Variante</b><br />Nume: Pădurea Ungurasca, Hartă: Imperiul Habsburgic (1887), Limbă: Limba română</description><Point><coordinates>22.914066,47.376960,0</coordinates></Point></Placemark>
<Placemark><name>Dealu Drumu Ungurului</name><description>Nume: Dealu Drumu Ungurului, Tip: ungur, Nivel: 3, Județ: Satu Mare, Formă: Deal, ID: 4416, ID Părinte: 8704 <br /><b>Variante</b><br />Nume: Dealu Drumu Ungurului, Hartă: Geomil 25000, Limbă: Limba română</description><Point><coordinates>23.066661,47.605903,0</coordinates></Point></Placemark>
<Placemark><LineString id="4416_8704"><tessellate>1</tessellate><coordinates>23.066661,47.605903,0.
23.082287,47.593719,0</coordinates></LineString><Style><LineStyle><width>3</width></LineStyle></Style></Placemark>
<Placemark><name>Dealul Ungurului</name><description>Nume: Dealul Ungurului, Tip: ungur, Nivel: 3, Județ: Satu Mare, Formă: Deal, ID: 8704 <br /><b>Variante</b><br />Nume: Dealul Ungurului, Hartă: PDT, Limbă: Limba română</description><Point><coordinates>23.082287,47.593719,0</coordinates></Point></Placemark>
<Placemark><name>Drumul Ungurului</name><description>Nume: Drumul Ungurului, Tip: ungur, Nivel: 3, Județ: Satu Mare, Formă: Drum, ID: 8223 <br /><b>Variante</b><br />Nume: Drumul Ungurului, Hartă: PDT, Limbă: Limba română</description><Point><coordinates>23.106476,47.639884,0</coordinates></Point></Placemark>
<Placemark><name>Fântâna Ungurului</name><description>Nume: Fântâna Ungurului, Tip: ungur, Nivel: 3, Județ: Satu Mare, Formă: Altele, ID: 8703, ID Părinte: 8704 <br /><b>Variante</b><br />Nume: Fântâna Ungurului, Hartă: PDT, Limbă: Limba română</description><Point><coordinates>23.092335,47.588948,0</coordinates></Point></Placemark>
<Placemark><LineString id="8703_8704"><tessellate>1</tessellate><coordinates>23.092335,47.588948,0.
23.082287,47.593719,0</coordinates></LineString><Style><LineStyle><width>3</width></LineStyle></Style></Placemark>
<Placemark><name>Valea Ungurului</name><description>Nume: Valea Ungurului, Tip: ungur, Nivel: 3, Județ: Satu Mare, Formă: Vale, ID: 4412 <br /><b>Variante</b><br />Nume: Valea Ungurului, Hartă: Geomil 25000, Limbă: Limba română</description><Point><coordinates>22.965908,47.530024,0</coordinates></Point></Placemark>
<Placemark><name>Dealul Ungurașului</name><description>Nume: Dealul Ungurașului, Tip: unguraș, Nivel: 3, Județ: Satu Mare, Formă: Deal, ID: 8210 <br /><b>Variante</b><br />Nume: Dealul Ungurașului, Hartă: PDT, Limbă: Limba română</description><Point><coordinates>22.886357,47.486932,0</coordinates></Point></Placemark>
<Placemark><name>Valea Ungurașului</name><description>Nume: Valea Ungurașului, Tip: unguraș, Nivel: 3, Județ: Satu Mare, Formă: Vale, ID: 8211, ID Părinte: 8210 <br /><b>Variante</b><br />Nume: Valea Ungurașului, Hartă: PDT, Limbă: Limba română</description><Point><coordinates>22.901249,47.491154,0</coordinates></Point></Placemark>
<Placemark><LineString id="8211_8210"><tessellate>1</tessellate><coordinates>22.901249,47.491154,0.
22.886357,47.486932,0</coordinates></LineString><Style><LineStyle><width>3</width></LineStyle></Style></Placemark>
<Placemark><name>Valea Ungurași</name><description>Nume: Valea Ungurași, Tip: ungurași, Nivel: 3, Județ: Satu Mare, Formă: Vale, ID: 5954 <br /><b>Variante</b><br />Nume: Valea Ungurași, Hartă: Geomil 25000, Limbă: Limba română</description><Point><coordinates>23.005018,47.506853,0</coordinates></Point></Placemark>
<Placemark><name>Valea Ungureșii</name><description>Nume: Valea Ungureșii, Tip: ungureasă, Nivel: 3, Județ: Satu Mare, Formă: Vale, ID: 6955, ID Părinte: 8210 <br /><b>Variante</b><br />Nume: Valea Ungureșii, Hartă: Geomil 25000, Limbă: Limba română</description><Point><coordinates>22.893380,47.481806,0</coordinates></Point></Placemark>
<Placemark><LineString id="6955_8210"><tessellate>1</tessellate><coordinates>22.893380,47.481806,0.
22.886357,47.486932,0</coordinates></LineString><Style><LineStyle><width>3</width></LineStyle></Style></Placemark>
<Placemark><name>Cehalul Unguresc</name><description>Nume: Cehalul Unguresc, Tip: unguresc, Nivel: 3, Județ: Satu Mare, Formă: Localitate, ID: 8209 <br /><b>Variante</b><br />Nume: Cehalul Unguresc, Hartă: PDT, Limbă: Limba română</description><Point><coordinates>22.563994,47.424692,0</coordinates></Point></Placemark>
<Placemark><name>Fordulău Unguresc</name><description>Nume: Fordulău Unguresc, Tip: unguresc, Nivel: 3, Județ: Satu Mare, Formă: Altele, ID: 5980 <br /><b>Variante</b><br />Nume: Fordulău Unguresc, Hartă: Geomil 25000, Limbă: Limba română</description><Point><coordinates>22.347462,47.532926,0</coordinates></Point></Placemark>
<Placemark><name>Pârâul Ungurului</name><description>Nume: Pârâul Ungurului, Tip: ungur, Nivel: 3, Județ: Sibiu, Formă: Vale, ID: 12854 <br /><b>Variante</b><br />Nume: Pârâul Ungurului, Hartă: Geomil 25000, Limbă: Limba română</description><Point><coordinates>23.650987,45.634341,0</coordinates></Point></Placemark>
<Placemark><name>Pădurea Ungurilor</name><description>Nume: Pădurea Ungurilor, Tip: unguri, Nivel: 2, Județ: Sibiu, Formă: Pădure, ID: 1900 <br /><b>Variante</b><br />Nume: Pădurea Ungurilor, Hartă: Geomil 25000, Limbă: Limba română</description><Point><coordinates>24.480650,46.170550,0</coordinates></Point></Placemark>
<Placemark><name>Șesul Ungurilor</name><description>Nume: Șesul Ungurilor, Tip: unguri, Nivel: 2, Județ: Sibiu, Formă: Câmp, ID: 5537 <br /><b>Variante</b><br />Nume: Șesul Ungurilor, Hartă: PDT, Limbă: Limba română</description><Point><coordinates>24.071206,45.885717,0</coordinates></Point></Placemark>
<Placemark><name>Măgura Ungurului</name><description>Nume: Măgura Ungurului, Tip: unguri, Nivel: 2, Județ: Teleorman, Formă: Înălțime, ID: 451 <br /><b>Variante</b><br />Nume: Măgura Ungurului, Hartă: Geomil 25000, Limbă: Limba română<br />Nume: Movila Ungurului, Hartă: PDT, Limbă: Limba română</description><Point><coordinates>25.620883,43.812745,0</coordinates></Point></Placemark>
<Placemark><name>Pârâu Măgheruș</name><description>Nume: Pârâu Măgheruș, Tip: măgheruș, Nivel: 3, Județ: Timis, Formă: Vale, ID: 5654 <br /><b>Variante</b><br />Nume: Pârâu Măgheruș, Hartă: Geomil 25000, Limbă: Limba română</description><Point><coordinates>21.264480,45.887470,0</coordinates></Point></Placemark>
<Placemark><name>Sânmartinu Maghiar</name><description>Nume: Sânmartinu Maghiar, Tip: maghiar, Nivel: 3, Județ: Timis, Formă: Localitate, ID: 7617 <br /><b>Variante</b><br />Nume: Sânmartinu Maghiar, Hartă: Geomil 25000, Limbă: Limba română</description><Point><coordinates>20.908497,45.636591,0</coordinates></Point></Placemark>
<Placemark><name>Căpățâna Ungurului</name><description>Nume: Căpățâna Ungurului, Tip: ungur, Nivel: 3, Județ: Timis, Formă: Înălțime, ID: 6213 <br /><b>Variante</b><br />Nume: Căpățâna Ungurului, Hartă: PDT, Limbă: Limba română</description><Point><coordinates>22.361871,45.872980,0</coordinates></Point></Placemark>
<Placemark><name>Dealu Ungurului</name><description>Nume: Dealu Ungurului, Tip: ungur, Nivel: 3, Județ: Timis, Formă: Deal, ID: 879 <br /><b>Variante</b><br />Nume: Dealu Ungurului, Hartă: Geomil 25000, Limbă: Limba română</description><Point><coordinates>22.354822,45.913283,0</coordinates></Point></Placemark>
<Placemark><name>Bunea Ungurească</name><description>Nume: Bunea Ungurească, Tip: ungureasca, Nivel: 3, Județ: Timis, Formă: Localitate, ID: 6312 <br /><b>Variante</b><br />Nume: Bunea Ungurească, Hartă: PDT, Limbă: Limba română</description><Point><coordinates>22.091506,45.924100,0</coordinates></Point></Placemark>
<Placemark><name>Jzlazu Unguresc</name><description>Nume: Jzlazu Unguresc, Tip: unguresc, Nivel: 3, Județ: Timis, Formă: Altele, ID: 10538 <br /><b>Variante</b><br />Nume: Jzlazu Unguresc, Hartă: Imperiul Habsburgic (1887), Limbă: Limba română</description><Point><coordinates>21.339059,45.730248,0</coordinates></Point></Placemark>
<Placemark><name>Valea Ungurești</name><description>Nume: Valea Ungurești, Tip: ungurești, Nivel: 3, Județ: Timis, Formă: Vale, ID: 10237 <br /><b>Variante</b><br />Nume: Valea Ungurești, Hartă: Geomil 25000, Limbă: Limba română</description><Point><coordinates>22.134316,45.784140,0</coordinates></Point></Placemark>
<Placemark><name>Unguroaica</name><description>Nume: Unguroaica, Tip: unguroaică, Nivel: 3, Județ: Timis, Formă: Deal, ID: 6178 <br /><b>Variante</b><br />Nume: Unguroaica, Hartă: PDT, Limbă: Limba română</description><Point><coordinates>21.985058,45.757865,0</coordinates></Point></Placemark>
<Placemark><name>Unguriți</name><description>Nume: Unguriți, Tip: unguriți, Nivel: 3, Județ: Valcea, Formă: Localitate, ID: 4739 <br /><b>Variante</b><br />Nume: Unguriți, Hartă: PDT, Limbă: Limba română</description><Point><coordinates>23.931820,44.666836,0</coordinates></Point></Placemark>
<Placemark><name>Valea Unguriți</name><description>Nume: Valea Unguriți, Tip: unguriți, Nivel: 3, Județ: Valcea, Formă: Vale, ID: 261, ID Părinte: 4739 <br /><b>Variante</b><br />Nume: Valea Unguriți, Hartă: Geomil 25000, Limbă: Limba română<br />Nume: Valea Unguriți, Hartă: PDT, Limbă: Limba română</description><Point><coordinates>23.957875,44.654255,0</coordinates></Point></Placemark>
<Placemark><LineString id="261_4739"><tessellate>1</tessellate><coordinates>23.957875,44.654255,0.
23.931820,44.666836,0</coordinates></LineString><Style><LineStyle><width>3</width></LineStyle></Style></Placemark>
<Placemark><name>Dealul Lacul Ungurului</name><description>Nume: Dealul Lacul Ungurului, Tip: ungur, Nivel: 3, Județ: Vaslui, Formă: Deal, ID: 1708 <br /><b>Variante</b><br />Nume: Dealul Lacul Ungurului, Hartă: Geomil 25000, Limbă: Limba română</description><Point><coordinates>27.519062,46.233258,0</coordinates></Point></Placemark>
<Placemark><name>Dealul Ungurului</name><description>Nume: Dealul Ungurului, Tip: ungur, Nivel: 3, Județ: Vaslui, Formă: Deal, ID: 1707, ID Părinte: 1708 <br /><b>Variante</b><br />Nume: Dealul Ungurului, Hartă: Geomil 25000, Limbă: Limba română</description><Point><coordinates>27.517040,46.238439,0</coordinates></Point></Placemark>
<Placemark><LineString id="1707_1708"><tessellate>1</tessellate><coordinates>27.517040,46.238439,0.
27.519062,46.233258,0</coordinates></LineString><Style><LineStyle><width>3</width></LineStyle></Style></Placemark>
<Placemark><name>Fântâna Ungurului</name><description>Nume: Fântâna Ungurului, Tip: ungur, Nivel: 3, Județ: Vaslui, Formă: Altele, ID: 11100 <br /><b>Variante</b><br />Nume: Fântâna Ungurului, Hartă: Moldova (1892-1898), Limbă: Limba română</description><Point><coordinates>27.313447,46.808521,0</coordinates></Point></Placemark>
<Placemark><name>Corul Unguri</name><description>Nume: Corul Unguri, Tip: unguri, Nivel: 2, Județ: Vaslui, Formă: Localitate, ID: 8848 <br /><b>Variante</b><br />Nume: Corul Unguri, Hartă: PDT, Limbă: Limba română</description><Point><coordinates>28.052266,46.688325,0</coordinates></Point></Placemark>
<Placemark><name>Cotul Ungurului</name><description>Nume: Cotul Ungurului, Tip: ungur, Nivel: 3, Județ: Vrancea, Formă: Apă-deal-câmpie, ID: 1729 <br /><b>Variante</b><br />Nume: Cotul Ungurului, Hartă: Geomil 25000, Limbă: Limba română<br />Nume: Cotul Ungurului, Hartă: PDT, Limbă: Limba română</description><Point><coordinates>27.228491,46.090851,0</coordinates></Point></Placemark>
<Placemark><name>Valea Ungurului</name><description>Nume: Valea Ungurului, Tip: ungur, Nivel: 3, Județ: Vrancea, Formă: Vale, ID: 9200 <br /><b>Variante</b><br />Nume: Valea Ungurului, Hartă: PDT, Limbă: Limba română<br />Nume: Ungurul, Hartă: Geomil 25000, Limbă: Limba română</description><Point><coordinates>26.773055,46.032195,0</coordinates></Point></Placemark>
<Placemark><name>Dealul Ungurașului</name><description>Nume: Dealul Ungurașului, Tip: unguraș, Nivel: 3, Județ: Vrancea, Formă: Deal, ID: 9211 <br /><b>Variante</b><br />Nume: Dealul Ungurașului, Hartă: Geomil 25000, Limbă: Limba română</description><Point><coordinates>26.656840,46.038176,0</coordinates></Point></Placemark>
<Placemark><name>Plaiul Ungurașului</name><description>Nume: Plaiul Ungurașului, Tip: unguraș, Nivel: 3, Județ: Vrancea, Formă: Altele, ID: 694, ID Părinte: 9211 <br /><b>Variante</b><br />Nume: Plaiul Ungurașului, Hartă: Geomil 25000, Limbă: Limba română</description><Point><coordinates>26.612166,46.034729,0</coordinates></Point></Placemark>
<Placemark><LineString id="694_9211"><tessellate>1</tessellate><coordinates>26.612166,46.034729,0.
26.656840,46.038176,0</coordinates></LineString><Style><LineStyle><width>3</width></LineStyle></Style></Placemark>
<Placemark><name>Unguri ot Domnesty</name><description>Nume: Unguri ot Domnesty, Tip: unguri, Nivel: 2, Județ: Vrancea, Formă: Localitate, ID: 11965 <br /><b>Variante</b><br />Nume: Unguri ot Domnesty, Hartă: Moldova (1788-1790), Limbă: Limba română</description><Point><coordinates>27.212051,46.039484,0</coordinates></Point></Placemark>
<Placemark><name>Pârâul Unguroaica</name><description>Nume: Pârâul Unguroaica, Tip: unguroaică, Nivel: 3, Județ: Vrancea, Formă: Vale, ID: 9201 <br /><b>Variante</b><br />Nume: Pârâul Unguroaica, Hartă: PDT, Limbă: Limba română</description><Point><coordinates>26.904189,46.050355,0</coordinates></Point></Placemark>
<Placemark><name>Pârâul Unguroaicei</name><description>Nume: Pârâul Unguroaicei, Tip: unguroaică, Nivel: 3, Județ: Vrancea, Formă: Vale, ID: 9536 <br /><b>Variante</b><br />Nume: Pârâul Unguroaicei, Hartă: Moldova (1892-1898), Limbă: Limba română</description><Point><coordinates>26.679476,46.052339,0</coordinates></Point></Placemark></Document></kml>