<?xml version="1.0" encoding="UTF-8"?><kml xmlns="http://www.opengis.net/kml/2.2"><Document><Placemark><name>Țigăneasca</name><description>Nume: Țigăneasca, Tip: țigănească, Nivel: 3, Județ: Bihor, Formă: Altele, ID: 4140 <br /><b>Variante</b><br />Nume: Țigăneasca, Hartă: PDT, Limbă: Limba română</description><Point><coordinates>22.157243,46.883449,0</coordinates></Point></Placemark>
<Placemark><name>Vârful Țigăneasca</name><description>Nume: Vârful Țigăneasca, Tip: țigănească, Nivel: 3, Județ: Bistrita Nasaud, Formă: Înălțime, ID: 5486 <br /><b>Variante</b><br />Nume: Vârful Țigăneasca, Hartă: Geomil 25000, Limbă: Limba română<br />Nume: Vârful Țigăneasca, Hartă: PDT, Limbă: Limba română</description><Point><coordinates>24.347317,47.020022,0</coordinates></Point></Placemark>
<Placemark><name>Țigăneasca</name><description>Nume: Țigăneasca, Tip: țigănească, Nivel: 3, Județ: Botosani, Formă: Altele, ID: 7776 <br /><b>Variante</b><br />Nume: Țigăneasca, Hartă: Geomil 25000, Limbă: Limba română<br />Nume: Țigăneasca, Hartă: PDT, Limbă: Limba română</description><Point><coordinates>26.544589,47.629806,0</coordinates></Point></Placemark>
<Placemark><name>Aria Țigănească</name><description>Nume: Aria Țigănească, Tip: țigănească, Nivel: 3, Județ: Buzau, Formă: Altele, ID: 8451 <br /><b>Variante</b><br />Nume: Aria Țigănească, Hartă: PDT, Limbă: Limba română</description><Point><coordinates>26.774357,45.289297,0</coordinates></Point></Placemark>
<Placemark><name>Ciganska Reka</name><description>Nume: Ciganska Reka, Tip: țigănească, Nivel: 3, Județ: Caras Severin, Formă: Vale, ID: 15877 <br /><b>Variante</b><br />Nume: Ciganska Reka, Hartă: Imperiul Habsburgic (1887), Limbă: Limba română</description><Point><coordinates>21.497751,44.810250,0</coordinates></Point></Placemark>
<Placemark><name>Țigăneasca</name><description>Nume: Țigăneasca, Tip: țigănească, Nivel: 3, Județ: Cluj, Formă: Altele, ID: 13735 <br /><b>Variante</b><br />Nume: Țigăneasca, Hartă: Imperiul Habsburgic (1887), Limbă: Limba română</description><Point><coordinates>24.189561,46.892596,0</coordinates></Point></Placemark>
<Placemark><name>Lacul Țigăneasca</name><description>Nume: Lacul Țigăneasca, Tip: țigănească, Nivel: 3, Județ: Giurgiu, Formă: Lac, ID: 10095 <br /><b>Variante</b><br />Nume: Lacul Țigăneasca, Hartă: PDT, Limbă: Limba română</description><Point><coordinates>25.590518,44.467255,0</coordinates></Point></Placemark>
<Placemark><name>Groapa Țigănească</name><description>Nume: Groapa Țigănească, Tip: țigănească, Nivel: 3, Județ: Mures, Formă: Altele, ID: 7342 <br /><b>Variante</b><br />Nume: Groapa Țigănească, Hartă: Geomil 25000, Limbă: Limba română</description><Point><coordinates>24.156767,46.399504,0</coordinates></Point></Placemark>
<Placemark><name>Pădurea Țigăneasca</name><description>Nume: Pădurea Țigăneasca, Tip: țigănească, Nivel: 3, Județ: Olt, Formă: Pădure, ID: 4682 <br /><b>Variante</b><br />Nume: Pădurea Țigăneasca, Hartă: PDT, Limbă: Limba română</description><Point><coordinates>24.519941,44.448467,0</coordinates></Point></Placemark>
<Placemark><name>Țigănoasca</name><description>Nume: Țigănoasca, Tip: țigănească, Nivel: 3, Județ: Suceava, Formă: Altele, ID: 13330 <br /><b>Variante</b><br />Nume: Țigănoasca, Hartă: Imperiul Habsburgic (1887), Limbă: Limba română</description><Point><coordinates>25.934600,47.746539,0</coordinates></Point></Placemark></Document></kml>