<?xml version="1.0" encoding="UTF-8"?><kml xmlns="http://www.opengis.net/kml/2.2"><Document><Placemark><name>Cracul Repede</name><description>Nume: Cracul Repede, Tip: repede, Nivel: 3, Județ: Arges, Formă: Înălțime, ID: 10193 <br /><b>Variante</b><br />Nume: Cracul Repede, Hartă: Geomil 25000, Limbă: Limba română</description><Point><coordinates>24.474985,45.451740,0</coordinates></Point></Placemark>
<Placemark><name>Piscul Repede</name><description>Nume: Piscul Repede, Tip: repede, Nivel: 3, Județ: Arges, Formă: Înălțime, ID: 13636 <br /><b>Variante</b><br />Nume: Piscul Repede, Hartă: Geomil 25000, Limbă: Limba română</description><Point><coordinates>24.803411,45.548591,0</coordinates></Point></Placemark>
<Placemark><name>Pârâul Repede</name><description>Nume: Pârâul Repede, Tip: repede, Nivel: 3, Județ: Bacau, Formă: Vale, ID: 12937 <br /><b>Variante</b><br />Nume: Pârâul Repede, Hartă: Geomil 25000, Limbă: Limba română</description><Point><coordinates>26.145403,46.591824,0</coordinates></Point></Placemark>
<Placemark><name>Pârâul Repedea</name><description>Nume: Pârâul Repedea, Tip: repedea, Nivel: 2, Județ: Bacau, Formă: Vale, ID: 13578 <br /><b>Variante</b><br />Nume: Pârâul Repedea, Hartă: Moldova (1892-1898), Limbă: Limba română</description><Point><coordinates>27.263143,46.459421,0</coordinates></Point></Placemark>
<Placemark><name>Valea Repede</name><description>Nume: Valea Repede, Tip: repede, Nivel: 3, Județ: Bistrita Nasaud, Formă: Vale, ID: 4490 <br /><b>Variante</b><br />Nume: Valea Repede, Hartă: Geomil 25000, Limbă: Limba română</description><Point><coordinates>24.457571,47.568569,0</coordinates></Point></Placemark>
<Placemark><name>Repedea</name><description>Nume: Repedea, Tip: repedea, Nivel: 2, Județ: Bistrita Nasaud, Formă: Vale, ID: 9889 <br /><b>Variante</b><br />Nume: Repedea, Hartă: Geomil 25000, Limbă: Limba română<br />Nume: Valea Repedele, Hartă: PDT, Limbă: Limba română</description><Point><coordinates>24.870057,47.160803,0</coordinates></Point></Placemark>
<Placemark><name>Grindul Repejoarei</name><description>Nume: Grindul Repejoarei, Tip: repejoara, Nivel: 3, Județ: Braila, Formă: Înălțime, ID: 6713 <br /><b>Variante</b><br />Nume: Grindul Repejoarei, Hartă: PDT, Limbă: Limba română</description><Point><coordinates>28.030440,44.996174,0</coordinates></Point></Placemark>
<Placemark><name>Valea Repede</name><description>Nume: Valea Repede, Tip: repede, Nivel: 3, Județ: Brasov, Formă: Vale, ID: 11252 <br /><b>Variante</b><br />Nume: Valea Repede, Hartă: Geomil 25000, Limbă: Limba română</description><Point><coordinates>25.138029,45.579043,0</coordinates></Point></Placemark>
<Placemark><name>Privalul Repede</name><description>Nume: Privalul Repede, Tip: repede, Nivel: 3, Județ: Calarasi, Formă: Apă-deal-câmpie, ID: 3458 <br /><b>Variante</b><br />Nume: Privalul Repede, Hartă: PDT, Limbă: Limba română</description><Point><coordinates>27.835137,44.297694,0</coordinates></Point></Placemark>
<Placemark><name>Repedele</name><description>Nume: Repedele, Tip: repedele, Nivel: 3, Județ: Calarasi, Formă: Apă-deal-câmpie, ID: 3767 <br /><b>Variante</b><br />Nume: Repedele, Hartă: PDT, Limbă: Limba română</description><Point><coordinates>26.522139,44.093785,0</coordinates></Point></Placemark>
<Placemark><name>Pârâu Ogașu Repede</name><description>Nume: Pârâu Ogașu Repede, Tip: repede, Nivel: 3, Județ: Caras Severin, Formă: Vale, ID: 5728 <br /><b>Variante</b><br />Nume: Pârâu Ogașu Repede, Hartă: Geomil 25000, Limbă: Limba română</description><Point><coordinates>22.302415,44.888439,0</coordinates></Point></Placemark>
<Placemark><name>Grindul Repedea</name><description>Nume: Grindul Repedea, Tip: repedea, Nivel: 2, Județ: Galati, Formă: Apă-deal-câmpie, ID: 10906 <br /><b>Variante</b><br />Nume: Grindul Repedea, Hartă: Geomil 25000, Limbă: Limba română</description><Point><coordinates>28.094123,45.638049,0</coordinates></Point></Placemark>
<Placemark><name>Laku Repede</name><description>Nume: Laku Repede, Tip: repede, Nivel: 3, Județ: Giurgiu, Formă: Lac, ID: 5741 <br /><b>Variante</b><br />Nume: Laku Repede, Hartă: Austriacă, Limbă: Limba română</description><Point><coordinates>25.823889,43.761340,0</coordinates></Point></Placemark>
<Placemark><name>Privalu Repedea</name><description>Nume: Privalu Repedea, Tip: repedea, Nivel: 2, Județ: Giurgiu, Formă: Apă-deal-câmpie, ID: 9995 <br /><b>Variante</b><br />Nume: Privalu Repedea, Hartă: Geomil 25000, Limbă: Limba română</description><Point><coordinates>26.077678,43.963800,0</coordinates></Point></Placemark>
<Placemark><name>Privalul Repedea</name><description>Nume: Privalul Repedea, Tip: repedea, Nivel: 2, Județ: Giurgiu, Formă: Apă-deal-câmpie, ID: 11177 <br /><b>Variante</b><br />Nume: Privalul Repedea, Hartă: ANCPI, Limbă: Limba română</description><Point><coordinates>26.079139,43.994608,0</coordinates></Point></Placemark>
<Placemark><name>Pârâul Repede</name><description>Nume: Pârâul Repede, Tip: repede, Nivel: 3, Județ: Gorj, Formă: Vale, ID: 12673 <br /><b>Variante</b><br />Nume: Pârâul Repede, Hartă: Geomil 25000, Limbă: Limba română</description><Point><coordinates>23.384598,45.233285,0</coordinates></Point></Placemark>
<Placemark><name>Repedele</name><description>Nume: Repedele, Tip: repedele, Nivel: 3, Județ: Ialomita, Formă: Altele, ID: 11623 <br /><b>Variante</b><br />Nume: Repedele, Hartă: Geomil 25000, Limbă: Limba română</description><Point><coordinates>27.930861,44.602226,0</coordinates></Point></Placemark>
<Placemark><name>Pârâul Repede</name><description>Nume: Pârâul Repede, Tip: repede, Nivel: 3, Județ: Maramures, Formă: , ID: 11156 <br /><b>Variante</b><br />Nume: Pârâul Repede, Hartă: Geomil 25000, Limbă: Limba română</description><Point><coordinates>24.694541,47.610178,0</coordinates></Point></Placemark>
<Placemark><name>Valea Repedea</name><description>Nume: Valea Repedea, Tip: repedea, Nivel: 2, Județ: Maramures, Formă: Vale, ID: 7199 <br /><b>Variante</b><br />Nume: Valea Repedea, Hartă: Geomil 25000, Limbă: Limba română</description><Point><coordinates>24.402078,47.909769,0</coordinates></Point></Placemark>
<Placemark><name>Între Repezi</name><description>Nume: Între Repezi, Tip: repezi, Nivel: 3, Județ: Maramures, Formă: Altele, ID: 4491 <br /><b>Variante</b><br />Nume: Între Repezi, Hartă: Geomil 25000, Limbă: Limba română</description><Point><coordinates>24.467124,47.597248,0</coordinates></Point></Placemark>
<Placemark><name>Valea Repedea</name><description>Nume: Valea Repedea, Tip: repedea, Nivel: 2, Județ: Mehedinti, Formă: Vale, ID: 6159 <br /><b>Variante</b><br />Nume: Valea Repedea, Hartă: Geomil 25000, Limbă: Limba română</description><Point><coordinates>23.240039,44.424002,0</coordinates></Point></Placemark>
<Placemark><name>Pârâul Repede</name><description>Nume: Pârâul Repede, Tip: repede, Nivel: 3, Județ: Mures, Formă: Vale, ID: 5422 <br /><b>Variante</b><br />Nume: Pârâul Repede, Hartă: Geomil 25000, Limbă: Limba română</description><Point><coordinates>25.181552,47.108113,0</coordinates></Point></Placemark>
<Placemark><name>Pârâul Repede</name><description>Nume: Pârâul Repede, Tip: repede, Nivel: 3, Județ: Neamt, Formă: Vale, ID: 6435 <br /><b>Variante</b><br />Nume: Pârâul Repede, Hartă: PDT, Limbă: Limba română</description><Point><coordinates>25.866258,47.171414,0</coordinates></Point></Placemark>
<Placemark><name>Privalu Repedea</name><description>Nume: Privalu Repedea, Tip: repedea, Nivel: 2, Județ: Teleorman, Formă: Apă-deal-câmpie, ID: 10688 <br /><b>Variante</b><br />Nume: Privalu Repedea, Hartă: Geomil 25000, Limbă: Limba română</description><Point><coordinates>25.544905,43.676065,0</coordinates></Point></Placemark>
<Placemark><name>Lacul Repedea</name><description>Nume: Lacul Repedea, Tip: repedea, Nivel: 2, Județ: Tulcea, Formă: Lac, ID: 12642 <br /><b>Variante</b><br />Nume: Lacul Repedea, Hartă: Geomil 25000, Limbă: Limba română</description><Point><coordinates>29.256890,45.345171,0</coordinates></Point></Placemark>
<Placemark><name>Pârâul Repede</name><description>Nume: Pârâul Repede, Tip: repede, Nivel: 3, Județ: Valcea, Formă: Vale, ID: 10203 <br /><b>Variante</b><br />Nume: Pârâul Repede, Hartă: Geomil 25000, Limbă: Limba română</description><Point><coordinates>24.480034,45.273905,0</coordinates></Point></Placemark>
<Placemark><name>Pârâul Repedea</name><description>Nume: Pârâul Repedea, Tip: repedea, Nivel: 2, Județ: Valcea, Formă: Vale, ID: 5836 <br /><b>Variante</b><br />Nume: Pârâul Repedea, Hartă: Geomil 25000, Limbă: Limba română<br />Nume: Valea Repede, Hartă: Austriacă, Limbă: Limba română</description><Point><coordinates>23.891002,45.344134,0</coordinates></Point></Placemark>
<Placemark><name>Dealul Repezi</name><description>Nume: Dealul Repezi, Tip: repezi, Nivel: 3, Județ: Valcea, Formă: Deal, ID: 7418 <br /><b>Variante</b><br />Nume: Dealul Repezi, Hartă: Geomil 25000, Limbă: Limba română</description><Point><coordinates>23.906378,45.396360,0</coordinates></Point></Placemark>
<Placemark><name>Valea Repede</name><description>Nume: Valea Repede, Tip: repede, Nivel: 3, Județ: Vrancea, Formă: Vale, ID: 11307 <br /><b>Variante</b><br />Nume: Valea Repede, Hartă: Geomil 25000, Limbă: Limba română</description><Point><coordinates>26.438163,45.910853,0</coordinates></Point></Placemark>
<Placemark><name>Pârâul Repedea</name><description>Nume: Pârâul Repedea, Tip: repedea, Nivel: 2, Județ: Vrancea, Formă: Vale, ID: 7900 <br /><b>Variante</b><br />Nume: Pârâul Repedea, Hartă: PDT, Limbă: Limba română</description><Point><coordinates>27.095537,45.987383,0</coordinates></Point></Placemark>
<Placemark><name>Repedea</name><description>Nume: Repedea, Tip: repedea, Nivel: 2, Județ: Vrancea, Formă: Localitate, ID: 5343 <br /><b>Variante</b><br />Nume: Repedea, Hartă: PDT, Limbă: Limba română<br />Nume: Repedea, Hartă: Geomil 25000, Limbă: Limba română</description><Point><coordinates>27.035893,45.919629,0</coordinates></Point></Placemark>
<Placemark><name>Pârâul Repejoara</name><description>Nume: Pârâul Repejoara, Tip: repejoara, Nivel: 3, Județ: Vrancea, Formă: Vale, ID: 5278 <br /><b>Variante</b><br />Nume: Pârâul Repejoara, Hartă: Geomil 25000, Limbă: Limba română</description><Point><coordinates>26.937509,45.994205,0</coordinates></Point></Placemark></Document></kml>