<?xml version="1.0" encoding="UTF-8"?><kml xmlns="http://www.opengis.net/kml/2.2"><Document><Placemark><name>Satu nemtzesk</name><description>Nume: Satu nemtzesk, Tip: nemțesc, Nivel: 4, Județ: Braila, Formă: Localitate, ID: 3613 <br /><b>Variante</b><br />Nume: Satu nemtzesk, Hartă: Austriacă, Limbă: Limba română</description><Point><coordinates>27.939428,45.318794</coordinates></Point></Placemark>
<Placemark><name>La Crucea Nemțească</name><description>Nume: La Crucea Nemțească, Tip: nemțesc, Nivel: 4, Județ: Mehedinti, Formă: Altele, ID: 4019 <br /><b>Variante</b><br />Nume: La Crucea Nemțească, Hartă: Geomil 25000, Limbă: Limba română</description><Point><coordinates>22.697431,44.628757</coordinates></Point></Placemark>
<Placemark><name>Satul-Mare-Nemțesc</name><description>Nume: Satul-Mare-Nemțesc, Tip: nemțesc, Nivel: 4, Județ: Suceava, Formă: Localitate, ID: 7256 <br /><b>Variante</b><br />Nume: Satul-Mare-Nemțesc, Hartă: PDT, Limbă: Limba română</description><Point><coordinates>25.989240,47.834472</coordinates></Point></Placemark>
<Placemark><name>Dealul Nemțesc</name><description>Nume: Dealul Nemțesc, Tip: nemțesc, Nivel: 4, Județ: Arad, Formă: Deal, ID: 9423 <br /><b>Variante</b><br />Nume: Dealul Nemțesc, Hartă: PDT, Limbă: Limba română</description><Point><coordinates>21.697674,46.076894</coordinates></Point></Placemark>
<Placemark><name>Alt-Fratautz Deutsch</name><description>Nume: Alt-Fratautz Deutsch, Tip: nemțesc, Nivel: 4, Județ: Suceava, Formă: Localitate, ID: 10759 <br /><b>Variante</b><br />Nume: Alt-Fratautz Deutsch, Hartă: Imperiul Habsburgic (1887), Limbă: Limba germană</description><Point><coordinates>25.860703,47.917972</coordinates></Point></Placemark>
<Placemark><name>Cracu Nemțesc</name><description>Nume: Cracu Nemțesc, Tip: nemțesc, Nivel: 4, Județ: Caras Severin, Formă: Înălțime, ID: 10867 <br /><b>Variante</b><br />Nume: Cracu Nemțesc, Hartă: Geomil 25000, Limbă: Limba română</description><Point><coordinates>21.617424,44.821708</coordinates></Point></Placemark></Document></kml>