<?xml version="1.0" encoding="UTF-8"?><kml xmlns="http://www.opengis.net/kml/2.2"><Document><Placemark><name>Pădurea Povernii</name><description>Nume: Pădurea Povernii, Tip: povarnă, Nivel: 3, Județ: Alba, Formă: Pădure, ID: 6252, ID Părinte: 15180 <br /><b>Variante</b><br />Nume: Pădurea Povernii, Hartă: Geomil 25000, Limbă: Limba română</description><Point><coordinates>22.993430,46.228812,0</coordinates></Point></Placemark>
<Placemark><LineString id="6252_15180"><tessellate>1</tessellate><coordinates>22.993430,46.228812,0.
22.987546,46.232022,0</coordinates></LineString><Style><LineStyle><width>3</width></LineStyle></Style></Placemark>
<Placemark><name>Dealul Povernei</name><description>Nume: Dealul Povernei, Tip: povarnă, Nivel: 3, Județ: Arges, Formă: Deal, ID: 542, ID Părinte: 541 <br /><b>Variante</b><br />Nume: Dealul Povernei, Hartă: Geomil 25000, Limbă: Limba română</description><Point><coordinates>25.008116,45.008551,0</coordinates></Point></Placemark>
<Placemark><LineString id="542_541"><tessellate>1</tessellate><coordinates>25.008116,45.008551,0.
25.001643,45.001820,0</coordinates></LineString><Style><LineStyle><width>3</width></LineStyle></Style></Placemark>
<Placemark><name>Pârâul Povernei</name><description>Nume: Pârâul Povernei, Tip: povarnă, Nivel: 3, Județ: Arges, Formă: Vale, ID: 12583 <br /><b>Variante</b><br />Nume: Pârâul Povernei, Hartă: British Maps (1944), Limbă: Limba română</description><Point><coordinates>24.508600,45.291875,0</coordinates></Point></Placemark>
<Placemark><name>Valea Povernei</name><description>Nume: Valea Povernei, Tip: povarnă, Nivel: 3, Județ: Arges, Formă: Vale, ID: 541 <br /><b>Variante</b><br />Nume: Valea Povernei, Hartă: Geomil 25000, Limbă: Limba română</description><Point><coordinates>25.001643,45.001820,0</coordinates></Point></Placemark>
<Placemark><name>Valea Povernei</name><description>Nume: Valea Povernei, Tip: povarnă, Nivel: 3, Județ: Arges, Formă: Vale, ID: 4062 <br /><b>Variante</b><br />Nume: Valea Povernei, Hartă: PDT, Limbă: Limba română</description><Point><coordinates>24.715147,45.232001,0</coordinates></Point></Placemark>
<Placemark><name>Dealul Velniți</name><description>Nume: Dealul Velniți, Tip: velniță, Nivel: 3, Județ: Bacau, Formă: Deal, ID: 14323 <br /><b>Variante</b><br />Nume: Dealul Velniți, Hartă: PDT, Limbă: Limba română</description><Point><coordinates>26.748198,46.615916,0</coordinates></Point></Placemark>
<Placemark><name>Pârâul Velnița</name><description>Nume: Pârâul Velnița, Tip: velniță, Nivel: 3, Județ: Bacau, Formă: Vale, ID: 9506 <br /><b>Variante</b><br />Nume: Pârâul Velnița, Hartă: PDT, Limbă: Limba română<br />Nume: Velnița, Hartă: Geomil 25000, Limbă: Limba română</description><Point><coordinates>27.004420,46.525339,0</coordinates></Point></Placemark>
<Placemark><name>Coasta Velniței</name><description>Nume: Coasta Velniței, Tip: velniță, Nivel: 3, Județ: Botosani, Formă: Înălțime, ID: 2336 <br /><b>Variante</b><br />Nume: Coasta Velniței, Hartă: Geomil 25000, Limbă: Limba română</description><Point><coordinates>26.691206,47.991561,0</coordinates></Point></Placemark>
<Placemark><name>Dealul la Velnița</name><description>Nume: Dealul la Velnița, Tip: velniță, Nivel: 3, Județ: Botosani, Formă: Deal, ID: 4889 <br /><b>Variante</b><br />Nume: Dealul la Velnița, Hartă: PDT, Limbă: Limba română<br />Nume: La Velnița, Hartă: Geomil 25000, Limbă: Limba română</description><Point><coordinates>26.399005,48.117974,0</coordinates></Point></Placemark>
<Placemark><name>Dealul Velniței</name><description>Nume: Dealul Velniței, Tip: velniță, Nivel: 3, Județ: Botosani, Formă: Deal, ID: 2018 <br /><b>Variante</b><br />Nume: Dealul Velniței, Hartă: Geomil 25000, Limbă: Limba română</description><Point><coordinates>26.324892,48.097138,0</coordinates></Point></Placemark>
<Placemark><name>Dealul Velniței</name><description>Nume: Dealul Velniței, Tip: velniță, Nivel: 3, Județ: Botosani, Formă: Deal, ID: 14071 <br /><b>Variante</b><br />Nume: Dealul Velniței, Hartă: Geomil 25000, Limbă: Limba română</description><Point><coordinates>26.885891,47.674172,0</coordinates></Point></Placemark>
<Placemark><name>Iazul Velnița</name><description>Nume: Iazul Velnița, Tip: velniță, Nivel: 3, Județ: Botosani, Formă: Apă-deal-câmpie, ID: 6666, ID Părinte: 2385 <br /><b>Variante</b><br />Nume: Iazul Velnița, Hartă: PDT, Limbă: Limba română</description><Point><coordinates>27.084386,47.713191,0</coordinates></Point></Placemark>
<Placemark><LineString id="6666_2385"><tessellate>1</tessellate><coordinates>27.084386,47.713191,0.
27.075399,47.716198,0</coordinates></LineString><Style><LineStyle><width>3</width></LineStyle></Style></Placemark>
<Placemark><name>Iazul Velniței</name><description>Nume: Iazul Velniței, Tip: velniță, Nivel: 3, Județ: Botosani, Formă: Apă-deal-câmpie, ID: 14095 <br /><b>Variante</b><br />Nume: Iazul Velniței, Hartă: Geomil 25000, Limbă: Limba română</description><Point><coordinates>26.805539,48.216647,0</coordinates></Point></Placemark>
<Placemark><name>La Velniță</name><description>Nume: La Velniță, Tip: velniță, Nivel: 3, Județ: Botosani, Formă: Altele, ID: 2385 <br /><b>Variante</b><br />Nume: La Velniță, Hartă: Geomil 25000, Limbă: Limba română</description><Point><coordinates>27.075399,47.716198,0</coordinates></Point></Placemark>
<Placemark><name>Lacul Velniței</name><description>Nume: Lacul Velniței, Tip: velniță, Nivel: 3, Județ: Botosani, Formă: Lac, ID: 4903 <br /><b>Variante</b><br />Nume: Lacul Velniței, Hartă: PDT, Limbă: Limba română</description><Point><coordinates>26.206957,47.983830,0</coordinates></Point></Placemark>
<Placemark><name>Valea Velnița</name><description>Nume: Valea Velnița, Tip: velniță, Nivel: 3, Județ: Botosani, Formă: Vale, ID: 6667, ID Părinte: 2385 <br /><b>Variante</b><br />Nume: Valea Velnița, Hartă: PDT, Limbă: Limba română</description><Point><coordinates>27.084101,47.707955,0</coordinates></Point></Placemark>
<Placemark><LineString id="6667_2385"><tessellate>1</tessellate><coordinates>27.084101,47.707955,0.
27.075399,47.716198,0</coordinates></LineString><Style><LineStyle><width>3</width></LineStyle></Style></Placemark>
<Placemark><name>Valea Velniței</name><description>Nume: Valea Velniței, Tip: velniță, Nivel: 3, Județ: Botosani, Formă: Vale, ID: 1750 <br /><b>Variante</b><br />Nume: Valea Velniței, Hartă: Geomil 25000, Limbă: Limba română</description><Point><coordinates>26.672084,47.524610,0</coordinates></Point></Placemark>
<Placemark><name>Valea Velniței</name><description>Nume: Valea Velniței, Tip: velniță, Nivel: 3, Județ: Botosani, Formă: Vale, ID: 1753 <br /><b>Variante</b><br />Nume: Valea Velniței, Hartă: Geomil 25000, Limbă: Limba română</description><Point><coordinates>26.743032,47.560047,0</coordinates></Point></Placemark>
<Placemark><name>Valea Velniței</name><description>Nume: Valea Velniței, Tip: velniță, Nivel: 3, Județ: Botosani, Formă: Vale, ID: 1802 <br /><b>Variante</b><br />Nume: Valea Velniței, Hartă: Geomil 25000, Limbă: Limba română</description><Point><coordinates>26.407638,47.863463,0</coordinates></Point></Placemark>
<Placemark><name>Valea Velniței</name><description>Nume: Valea Velniței, Tip: velniță, Nivel: 3, Județ: Botosani, Formă: Vale, ID: 2327 <br /><b>Variante</b><br />Nume: Valea Velniței, Hartă: Geomil 25000, Limbă: Limba română</description><Point><coordinates>26.631534,48.163513,0</coordinates></Point></Placemark>
<Placemark><name>Valea Velniței</name><description>Nume: Valea Velniței, Tip: velniță, Nivel: 3, Județ: Botosani, Formă: Vale, ID: 4904, ID Părinte: 4903 <br /><b>Variante</b><br />Nume: Valea Velniței, Hartă: PDT, Limbă: Limba română</description><Point><coordinates>26.206905,47.985617,0</coordinates></Point></Placemark>
<Placemark><LineString id="4904_4903"><tessellate>1</tessellate><coordinates>26.206905,47.985617,0.
26.206957,47.983830,0</coordinates></LineString><Style><LineStyle><width>3</width></LineStyle></Style></Placemark>
<Placemark><name>Velnița Corni</name><description>Nume: Velnița Corni, Tip: velniță, Nivel: 3, Județ: Botosani, Formă: Altele, ID: 1836 <br /><b>Variante</b><br />Nume: Velnița Corni, Hartă: Geomil 25000, Limbă: Limba română</description><Point><coordinates>26.554443,47.648723,0</coordinates></Point></Placemark>
<Placemark><name>Pârâul Povernii</name><description>Nume: Pârâul Povernii, Tip: povarnă, Nivel: 3, Județ: Hunedoara, Formă: Vale, ID: 15180 <br /><b>Variante</b><br />Nume: Pârâul Povernii, Hartă: Munții noștri, Limbă: Limba română</description><Point><coordinates>22.987546,46.232022,0</coordinates></Point></Placemark>
<Placemark><name>Dealul Velnișoarei</name><description>Nume: Dealul Velnișoarei, Tip: velnișoară, Nivel: 4, Județ: Iasi, Formă: Deal, ID: 2217 <br /><b>Variante</b><br />Nume: Dealul Velnișoarei, Hartă: Geomil 25000, Limbă: Limba română</description><Point><coordinates>27.803719,46.991313,0</coordinates></Point></Placemark>
<Placemark><name>Dealul Velniței</name><description>Nume: Dealul Velniței, Tip: velniță, Nivel: 3, Județ: Iasi, Formă: Deal, ID: 14901 <br /><b>Variante</b><br />Nume: Dealul Velniței, Hartă: PDT, Limbă: Limba română</description><Point><coordinates>26.793096,47.283714,0</coordinates></Point></Placemark>
<Placemark><name>Șesul Velniței</name><description>Nume: Șesul Velniței, Tip: velniță, Nivel: 3, Județ: Iasi, Formă: Câmp, ID: 2212 <br /><b>Variante</b><br />Nume: Șesul Velniței, Hartă: Geomil 25000, Limbă: Limba română</description><Point><coordinates>27.739562,46.928277,0</coordinates></Point></Placemark>
<Placemark><name>Tarlaua Velniței</name><description>Nume: Tarlaua Velniței, Tip: velniță, Nivel: 3, Județ: Iasi, Formă: Altele, ID: 2226 <br /><b>Variante</b><br />Nume: Tarlaua Velniței, Hartă: Geomil 25000, Limbă: Limba română</description><Point><coordinates>27.348944,46.933472,0</coordinates></Point></Placemark>
<Placemark><name>Valea Velniței</name><description>Nume: Valea Velniței, Tip: velniță, Nivel: 3, Județ: Iasi, Formă: Vale, ID: 11630 <br /><b>Variante</b><br />Nume: Valea Velniței, Hartă: Geomil 25000, Limbă: Limba română</description><Point><coordinates>27.023087,47.159368,0</coordinates></Point></Placemark>
<Placemark><name>Velnița</name><description>Nume: Velnița, Tip: velniță, Nivel: 3, Județ: Iasi, Formă: Altele, ID: 1704 <br /><b>Variante</b><br />Nume: Velnița, Hartă: Geomil 25000, Limbă: Limba română</description><Point><coordinates>28.085501,46.953692,0</coordinates></Point></Placemark>
<Placemark><name>Velnița</name><description>Nume: Velnița, Tip: velniță, Nivel: 3, Județ: Iasi, Formă: Altele, ID: 6633 <br /><b>Variante</b><br />Nume: Velnița, Hartă: Geomil 25000, Limbă: Limba română<br />Nume: Velnița Zugaria, Hartă: Moldova (1892-1898), Limbă: Limba română</description><Point><coordinates>26.884281,47.404351,0</coordinates></Point></Placemark>
<Placemark><name>Velnița Bălteni</name><description>Nume: Velnița Bălteni, Tip: velniță, Nivel: 3, Județ: Iasi, Formă: Altele, ID: 6646 <br /><b>Variante</b><br />Nume: Velnița Bălteni, Hartă: PDT, Limbă: Limba română</description><Point><coordinates>27.498608,47.408066,0</coordinates></Point></Placemark>
<Placemark><name>Velnița Deleni</name><description>Nume: Velnița Deleni, Tip: velniță, Nivel: 3, Județ: Iasi, Formă: Altele, ID: 9736 <br /><b>Variante</b><br />Nume: Velnița Deleni, Hartă: Moldova (1892-1898), Limbă: Limba română</description><Point><coordinates>26.893769,47.469386,0</coordinates></Point></Placemark>
<Placemark><name>Dealul Velniței</name><description>Nume: Dealul Velniței, Tip: velniță, Nivel: 3, Județ: Neamt, Formă: Deal, ID: 2038 <br /><b>Variante</b><br />Nume: Dealul Velniței, Hartă: Geomil 25000, Limbă: Limba română</description><Point><coordinates>26.606249,46.829737,0</coordinates></Point></Placemark>
<Placemark><name>Grădina Velniței</name><description>Nume: Grădina Velniței, Tip: velniță, Nivel: 3, Județ: Neamt, Formă: Altele, ID: 7399 <br /><b>Variante</b><br />Nume: Grădina Velniței, Hartă: Geomil 25000, Limbă: Limba română</description><Point><coordinates>26.202948,47.266010,0</coordinates></Point></Placemark>
<Placemark><name>Poiana Velnițelor</name><description>Nume: Poiana Velnițelor, Tip: velniță, Nivel: 3, Județ: Neamt, Formă: Poiană, ID: 9145 <br /><b>Variante</b><br />Nume: Poiana Velnițelor, Hartă: Geomil 25000, Limbă: Limba română</description><Point><coordinates>26.501334,47.059047,0</coordinates></Point></Placemark>
<Placemark><name>Șesul Velniței</name><description>Nume: Șesul Velniței, Tip: velniță, Nivel: 3, Județ: Neamt, Formă: Câmp, ID: 11391, ID Părinte: 2038 <br /><b>Variante</b><br />Nume: Șesul Velniței, Hartă: Geomil 25000, Limbă: Limba română</description><Point><coordinates>26.604700,46.814962,0</coordinates></Point></Placemark>
<Placemark><LineString id="11391_2038"><tessellate>1</tessellate><coordinates>26.604700,46.814962,0.
26.606249,46.829737,0</coordinates></LineString><Style><LineStyle><width>3</width></LineStyle></Style></Placemark>
<Placemark><name>Valea Velniței</name><description>Nume: Valea Velniței, Tip: velniță, Nivel: 3, Județ: Neamt, Formă: Vale, ID: 1623 <br /><b>Variante</b><br />Nume: Valea Velniței, Hartă: Geomil 25000, Limbă: Limba română</description><Point><coordinates>27.002447,46.778372,0</coordinates></Point></Placemark>
<Placemark><name>Dealul Velniței</name><description>Nume: Dealul Velniței, Tip: velniță, Nivel: 3, Județ: Suceava, Formă: Deal, ID: 1790 <br /><b>Variante</b><br />Nume: Dealul Velniței, Hartă: Geomil 25000, Limbă: Limba română<br />Nume: Dealul Velniței, Hartă: PDT, Limbă: Limba română</description><Point><coordinates>26.281749,47.693789,0</coordinates></Point></Placemark>
<Placemark><name>Pârâul la Velniță</name><description>Nume: Pârâul la Velniță, Tip: velniță, Nivel: 3, Județ: Suceava, Formă: Vale, ID: 10757 <br /><b>Variante</b><br />Nume: Pârâul la Velniță, Hartă: Moldova (1892-1898), Limbă: Limba română</description><Point><coordinates>26.140947,47.915647,0</coordinates></Point></Placemark>
<Placemark><name>Pârâul la Velnițăa</name><description>Nume: Pârâul la Velnițăa, Tip: velniță, Nivel: 3, Județ: Suceava, Formă: Vale, ID: 7265 <br /><b>Variante</b><br />Nume: Pârâul la Velnițăa, Hartă: PDT, Limbă: Limba română</description><Point><coordinates>26.222644,47.864708,0</coordinates></Point></Placemark>
<Placemark><name>Părâul Velnița</name><description>Nume: Părâul Velnița, Tip: velniță, Nivel: 3, Județ: Suceava, Formă: Vale, ID: 10748 <br /><b>Variante</b><br />Nume: Părâul Velnița, Hartă: Imperiul Habsburgic (1887), Limbă: Limba română</description><Point><coordinates>25.997368,47.465649,0</coordinates></Point></Placemark>
<Placemark><name>Pârâul Velniței</name><description>Nume: Pârâul Velniței, Tip: velniță, Nivel: 3, Județ: Suceava, Formă: Vale, ID: 9058 <br /><b>Variante</b><br />Nume: Pârâul Velniței, Hartă: PDT, Limbă: Limba română</description><Point><coordinates>26.164765,47.515314,0</coordinates></Point></Placemark>
<Placemark><name>Valea Velniței</name><description>Nume: Valea Velniței, Tip: velniță, Nivel: 3, Județ: Suceava, Formă: Vale, ID: 2272 <br /><b>Variante</b><br />Nume: Valea Velniței, Hartă: Geomil 25000, Limbă: Limba română</description><Point><coordinates>26.469973,47.510594,0</coordinates></Point></Placemark>
<Placemark><name>Velniță</name><description>Nume: Velniță, Tip: velniță, Nivel: 3, Județ: Suceava, Formă: Altele, ID: 2295 <br /><b>Variante</b><br />Nume: Velniță, Hartă: Geomil 25000, Limbă: Limba română</description><Point><coordinates>26.116525,47.843466,0</coordinates></Point></Placemark>
<Placemark><name>Velnița</name><description>Nume: Velnița, Tip: velniță, Nivel: 3, Județ: Suceava, Formă: Vale, ID: 12921 <br /><b>Variante</b><br />Nume: Velnița, Hartă: Geomil 25000, Limbă: Limba română</description><Point><coordinates>26.595172,47.402015,0</coordinates></Point></Placemark>
<Placemark><name>Velnița Dumbrăvenilor</name><description>Nume: Velnița Dumbrăvenilor, Tip: velniță, Nivel: 3, Județ: Suceava, Formă: Altele, ID: 4921 <br /><b>Variante</b><br />Nume: Velnița Dumbrăvenilor, Hartă: PDT, Limbă: Limba română</description><Point><coordinates>26.429444,47.670190,0</coordinates></Point></Placemark>
<Placemark><name>Valea Povernei</name><description>Nume: Valea Povernei, Tip: povarnă, Nivel: 3, Județ: Teleorman, Formă: Vale, ID: 14228 <br /><b>Variante</b><br />Nume: Valea Povernei, Hartă: PDT, Limbă: Limba română</description><Point><coordinates>25.680280,44.127900,0</coordinates></Point></Placemark>
<Placemark><name>La Velniță</name><description>Nume: La Velniță, Tip: velniță, Nivel: 3, Județ: Vaslui, Formă: Altele, ID: 2451 <br /><b>Variante</b><br />Nume: La Velniță, Hartă: Geomil 25000, Limbă: Limba română</description><Point><coordinates>27.763767,46.674392,0</coordinates></Point></Placemark>
<Placemark><name>La Velnița</name><description>Nume: La Velnița, Tip: velniță, Nivel: 3, Județ: Vaslui, Formă: Altele, ID: 7385 <br /><b>Variante</b><br />Nume: La Velnița, Hartă: Geomil 25000, Limbă: Limba română</description><Point><coordinates>27.843830,46.266624,0</coordinates></Point></Placemark>
<Placemark><name>Valea Velnița</name><description>Nume: Valea Velnița, Tip: velniță, Nivel: 3, Județ: Vaslui, Formă: Vale, ID: 9632 <br /><b>Variante</b><br />Nume: Valea Velnița, Hartă: Moldova (1892-1898), Limbă: Limba română</description><Point><coordinates>27.329798,46.717079,0</coordinates></Point></Placemark>
<Placemark><name>Valea Velniței</name><description>Nume: Valea Velniței, Tip: velniță, Nivel: 3, Județ: Vaslui, Formă: Vale, ID: 11293 <br /><b>Variante</b><br />Nume: Valea Velniței, Hartă: Geomil 25000, Limbă: Limba română</description><Point><coordinates>27.876210,46.537054,0</coordinates></Point></Placemark>
<Placemark><name>Velnița</name><description>Nume: Velnița, Tip: velniță, Nivel: 3, Județ: Vaslui, Formă: Altele, ID: 2457 <br /><b>Variante</b><br />Nume: Velnița, Hartă: Geomil 25000, Limbă: Limba română</description><Point><coordinates>27.720912,46.798269,0</coordinates></Point></Placemark>
<Placemark><name>Velnița</name><description>Nume: Velnița, Tip: velniță, Nivel: 3, Județ: Vaslui, Formă: Altele, ID: 13989 <br /><b>Variante</b><br />Nume: Velnița, Hartă: Moldova (1892-1898), Limbă: Limba română</description><Point><coordinates>27.451196,46.843600,0</coordinates></Point></Placemark>
<Placemark><name>Velnița</name><description>Nume: Velnița, Tip: velniță, Nivel: 3, Județ: Vaslui, Formă: Localitate, ID: 14922 <br /><b>Variante</b><br />Nume: Velnița, Hartă: ANCPI, Limbă: Limba română</description><Point><coordinates>27.848607,46.861030,0</coordinates></Point></Placemark></Document></kml>