<?xml version="1.0" encoding="UTF-8"?><kml xmlns="http://www.opengis.net/kml/2.2"><Document><Placemark><name>Câmpu Vacilor</name><description>Nume: Câmpu Vacilor, Tip: vaci, Nivel: 3, Județ: Alba, Formă: Câmp, ID: 10244 <br /><b>Variante</b><br />Nume: Câmpu Vacilor, Hartă: Geomil 25000, Limbă: Limba română</description><Point><coordinates>23.062524,46.469120,0</coordinates></Point></Placemark>
<Placemark><name>Valea Vacii</name><description>Nume: Valea Vacii, Tip: vaci, Nivel: 3, Județ: Alba, Formă: Vale, ID: 5571 <br /><b>Variante</b><br />Nume: Valea Vacii, Hartă: Geomil 25000, Limbă: Limba română</description><Point><coordinates>23.394396,46.051640,0</coordinates></Point></Placemark>
<Placemark><name>Fântâna Vacii</name><description>Nume: Fântâna Vacii, Tip: vaci, Nivel: 3, Județ: Arad, Formă: Altele, ID: 8026 <br /><b>Variante</b><br />Nume: Fântâna Vacii, Hartă: PDT, Limbă: Limba română<br />Nume: Fântâna Vacii, Hartă: Geomil 25000, Limbă: Limba română</description><Point><coordinates>21.567716,46.543155,0</coordinates></Point></Placemark>
<Placemark><name>Fântâna Vacilor</name><description>Nume: Fântâna Vacilor, Tip: vaci, Nivel: 3, Județ: Arad, Formă: Altele, ID: 1096 <br /><b>Variante</b><br />Nume: Fântâna Vacilor, Hartă: Geomil 25000, Limbă: Limba română</description><Point><coordinates>21.405344,46.234453,0</coordinates></Point></Placemark>
<Placemark><name>Fântâna Vacilor</name><description>Nume: Fântâna Vacilor, Tip: vaci, Nivel: 3, Județ: Arad, Formă: Altele, ID: 4102 <br /><b>Variante</b><br />Nume: Fântâna Vacilor, Hartă: PDT, Limbă: Limba română</description><Point><coordinates>21.932761,46.563883,0</coordinates></Point></Placemark>
<Placemark><name>Fântâna Vacilor</name><description>Nume: Fântâna Vacilor, Tip: vaci, Nivel: 3, Județ: Arad, Formă: Altele, ID: 6289 <br /><b>Variante</b><br />Nume: Fântâna Vacilor, Hartă: PDT, Limbă: Limba română</description><Point><coordinates>21.847289,46.410647,0</coordinates></Point></Placemark>
<Placemark><name>Fântâna Vacilor</name><description>Nume: Fântâna Vacilor, Tip: vaci, Nivel: 3, Județ: Arad, Formă: Altele, ID: 6290 <br /><b>Variante</b><br />Nume: Fântâna Vacilor, Hartă: PDT, Limbă: Limba română</description><Point><coordinates>21.718296,46.393909,0</coordinates></Point></Placemark>
<Placemark><name>Fântâna Vacilor</name><description>Nume: Fântâna Vacilor, Tip: vaci, Nivel: 3, Județ: Arad, Formă: Altele, ID: 8028 <br /><b>Variante</b><br />Nume: Fântâna Vacilor, Hartă: PDT, Limbă: Limba română</description><Point><coordinates>21.583873,46.530628,0</coordinates></Point></Placemark>
<Placemark><name>Fântâna Vacilor</name><description>Nume: Fântâna Vacilor, Tip: vaci, Nivel: 3, Județ: Arad, Formă: Altele, ID: 12538 <br /><b>Variante</b><br />Nume: Fântâna Vacilor, Hartă: Geomil 25000, Limbă: Limba română</description><Point><coordinates>22.039131,46.420822,0</coordinates></Point></Placemark>
<Placemark><name>Podu Vacilor</name><description>Nume: Podu Vacilor, Tip: vaci, Nivel: 3, Județ: Arad, Formă: Altele, ID: 11670 <br /><b>Variante</b><br />Nume: Podu Vacilor, Hartă: Geomil 25000, Limbă: Limba română</description><Point><coordinates>21.854177,46.653170,0</coordinates></Point></Placemark>
<Placemark><name>Valea Vacii</name><description>Nume: Valea Vacii, Tip: vaci, Nivel: 3, Județ: Arad, Formă: Vale, ID: 12327 <br /><b>Variante</b><br />Nume: Valea Vacii, Hartă: Imperiul Habsburgic (1887), Limbă: Limba română</description><Point><coordinates>22.426556,46.211142,0</coordinates></Point></Placemark>
<Placemark><name>Coada Vacii</name><description>Nume: Coada Vacii, Tip: vaci, Nivel: 3, Județ: Arges, Formă: Înălțime, ID: 9364, ID Părinte: 3072 <br /><b>Variante</b><br />Nume: Coada Vacii, Hartă: PDT, Limbă: Limba română</description><Point><coordinates>24.695348,44.910036,0</coordinates></Point></Placemark>
<Placemark><LineString id="9364_3072"><tessellate>1</tessellate><coordinates>24.695348,44.910036,0.
24.695501,44.904829,0</coordinates></LineString><Style><LineStyle><width>3</width></LineStyle></Style></Placemark>
<Placemark><name>Dealu Vacii</name><description>Nume: Dealu Vacii, Tip: vaci, Nivel: 3, Județ: Arges, Formă: Deal, ID: 3072 <br /><b>Variante</b><br />Nume: Dealu Vacii, Hartă: Geomil 25000, Limbă: Limba română</description><Point><coordinates>24.695501,44.904829,0</coordinates></Point></Placemark>
<Placemark><name>Dealul Vacilor</name><description>Nume: Dealul Vacilor, Tip: vaci, Nivel: 3, Județ: Arges, Formă: Deal, ID: 11122 <br /><b>Variante</b><br />Nume: Dealul Vacilor, Hartă: Geomil 25000, Limbă: Limba română</description><Point><coordinates>24.983540,45.110168,0</coordinates></Point></Placemark>
<Placemark><name>Dealul Văii Vacii</name><description>Nume: Dealul Văii Vacii, Tip: vaci, Nivel: 3, Județ: Arges, Formă: Deal, ID: 554 <br /><b>Variante</b><br />Nume: Dealul Văii Vacii, Hartă: Geomil 25000, Limbă: Limba română</description><Point><coordinates>25.085952,45.139200,0</coordinates></Point></Placemark>
<Placemark><name>Muchia Văii Vacii</name><description>Nume: Muchia Văii Vacii, Tip: vaci, Nivel: 3, Județ: Arges, Formă: Înălțime, ID: 4052 <br /><b>Variante</b><br />Nume: Muchia Văii Vacii, Hartă: Geomil 25000, Limbă: Limba română</description><Point><coordinates>24.744971,45.240994,0</coordinates></Point></Placemark>
<Placemark><name>Piscul Vacii</name><description>Nume: Piscul Vacii, Tip: vaci, Nivel: 3, Județ: Arges, Formă: Înălțime, ID: 11570 <br /><b>Variante</b><br />Nume: Piscul Vacii, Hartă: Geomil 25000, Limbă: Limba română</description><Point><coordinates>24.787609,45.526752,0</coordinates></Point></Placemark>
<Placemark><name>Valea Vaci</name><description>Nume: Valea Vaci, Tip: vaci, Nivel: 3, Județ: Arges, Formă: Localitate, ID: 6000, ID Părinte: 554 <br /><b>Variante</b><br />Nume: Valea Vaci, Hartă: Austriacă, Limbă: Limba română</description><Point><coordinates>25.112838,45.138215,0</coordinates></Point></Placemark>
<Placemark><LineString id="6000_554"><tessellate>1</tessellate><coordinates>25.112838,45.138215,0.
25.085952,45.139200,0</coordinates></LineString><Style><LineStyle><width>3</width></LineStyle></Style></Placemark>
<Placemark><name>Valea Vacii</name><description>Nume: Valea Vacii, Tip: vaci, Nivel: 3, Județ: Arges, Formă: Vale, ID: 625 <br /><b>Variante</b><br />Nume: Valea Vacii, Hartă: Geomil 25000, Limbă: Limba română</description><Point><coordinates>24.945859,45.546319,0</coordinates></Point></Placemark>
<Placemark><name>Valea Vacii</name><description>Nume: Valea Vacii, Tip: vaci, Nivel: 3, Județ: Arges, Formă: Vale, ID: 5063 <br /><b>Variante</b><br />Nume: Valea Vacii, Hartă: Geomil 25000, Limbă: Limba română</description><Point><coordinates>24.920338,45.255761,0</coordinates></Point></Placemark>
<Placemark><name>Valea Vacii</name><description>Nume: Valea Vacii, Tip: vaci, Nivel: 3, Județ: Arges, Formă: Vale, ID: 10161 <br /><b>Variante</b><br />Nume: Valea Vacii, Hartă: Geomil 25000, Limbă: Limba română</description><Point><coordinates>25.075590,45.014391,0</coordinates></Point></Placemark>
<Placemark><name>Dealul Vacii</name><description>Nume: Dealul Vacii, Tip: vaci, Nivel: 3, Județ: Bacau, Formă: Deal, ID: 12253 <br /><b>Variante</b><br />Nume: Dealul Vacii, Hartă: Geomil 25000, Limbă: Limba română</description><Point><coordinates>27.470263,46.411068,0</coordinates></Point></Placemark>
<Placemark><name>Pârâul Vacilor</name><description>Nume: Pârâul Vacilor, Tip: vaci, Nivel: 3, Județ: Bacau, Formă: Vale, ID: 10939 <br /><b>Variante</b><br />Nume: Pârâul Vacilor, Hartă: Geomil 25000, Limbă: Limba română</description><Point><coordinates>26.276204,46.660340,0</coordinates></Point></Placemark>
<Placemark><name>Plaiul Poiana Vacii</name><description>Nume: Plaiul Poiana Vacii, Tip: vaci, Nivel: 3, Județ: Bacau, Formă: Înălțime, ID: 13593 <br /><b>Variante</b><br />Nume: Plaiul Poiana Vacii, Hartă: PDT, Limbă: Limba română</description><Point><coordinates>27.001447,46.185327,0</coordinates></Point></Placemark>
<Placemark><name>Fântâna Vacilor</name><description>Nume: Fântâna Vacilor, Tip: vaci, Nivel: 3, Județ: Bihor, Formă: Altele, ID: 7588 <br /><b>Variante</b><br />Nume: Fântâna Vacilor, Hartă: PDT, Limbă: Limba română</description><Point><coordinates>21.825255,46.678811,0</coordinates></Point></Placemark>
<Placemark><name>Vacilor</name><description>Nume: Vacilor, Tip: vaci, Nivel: 3, Județ: Bihor, Formă: Altele, ID: 13362 <br /><b>Variante</b><br />Nume: Vacilor, Hartă: Ungară 1869, Limbă: Limba română</description><Point><coordinates>22.251440,46.532110,0</coordinates></Point></Placemark>
<Placemark><name>Valea Vacii</name><description>Nume: Valea Vacii, Tip: vaci, Nivel: 3, Județ: Bihor, Formă: Vale, ID: 1935 <br /><b>Variante</b><br />Nume: Valea Vacii, Hartă: Geomil 25000, Limbă: Limba română</description><Point><coordinates>22.652579,46.389364,0</coordinates></Point></Placemark>
<Placemark><name>Valea Vacii</name><description>Nume: Valea Vacii, Tip: vaci, Nivel: 3, Județ: Bihor, Formă: Vale, ID: 10955 <br /><b>Variante</b><br />Nume: Valea Vacii, Hartă: Geomil 25000, Limbă: Limba română</description><Point><coordinates>22.358505,46.491207,0</coordinates></Point></Placemark>
<Placemark><name>Ciazu Vacilor</name><description>Nume: Ciazu Vacilor, Tip: vaci, Nivel: 3, Județ: Botosani, Formă: Altele, ID: 14583 <br /><b>Variante</b><br />Nume: Ciazu Vacilor, Hartă: PDT, Limbă: Limba română</description><Point><coordinates>26.714076,47.565192,0</coordinates></Point></Placemark>
<Placemark><name>Valea Hârtopul Vacilor</name><description>Nume: Valea Hârtopul Vacilor, Tip: vaci, Nivel: 3, Județ: Botosani, Formă: Vale, ID: 2335 <br /><b>Variante</b><br />Nume: Valea Hârtopul Vacilor, Hartă: Geomil 25000, Limbă: Limba română</description><Point><coordinates>26.679684,48.007825,0</coordinates></Point></Placemark>
<Placemark><name>Dealul Vacilor</name><description>Nume: Dealul Vacilor, Tip: vaci, Nivel: 3, Județ: Brasov, Formă: Deal, ID: 2668 <br /><b>Variante</b><br />Nume: Dealul Vacilor, Hartă: Geomil 25000, Limbă: Limba română</description><Point><coordinates>24.774659,45.951153,0</coordinates></Point></Placemark>
<Placemark><name>Dealul Vacii Rele</name><description>Nume: Dealul Vacii Rele, Tip: vaci, Nivel: 3, Județ: Buzau, Formă: Deal, ID: 2094 <br /><b>Variante</b><br />Nume: Dealul Vacii Rele, Hartă: Geomil 25000, Limbă: Limba română</description><Point><coordinates>26.752559,45.549332,0</coordinates></Point></Placemark>
<Placemark><name>Dealul Vacilor</name><description>Nume: Dealul Vacilor, Tip: vaci, Nivel: 3, Județ: Buzau, Formă: Deal, ID: 5234 <br /><b>Variante</b><br />Nume: Dealul Vacilor, Hartă: Geomil 25000, Limbă: Limba română</description><Point><coordinates>26.695176,45.488130,0</coordinates></Point></Placemark>
<Placemark><name>Râtâtura Vacei</name><description>Nume: Râtâtura Vacei, Tip: vaci, Nivel: 3, Județ: Buzau, Formă: Altele, ID: 7503 <br /><b>Variante</b><br />Nume: Râtâtura Vacei, Hartă: PDT, Limbă: Limba română<br />Nume: Bătătura Vacii, Hartă: Geomil 25000, Limbă: Limba română</description><Point><coordinates>26.482245,45.104312,0</coordinates></Point></Placemark>
<Placemark><name>Valea Vacii</name><description>Nume: Valea Vacii, Tip: vaci, Nivel: 3, Județ: Buzau, Formă: Vale, ID: 11561 <br /><b>Variante</b><br />Nume: Valea Vacii, Hartă: Geomil 25000, Limbă: Limba română</description><Point><coordinates>26.775330,45.387297,0</coordinates></Point></Placemark>
<Placemark><name>Valea Vacii Mari</name><description>Nume: Valea Vacii Mari, Tip: vaci, Nivel: 3, Județ: Buzau, Formă: Vale, ID: 9652 <br /><b>Variante</b><br />Nume: Valea Vacii Mari, Hartă: Geomil 25000, Limbă: Limba română</description><Point><coordinates>26.215202,45.481857,0</coordinates></Point></Placemark>
<Placemark><name>Valea Vacii Mici</name><description>Nume: Valea Vacii Mici, Tip: vaci, Nivel: 3, Județ: Buzau, Formă: Vale, ID: 9653, ID Părinte: 9652 <br /><b>Variante</b><br />Nume: Valea Vacii Mici, Hartă: Geomil 25000, Limbă: Limba română</description><Point><coordinates>26.224372,45.489808,0</coordinates></Point></Placemark>
<Placemark><LineString id="9653_9652"><tessellate>1</tessellate><coordinates>26.224372,45.489808,0.
26.215202,45.481857,0</coordinates></LineString><Style><LineStyle><width>3</width></LineStyle></Style></Placemark>
<Placemark><name>Culmea Vacilor</name><description>Nume: Culmea Vacilor, Tip: vaci, Nivel: 3, Județ: Caras Severin, Formă: Înălțime, ID: 1204 <br /><b>Variante</b><br />Nume: Culmea Vacilor, Hartă: Geomil 25000, Limbă: Limba română</description><Point><coordinates>22.564014,45.526711,0</coordinates></Point></Placemark>
<Placemark><name>Dealul Vacii</name><description>Nume: Dealul Vacii, Tip: vaci, Nivel: 3, Județ: Caras Severin, Formă: Deal, ID: 14346 <br /><b>Variante</b><br />Nume: Dealul Vacii, Hartă: ANCPI, Limbă: Limba română</description><Point><coordinates>22.046953,45.452239,0</coordinates></Point></Placemark>
<Placemark><name>Părâul Vacilor</name><description>Nume: Părâul Vacilor, Tip: vaci, Nivel: 3, Județ: Caras Severin, Formă: Vale, ID: 10681, ID Părinte: 1204 <br /><b>Variante</b><br />Nume: Părâul Vacilor, Hartă: Imperiul Habsburgic (1887), Limbă: Limba română</description><Point><coordinates>22.599910,45.533422,0</coordinates></Point></Placemark>
<Placemark><LineString id="10681_1204"><tessellate>1</tessellate><coordinates>22.599910,45.533422,0.
22.564014,45.526711,0</coordinates></LineString><Style><LineStyle><width>3</width></LineStyle></Style></Placemark>
<Placemark><name>Tâlva Vacii</name><description>Nume: Tâlva Vacii, Tip: vaci, Nivel: 3, Județ: Caras Severin, Formă: Înălțime, ID: 10706 <br /><b>Variante</b><br />Nume: Tâlva Vacii, Hartă: Geomil 25000, Limbă: Limba română</description><Point><coordinates>21.804375,45.025874,0</coordinates></Point></Placemark>
<Placemark><name>Chicera Vacii</name><description>Nume: Chicera Vacii, Tip: vaci, Nivel: 3, Județ: Cluj, Formă: Altele, ID: 4198 <br /><b>Variante</b><br />Nume: Chicera Vacii, Hartă: PDT, Limbă: Limba română<br />Nume: Cicera Vaci, Hartă: Ungară 1869, Limbă: Limba română</description><Point><coordinates>22.435994,46.451905,0</coordinates></Point></Placemark>
<Placemark><name>Valea Fâneața Vacilor</name><description>Nume: Valea Fâneața Vacilor, Tip: vaci, Nivel: 3, Județ: Cluj, Formă: Deal, ID: 1109 <br /><b>Variante</b><br />Nume: Valea Fâneața Vacilor, Hartă: Geomil 25000, Limbă: Limba română</description><Point><coordinates>23.785198,46.629701,0</coordinates></Point></Placemark>
<Placemark><name>La Vadul Vacilor</name><description>Nume: La Vadul Vacilor, Tip: vaci, Nivel: 3, Județ: Constanta, Formă: Apă-deal-câmpie, ID: 12491 <br /><b>Variante</b><br />Nume: La Vadul Vacilor, Hartă: PDT, Limbă: Limba română</description><Point><coordinates>28.013267,44.259999,0</coordinates></Point></Placemark>
<Placemark><name>Vadu Vacilor</name><description>Nume: Vadu Vacilor, Tip: vaci, Nivel: 3, Județ: Constanta, Formă: Altele, ID: 3219 <br /><b>Variante</b><br />Nume: Vadu Vacilor, Hartă: Geomil 25000, Limbă: Limba română</description><Point><coordinates>27.592489,44.190260,0</coordinates></Point></Placemark>
<Placemark><name>Valea Vadul Vacilor</name><description>Nume: Valea Vadul Vacilor, Tip: vaci, Nivel: 3, Județ: Constanta, Formă: Vale, ID: 9278, ID Părinte: 3219 <br /><b>Variante</b><br />Nume: Valea Vadul Vacilor, Hartă: PDT, Limbă: Limba română</description><Point><coordinates>27.587191,44.188618,0</coordinates></Point></Placemark>
<Placemark><LineString id="9278_3219"><tessellate>1</tessellate><coordinates>27.587191,44.188618,0.
27.592489,44.190260,0</coordinates></LineString><Style><LineStyle><width>3</width></LineStyle></Style></Placemark>
<Placemark><name>La Lacul Vacilor</name><description>Nume: La Lacul Vacilor, Tip: vaci, Nivel: 3, Județ: Dambovita, Formă: Lac, ID: 11053 <br /><b>Variante</b><br />Nume: La Lacul Vacilor, Hartă: PDT, Limbă: Limba română</description><Point><coordinates>25.820856,44.590270,0</coordinates></Point></Placemark>
<Placemark><name>La Vadul Vacii</name><description>Nume: La Vadul Vacii, Tip: vaci, Nivel: 3, Județ: Dambovita, Formă: Apă-deal-câmpie, ID: 11054 <br /><b>Variante</b><br />Nume: La Vadul Vacii, Hartă: PDT, Limbă: Limba română</description><Point><coordinates>25.906979,44.609820,0</coordinates></Point></Placemark>
<Placemark><name>Muntele Vaca</name><description>Nume: Muntele Vaca, Tip: vaci, Nivel: 3, Județ: Dambovita, Formă: Înălțime, ID: 1488 <br /><b>Variante</b><br />Nume: Muntele Vaca, Hartă: Geomil 25000, Limbă: Limba română</description><Point><coordinates>25.313864,45.270610,0</coordinates></Point></Placemark>
<Placemark><name>Muntele Vaca</name><description>Nume: Muntele Vaca, Tip: vaci, Nivel: 3, Județ: Dambovita, Formă: Înălțime, ID: 5217 <br /><b>Variante</b><br />Nume: Muntele Vaca, Hartă: Geomil 25000, Limbă: Limba română</description><Point><coordinates>25.320989,45.245136,0</coordinates></Point></Placemark>
<Placemark><name>Poiana la Bătătura Vacilor</name><description>Nume: Poiana la Bătătura Vacilor, Tip: vaci, Nivel: 3, Județ: Dambovita, Formă: Poiană, ID: 8315 <br /><b>Variante</b><br />Nume: Poiana la Bătătura Vacilor, Hartă: PDT, Limbă: Limba română</description><Point><coordinates>25.375350,44.756879,0</coordinates></Point></Placemark>
<Placemark><name>Poiana Vadul Vacilor</name><description>Nume: Poiana Vadul Vacilor, Tip: vaci, Nivel: 3, Județ: Dambovita, Formă: Poiană, ID: 9444 <br /><b>Variante</b><br />Nume: Poiana Vadul Vacilor, Hartă: PDT, Limbă: Limba română</description><Point><coordinates>25.433102,44.583164,0</coordinates></Point></Placemark>
<Placemark><name>Vadul Vacilor</name><description>Nume: Vadul Vacilor, Tip: vaci, Nivel: 3, Județ: Dambovita, Formă: Apă-deal-câmpie, ID: 11150 <br /><b>Variante</b><br />Nume: Vadul Vacilor, Hartă: PDT, Limbă: Limba română</description><Point><coordinates>25.716647,44.792983,0</coordinates></Point></Placemark>
<Placemark><name>Valea Coada Vacii</name><description>Nume: Valea Coada Vacii, Tip: vaci, Nivel: 3, Județ: Dambovita, Formă: Vale, ID: 10138 <br /><b>Variante</b><br />Nume: Valea Coada Vacii, Hartă: PDT, Limbă: Limba română</description><Point><coordinates>25.216757,44.874707,0</coordinates></Point></Placemark>
<Placemark><name>Valea Vaca</name><description>Nume: Valea Vaca, Tip: vaci, Nivel: 3, Județ: Dambovita, Formă: Vale, ID: 1489, ID Părinte: 1488 <br /><b>Variante</b><br />Nume: Valea Vaca, Hartă: Geomil 25000, Limbă: Limba română<br />Nume: Valea Vacii, Hartă: Austriacă, Limbă: Limba română</description><Point><coordinates>25.330112,45.276192,0</coordinates></Point></Placemark>
<Placemark><LineString id="1489_1488"><tessellate>1</tessellate><coordinates>25.330112,45.276192,0.
25.313864,45.270610,0</coordinates></LineString><Style><LineStyle><width>3</width></LineStyle></Style></Placemark>
<Placemark><name>Valea Vaca</name><description>Nume: Valea Vaca, Tip: vaci, Nivel: 3, Județ: Dambovita, Formă: Vale, ID: 5216, ID Părinte: 5217 <br /><b>Variante</b><br />Nume: Valea Vaca, Hartă: Geomil 25000, Limbă: Limba română</description><Point><coordinates>25.326956,45.238459,0</coordinates></Point></Placemark>
<Placemark><LineString id="5216_5217"><tessellate>1</tessellate><coordinates>25.326956,45.238459,0.
25.320989,45.245136,0</coordinates></LineString><Style><LineStyle><width>3</width></LineStyle></Style></Placemark>
<Placemark><name>Valea Vacii</name><description>Nume: Valea Vacii, Tip: vaci, Nivel: 3, Județ: Dambovita, Formă: Vale, ID: 10134 <br /><b>Variante</b><br />Nume: Valea Vacii, Hartă: PDT, Limbă: Limba română</description><Point><coordinates>25.295355,44.866177,0</coordinates></Point></Placemark>
<Placemark><name>Valea Vacilor</name><description>Nume: Valea Vacilor, Tip: vaci, Nivel: 3, Județ: Dambovita, Formă: Vale, ID: 3699 <br /><b>Variante</b><br />Nume: Valea Vacilor, Hartă: PDT, Limbă: Limba română</description><Point><coordinates>25.672178,44.919607,0</coordinates></Point></Placemark>
<Placemark><name>Grindul Vacilor</name><description>Nume: Grindul Vacilor, Tip: vaci, Nivel: 3, Județ: Dolj, Formă: Apă-deal-câmpie, ID: 3798 <br /><b>Variante</b><br />Nume: Grindul Vacilor, Hartă: PDT, Limbă: Limba română</description><Point><coordinates>23.633765,43.843212,0</coordinates></Point></Placemark>
<Placemark><name>Măgura Vacei</name><description>Nume: Măgura Vacei, Tip: vaci, Nivel: 3, Județ: Dolj, Formă: Înălțime, ID: 10343 <br /><b>Variante</b><br />Nume: Măgura Vacei, Hartă: PDT, Limbă: Limba română</description><Point><coordinates>23.434301,44.052777,0</coordinates></Point></Placemark>
<Placemark><name>Poiana Vacilor</name><description>Nume: Poiana Vacilor, Tip: vaci, Nivel: 3, Județ: Dolj, Formă: Poiană, ID: 7698 <br /><b>Variante</b><br />Nume: Poiana Vacilor, Hartă: PDT, Limbă: Limba română</description><Point><coordinates>23.830051,44.143814,0</coordinates></Point></Placemark>
<Placemark><name>Valea Burta Vacii</name><description>Nume: Valea Burta Vacii, Tip: vaci, Nivel: 3, Județ: Dolj, Formă: Vale, ID: 3036 <br /><b>Variante</b><br />Nume: Valea Burta Vacii, Hartă: Geomil 25000, Limbă: Limba română</description><Point><coordinates>24.234430,43.930412,0</coordinates></Point></Placemark>
<Placemark><name>Lacul Vacilor</name><description>Nume: Lacul Vacilor, Tip: vaci, Nivel: 3, Județ: Galati, Formă: Lac, ID: 3506 <br /><b>Variante</b><br />Nume: Lacul Vacilor, Hartă: PDT, Limbă: Limba română</description><Point><coordinates>28.081669,45.753391,0</coordinates></Point></Placemark>
<Placemark><name>Valea Coada Vacii</name><description>Nume: Valea Coada Vacii, Tip: vaci, Nivel: 3, Județ: Galati, Formă: Vale, ID: 9748 <br /><b>Variante</b><br />Nume: Valea Coada Vacii, Hartă: Geomil 25000, Limbă: Limba română</description><Point><coordinates>27.837300,46.041244,0</coordinates></Point></Placemark>
<Placemark><name>Valea Vacii</name><description>Nume: Valea Vacii, Tip: vaci, Nivel: 3, Județ: Galati, Formă: Vale, ID: 2188 <br /><b>Variante</b><br />Nume: Valea Vacii, Hartă: Geomil 25000, Limbă: Limba română</description><Point><coordinates>27.838902,45.826650,0</coordinates></Point></Placemark>
<Placemark><name>Lacu Vacei</name><description>Nume: Lacu Vacei, Tip: vaci, Nivel: 3, Județ: Giurgiu, Formă: Lac, ID: 10617 <br /><b>Variante</b><br />Nume: Lacu Vacei, Hartă: PDT, Limbă: Limba română</description><Point><coordinates>26.075251,43.947276,0</coordinates></Point></Placemark>
<Placemark><name>Lacul Vacii</name><description>Nume: Lacul Vacii, Tip: vaci, Nivel: 3, Județ: Giurgiu, Formă: Lac, ID: 3168 <br /><b>Variante</b><br />Nume: Lacul Vacii, Hartă: PDT, Limbă: Limba română</description><Point><coordinates>25.977464,44.131648,0</coordinates></Point></Placemark>
<Placemark><name>Lacul Vacilor</name><description>Nume: Lacul Vacilor, Tip: vaci, Nivel: 3, Județ: Giurgiu, Formă: Lac, ID: 8297 <br /><b>Variante</b><br />Nume: Lacul Vacilor, Hartă: PDT, Limbă: Limba română</description><Point><coordinates>25.932623,44.162051,0</coordinates></Point></Placemark>
<Placemark><name>Oboru Vacii</name><description>Nume: Oboru Vacii, Tip: vaci, Nivel: 3, Județ: Giurgiu, Formă: Altele, ID: 452 <br /><b>Variante</b><br />Nume: Oboru Vacii, Hartă: Geomil 25000, Limbă: Limba română</description><Point><coordinates>25.637474,43.943765,0</coordinates></Point></Placemark>
<Placemark><name>Poenele Vacilor</name><description>Nume: Poenele Vacilor, Tip: vaci, Nivel: 3, Județ: Giurgiu, Formă: Poiană, ID: 14231 <br /><b>Variante</b><br />Nume: Poenele Vacilor, Hartă: PDT, Limbă: Limba română</description><Point><coordinates>25.730206,44.221253,0</coordinates></Point></Placemark>
<Placemark><name>Vadu Vacilor</name><description>Nume: Vadu Vacilor, Tip: vaci, Nivel: 3, Județ: Giurgiu, Formă: Apă-deal-câmpie, ID: 3756 <br /><b>Variante</b><br />Nume: Vadu Vacilor, Hartă: PDT, Limbă: Limba română</description><Point><coordinates>25.891728,44.495137,0</coordinates></Point></Placemark>
<Placemark><name>Dealul Piscul Vacilor</name><description>Nume: Dealul Piscul Vacilor, Tip: vaci, Nivel: 3, Județ: Gorj, Formă: Deal, ID: 14240 <br /><b>Variante</b><br />Nume: Dealul Piscul Vacilor, Hartă: PDT, Limbă: Limba română</description><Point><coordinates>23.286485,44.878144,0</coordinates></Point></Placemark>
<Placemark><name>Poiana Coada Vacilor</name><description>Nume: Poiana Coada Vacilor, Tip: vaci, Nivel: 3, Județ: Harghita, Formă: Poiană, ID: 11712 <br /><b>Variante</b><br />Nume: Poiana Coada Vacilor, Hartă: Geomil 25000, Limbă: Limba română</description><Point><coordinates>25.350498,47.129396,0</coordinates></Point></Placemark>
<Placemark><name>Gruiu Vacii</name><description>Nume: Gruiu Vacii, Tip: vaci, Nivel: 3, Județ: Hunedoara, Formă: Înălțime, ID: 6267 <br /><b>Variante</b><br />Nume: Gruiu Vacii, Hartă: Geomil 25000, Limbă: Limba română</description><Point><coordinates>22.649214,46.154048,0</coordinates></Point></Placemark>
<Placemark><name>Spinare Vatsilor</name><description>Nume: Spinare Vatsilor, Tip: vaci, Nivel: 3, Județ: Hunedoara, Formă: Înălțime, ID: 12320 <br /><b>Variante</b><br />Nume: Spinare Vatsilor, Hartă: Transilvania (1769-1773), Limbă: Limba română</description><Point><coordinates>23.277006,45.743262,0</coordinates></Point></Placemark>
<Placemark><name>Valea Vacii</name><description>Nume: Valea Vacii, Tip: vaci, Nivel: 3, Județ: Hunedoara, Formă: Vale, ID: 6255 <br /><b>Variante</b><br />Nume: Valea Vacii, Hartă: Geomil 25000, Limbă: Limba română</description><Point><coordinates>22.777620,46.163537,0</coordinates></Point></Placemark>
<Placemark><name>Vadul Vacilor</name><description>Nume: Vadul Vacilor, Tip: vaci, Nivel: 3, Județ: Ialomita, Formă: Altele, ID: 3182 <br /><b>Variante</b><br />Nume: Vadul Vacilor, Hartă: Geomil 25000, Limbă: Limba română</description><Point><coordinates>27.357700,44.707859,0</coordinates></Point></Placemark>
<Placemark><name>Dealul Vacii</name><description>Nume: Dealul Vacii, Tip: vaci, Nivel: 3, Județ: Iasi, Formă: Deal, ID: 6653 <br /><b>Variante</b><br />Nume: Dealul Vacii, Hartă: Geomil 25000, Limbă: Limba română</description><Point><coordinates>27.232487,47.513334,0</coordinates></Point></Placemark>
<Placemark><name>Pădurea Coasta Vacii</name><description>Nume: Pădurea Coasta Vacii, Tip: vaci, Nivel: 3, Județ: Iasi, Formă: Pădure, ID: 7796 <br /><b>Variante</b><br />Nume: Pădurea Coasta Vacii, Hartă: Geomil 25000, Limbă: Limba română</description><Point><coordinates>26.905968,47.128848,0</coordinates></Point></Placemark>
<Placemark><name>Valea Vacei</name><description>Nume: Valea Vacei, Tip: vaci, Nivel: 3, Județ: Iasi, Formă: Vale, ID: 6654, ID Părinte: 6653 <br /><b>Variante</b><br />Nume: Valea Vacei, Hartă: PDT, Limbă: Limba română</description><Point><coordinates>27.232453,47.509762,0</coordinates></Point></Placemark>
<Placemark><LineString id="6654_6653"><tessellate>1</tessellate><coordinates>27.232453,47.509762,0.
27.232487,47.513334,0</coordinates></LineString><Style><LineStyle><width>3</width></LineStyle></Style></Placemark>
<Placemark><name>Valea Vacilor</name><description>Nume: Valea Vacilor, Tip: vaci, Nivel: 3, Județ: Iasi, Formă: Vale, ID: 7797 <br /><b>Variante</b><br />Nume: Valea Vacilor, Hartă: Geomil 25000, Limbă: Limba română</description><Point><coordinates>26.993973,47.134041,0</coordinates></Point></Placemark>
<Placemark><name>Dealul Vacii</name><description>Nume: Dealul Vacii, Tip: vaci, Nivel: 3, Județ: Maramures, Formă: Deal, ID: 8245 <br /><b>Variante</b><br />Nume: Dealul Vacii, Hartă: PDT, Limbă: Limba română</description><Point><coordinates>24.014016,47.377344,0</coordinates></Point></Placemark>
<Placemark><name>Balta Săcătoarea Vacilor</name><description>Nume: Balta Săcătoarea Vacilor, Tip: vaci, Nivel: 3, Județ: Mehedinti, Formă: Apă-deal-câmpie, ID: 3660 <br /><b>Variante</b><br />Nume: Balta Săcătoarea Vacilor, Hartă: PDT, Limbă: Limba română</description><Point><coordinates>22.771848,44.366525,0</coordinates></Point></Placemark>
<Placemark><name>Cracu cu Vaci</name><description>Nume: Cracu cu Vaci, Tip: vaci, Nivel: 3, Județ: Mehedinti, Formă: Înălțime, ID: 838 <br /><b>Variante</b><br />Nume: Cracu cu Vaci, Hartă: Geomil 25000, Limbă: Limba română</description><Point><coordinates>22.172366,44.602595,0</coordinates></Point></Placemark>
<Placemark><name>Bâtca Vaca Babei</name><description>Nume: Bâtca Vaca Babei, Tip: vaci, Nivel: 3, Județ: Neamt, Formă: Înălțime, ID: 9135 <br /><b>Variante</b><br />Nume: Bâtca Vaca Babei, Hartă: Geomil 25000, Limbă: Limba română</description><Point><coordinates>26.174397,47.013094,0</coordinates></Point></Placemark>
<Placemark><name>Bâtca Vacii</name><description>Nume: Bâtca Vacii, Tip: vaci, Nivel: 3, Județ: Neamt, Formă: Înălțime, ID: 6503 <br /><b>Variante</b><br />Nume: Bâtca Vacii, Hartă: PDT, Limbă: Limba română</description><Point><coordinates>26.094394,46.902128,0</coordinates></Point></Placemark>
<Placemark><name>Poiana Vacii</name><description>Nume: Poiana Vacii, Tip: vaci, Nivel: 3, Județ: Neamt, Formă: Poiană, ID: 670 <br /><b>Variante</b><br />Nume: Poiana Vacii, Hartă: Geomil 25000, Limbă: Limba română</description><Point><coordinates>26.182623,47.204383,0</coordinates></Point></Placemark>
<Placemark><name>Burta Vacii</name><description>Nume: Burta Vacii, Tip: vaci, Nivel: 3, Județ: Olt, Formă: Altele, ID: 3035, ID Părinte: 3036 <br /><b>Variante</b><br />Nume: Burta Vacii, Hartă: Geomil 25000, Limbă: Limba română</description><Point><coordinates>24.256768,43.923479,0</coordinates></Point></Placemark>
<Placemark><LineString id="3035_3036"><tessellate>1</tessellate><coordinates>24.256768,43.923479,0.
24.234430,43.930412,0</coordinates></LineString><Style><LineStyle><width>3</width></LineStyle></Style></Placemark>
<Placemark><name>Măgura Vacei</name><description>Nume: Măgura Vacei, Tip: vaci, Nivel: 3, Județ: Olt, Formă: Înălțime, ID: 8016 <br /><b>Variante</b><br />Nume: Măgura Vacei, Hartă: PDT, Limbă: Limba română</description><Point><coordinates>24.612514,43.766756,0</coordinates></Point></Placemark>
<Placemark><name>Măgura Vacilor</name><description>Nume: Măgura Vacilor, Tip: vaci, Nivel: 3, Județ: Olt, Formă: Înălțime, ID: 1352 <br /><b>Variante</b><br />Nume: Măgura Vacilor, Hartă: Geomil 25000, Limbă: Limba română</description><Point><coordinates>24.673227,43.774405,0</coordinates></Point></Placemark>
<Placemark><name>Valea Vacei</name><description>Nume: Valea Vacei, Tip: vaci, Nivel: 3, Județ: Prahova, Formă: Vale, ID: 12452 <br /><b>Variante</b><br />Nume: Valea Vacei, Hartă: PDT, Limbă: Limba română</description><Point><coordinates>26.330317,45.121087,0</coordinates></Point></Placemark>
<Placemark><name>Valea Vaca</name><description>Nume: Valea Vaca, Tip: vaci, Nivel: 3, Județ: Salaj, Formă: Vale, ID: 5944 <br /><b>Variante</b><br />Nume: Valea Vaca, Hartă: Geomil 25000, Limbă: Limba română</description><Point><coordinates>22.856571,47.408898,0</coordinates></Point></Placemark>
<Placemark><name>Dealu Vacii</name><description>Nume: Dealu Vacii, Tip: vaci, Nivel: 3, Județ: Satu Mare, Formă: Deal, ID: 5955 <br /><b>Variante</b><br />Nume: Dealu Vacii, Hartă: Geomil 25000, Limbă: Limba română</description><Point><coordinates>22.999610,47.592156,0</coordinates></Point></Placemark>
<Placemark><name>Piciorul Vacii</name><description>Nume: Piciorul Vacii, Tip: vaci, Nivel: 3, Județ: Satu Mare, Formă: Înălțime, ID: 7228 <br /><b>Variante</b><br />Nume: Piciorul Vacii, Hartă: PDT, Limbă: Limba română</description><Point><coordinates>23.425173,47.969028,0</coordinates></Point></Placemark>
<Placemark><name>Dealul Lacul Vacilor</name><description>Nume: Dealul Lacul Vacilor, Tip: vaci, Nivel: 3, Județ: Sibiu, Formă: Deal, ID: 5534 <br /><b>Variante</b><br />Nume: Dealul Lacul Vacilor, Hartă: PDT, Limbă: Limba română</description><Point><coordinates>24.086477,45.875956,0</coordinates></Point></Placemark>
<Placemark><name>Fața Vacilor</name><description>Nume: Fața Vacilor, Tip: vaci, Nivel: 3, Județ: Sibiu, Formă: Altele, ID: 2543 <br /><b>Variante</b><br />Nume: Fața Vacilor, Hartă: Geomil 25000, Limbă: Limba română<br />Nume: Fața Vacilor, Hartă: PDT, Limbă: Limba română</description><Point><coordinates>24.006375,45.883951,0</coordinates></Point></Placemark>
<Placemark><name>Șesul Lacul Vacilor</name><description>Nume: Șesul Lacul Vacilor, Tip: vaci, Nivel: 3, Județ: Sibiu, Formă: Câmp, ID: 5535, ID Părinte: 5534 <br /><b>Variante</b><br />Nume: Șesul Lacul Vacilor, Hartă: PDT, Limbă: Limba română</description><Point><coordinates>24.102275,45.866444,0</coordinates></Point></Placemark>
<Placemark><LineString id="5535_5534"><tessellate>1</tessellate><coordinates>24.102275,45.866444,0.
24.086477,45.875956,0</coordinates></LineString><Style><LineStyle><width>3</width></LineStyle></Style></Placemark>
<Placemark><name>Spinarea Vacii</name><description>Nume: Spinarea Vacii, Tip: vaci, Nivel: 3, Județ: Sibiu, Formă: Înălțime, ID: 11205 <br /><b>Variante</b><br />Nume: Spinarea Vacii, Hartă: ANCPI, Limbă: Limba română</description><Point><coordinates>24.236964,45.594453,0</coordinates></Point></Placemark>
<Placemark><name>Valea Lacul Vacilor</name><description>Nume: Valea Lacul Vacilor, Tip: vaci, Nivel: 3, Județ: Sibiu, Formă: Vale, ID: 5536, ID Părinte: 5534 <br /><b>Variante</b><br />Nume: Valea Lacul Vacilor, Hartă: PDT, Limbă: Limba română</description><Point><coordinates>24.083730,45.871515,0</coordinates></Point></Placemark>
<Placemark><LineString id="5536_5534"><tessellate>1</tessellate><coordinates>24.083730,45.871515,0.
24.086477,45.875956,0</coordinates></LineString><Style><LineStyle><width>3</width></LineStyle></Style></Placemark>
<Placemark><name>Dealul Vacii</name><description>Nume: Dealul Vacii, Tip: vaci, Nivel: 3, Județ: Suceava, Formă: Deal, ID: 2260 <br /><b>Variante</b><br />Nume: Dealul Vacii, Hartă: Geomil 25000, Limbă: Limba română</description><Point><coordinates>26.186372,47.397930,0</coordinates></Point></Placemark>
<Placemark><name>La Podu Vacilor</name><description>Nume: La Podu Vacilor, Tip: vaci, Nivel: 3, Județ: Suceava, Formă: Altele, ID: 9558 <br /><b>Variante</b><br />Nume: La Podu Vacilor, Hartă: Moldova (1892-1898), Limbă: Limba română</description><Point><coordinates>26.243112,47.433448,0</coordinates></Point></Placemark>
<Placemark><name>Măgura Vacii</name><description>Nume: Măgura Vacii, Tip: vaci, Nivel: 3, Județ: Suceava, Formă: Înălțime, ID: 2289 <br /><b>Variante</b><br />Nume: Măgura Vacii, Hartă: Geomil 25000, Limbă: Limba română</description><Point><coordinates>25.515745,47.861001,0</coordinates></Point></Placemark>
<Placemark><name>Poiana Măgura Vacii</name><description>Nume: Poiana Măgura Vacii, Tip: vaci, Nivel: 3, Județ: Suceava, Formă: Poiană, ID: 2290, ID Părinte: 2289 <br /><b>Variante</b><br />Nume: Poiana Măgura Vacii, Hartă: Geomil 25000, Limbă: Limba română</description><Point><coordinates>25.517182,47.858874,0</coordinates></Point></Placemark>
<Placemark><LineString id="2290_2289"><tessellate>1</tessellate><coordinates>25.517182,47.858874,0.
25.515745,47.861001,0</coordinates></LineString><Style><LineStyle><width>3</width></LineStyle></Style></Placemark>
<Placemark><name>Dealu Vacii</name><description>Nume: Dealu Vacii, Tip: vaci, Nivel: 3, Județ: Teleorman, Formă: Deal, ID: 1254 <br /><b>Variante</b><br />Nume: Dealu Vacii, Hartă: Geomil 25000, Limbă: Limba română</description><Point><coordinates>25.013514,44.174903,0</coordinates></Point></Placemark>
<Placemark><name>Fântâna Vacilor</name><description>Nume: Fântâna Vacilor, Tip: vaci, Nivel: 3, Județ: Teleorman, Formă: Altele, ID: 1350 <br /><b>Variante</b><br />Nume: Fântâna Vacilor, Hartă: Geomil 25000, Limbă: Limba română</description><Point><coordinates>24.893608,43.764365,0</coordinates></Point></Placemark>
<Placemark><name>La Lacul Vacilor</name><description>Nume: La Lacul Vacilor, Tip: vaci, Nivel: 3, Județ: Teleorman, Formă: Lac, ID: 3745 <br /><b>Variante</b><br />Nume: La Lacul Vacilor, Hartă: PDT, Limbă: Limba română</description><Point><coordinates>25.389368,44.392979,0</coordinates></Point></Placemark>
<Placemark><name>Lacu Vacii</name><description>Nume: Lacu Vacii, Tip: vaci, Nivel: 3, Județ: Teleorman, Formă: Apă-deal-câmpie, ID: 508 <br /><b>Variante</b><br />Nume: Lacu Vacii, Hartă: Geomil 25000, Limbă: Limba română</description><Point><coordinates>25.361260,44.259697,0</coordinates></Point></Placemark>
<Placemark><name>Lacu Vacilor</name><description>Nume: Lacu Vacilor, Tip: vaci, Nivel: 3, Județ: Teleorman, Formă: Lac, ID: 1393 <br /><b>Variante</b><br />Nume: Lacu Vacilor, Hartă: Geomil 25000, Limbă: Limba română<br />Nume: La Lacul Vacilor, Hartă: PDT, Limbă: Limba română</description><Point><coordinates>25.600993,44.231450,0</coordinates></Point></Placemark>
<Placemark><name>Măgura Vacei</name><description>Nume: Măgura Vacei, Tip: vaci, Nivel: 3, Județ: Teleorman, Formă: Înălțime, ID: 4217 <br /><b>Variante</b><br />Nume: Măgura Vacei, Hartă: PDT, Limbă: Limba română</description><Point><coordinates>25.580294,44.143690,0</coordinates></Point></Placemark>
<Placemark><name>Măgura Vacii</name><description>Nume: Măgura Vacii, Tip: vaci, Nivel: 3, Județ: Teleorman, Formă: Înălțime, ID: 1359 <br /><b>Variante</b><br />Nume: Măgura Vacii, Hartă: Geomil 25000, Limbă: Limba română</description><Point><coordinates>24.894935,43.964323,0</coordinates></Point></Placemark>
<Placemark><name>Padina Vacii</name><description>Nume: Padina Vacii, Tip: vaci, Nivel: 3, Județ: Teleorman, Formă: Altele, ID: 9454 <br /><b>Variante</b><br />Nume: Padina Vacii, Hartă: PDT, Limbă: Limba română</description><Point><coordinates>25.325990,44.183515,0</coordinates></Point></Placemark>
<Placemark><name>Pe Planiștea Vacilor</name><description>Nume: Pe Planiștea Vacilor, Tip: vaci, Nivel: 3, Județ: Teleorman, Formă: Altele, ID: 10985 <br /><b>Variante</b><br />Nume: Pe Planiștea Vacilor, Hartă: PDT, Limbă: Limba română</description><Point><coordinates>24.853435,44.328530,0</coordinates></Point></Placemark>
<Placemark><name>Rusca Vacilor</name><description>Nume: Rusca Vacilor, Tip: vaci, Nivel: 3, Județ: Teleorman, Formă: Altele, ID: 5788 <br /><b>Variante</b><br />Nume: Rusca Vacilor, Hartă: Geomil 25000, Limbă: Limba română</description><Point><coordinates>24.737744,43.863624,0</coordinates></Point></Placemark>
<Placemark><name>Valea Lacul Vacilor</name><description>Nume: Valea Lacul Vacilor, Tip: vaci, Nivel: 3, Județ: Teleorman, Formă: Vale, ID: 13988 <br /><b>Variante</b><br />Nume: Valea Lacul Vacilor, Hartă: PDT, Limbă: Limba română</description><Point><coordinates>25.165190,44.158112,0</coordinates></Point></Placemark>
<Placemark><name>Valea Vacei</name><description>Nume: Valea Vacei, Tip: vaci, Nivel: 3, Județ: Teleorman, Formă: Vale, ID: 1385 <br /><b>Variante</b><br />Nume: Valea Vacei, Hartă: Geomil 25000, Limbă: Limba română</description><Point><coordinates>25.038141,43.814928,0</coordinates></Point></Placemark>
<Placemark><name>Valea Vacei</name><description>Nume: Valea Vacei, Tip: vaci, Nivel: 3, Județ: Teleorman, Formă: Vale, ID: 9453 <br /><b>Variante</b><br />Nume: Valea Vacei, Hartă: PDT, Limbă: Limba română</description><Point><coordinates>25.413597,44.181321,0</coordinates></Point></Placemark>
<Placemark><name>Calea Vaci</name><description>Nume: Calea Vaci, Tip: vaci, Nivel: 3, Județ: Timis, Formă: Drum, ID: 10592 <br /><b>Variante</b><br />Nume: Calea Vaci, Hartă: Imperiul Habsburgic (1887), Limbă: Limba română</description><Point><coordinates>21.907581,45.801755,0</coordinates></Point></Placemark>
<Placemark><name>Calea Vacii</name><description>Nume: Calea Vacii, Tip: vaci, Nivel: 3, Județ: Timis, Formă: Altele, ID: 12052 <br /><b>Variante</b><br />Nume: Calea Vacii, Hartă: Geomil 25000, Limbă: Limba română</description><Point><coordinates>21.687692,45.734953,0</coordinates></Point></Placemark>
<Placemark><name>Dealul Calea Vacilor</name><description>Nume: Dealul Calea Vacilor, Tip: vaci, Nivel: 3, Județ: Valcea, Formă: Deal, ID: 13611 <br /><b>Variante</b><br />Nume: Dealul Calea Vacilor, Hartă: PDT, Limbă: Limba română</description><Point><coordinates>24.262713,45.257100,0</coordinates></Point></Placemark>
<Placemark><name>Valea Vacii</name><description>Nume: Valea Vacii, Tip: vaci, Nivel: 3, Județ: Valcea, Formă: Vale, ID: 377 <br /><b>Variante</b><br />Nume: Valea Vacii, Hartă: Geomil 25000, Limbă: Limba română</description><Point><coordinates>24.142929,44.563639,0</coordinates></Point></Placemark>
<Placemark><name>Staniștea Vacilor</name><description>Nume: Staniștea Vacilor, Tip: vaci, Nivel: 3, Județ: Vaslui, Formă: Altele, ID: 6569 <br /><b>Variante</b><br />Nume: Staniștea Vacilor, Hartă: PDT, Limbă: Limba română</description><Point><coordinates>28.162332,46.772561,0</coordinates></Point></Placemark>
<Placemark><name>Dealul Vacii</name><description>Nume: Dealul Vacii, Tip: vaci, Nivel: 3, Județ: Vrancea, Formă: Deal, ID: 2099 <br /><b>Variante</b><br />Nume: Dealul Vacii, Hartă: Geomil 25000, Limbă: Limba română</description><Point><coordinates>26.807788,45.576459,0</coordinates></Point></Placemark>
<Placemark><name>Pârâul Vaci</name><description>Nume: Pârâul Vaci, Tip: vaci, Nivel: 3, Județ: Vrancea, Formă: Vale, ID: 7906 <br /><b>Variante</b><br />Nume: Pârâul Vaci, Hartă: PDT, Limbă: Limba română</description><Point><coordinates>26.906258,45.801189,0</coordinates></Point></Placemark>
<Placemark><name>Pârâul Vacii Rele</name><description>Nume: Pârâul Vacii Rele, Tip: vaci, Nivel: 3, Județ: Vrancea, Formă: Vale, ID: 5241, ID Părinte: 2094 <br /><b>Variante</b><br />Nume: Pârâul Vacii Rele, Hartă: Geomil 25000, Limbă: Limba română</description><Point><coordinates>26.766099,45.563238,0</coordinates></Point></Placemark>
<Placemark><LineString id="5241_2094"><tessellate>1</tessellate><coordinates>26.766099,45.563238,0.
26.752559,45.549332,0</coordinates></LineString><Style><LineStyle><width>3</width></LineStyle></Style></Placemark>
<Placemark><name>Podul Vacei</name><description>Nume: Podul Vacei, Tip: vaci, Nivel: 3, Județ: Vrancea, Formă: Altele, ID: 9249, ID Părinte: 2099 <br /><b>Variante</b><br />Nume: Podul Vacei, Hartă: PDT, Limbă: Limba română</description><Point><coordinates>26.819023,45.563930,0</coordinates></Point></Placemark>
<Placemark><LineString id="9249_2099"><tessellate>1</tessellate><coordinates>26.819023,45.563930,0.
26.807788,45.576459,0</coordinates></LineString><Style><LineStyle><width>3</width></LineStyle></Style></Placemark>
<Placemark><name>Valea Râpa Vacei</name><description>Nume: Valea Râpa Vacei, Tip: vaci, Nivel: 3, Județ: Vrancea, Formă: Vale, ID: 14850 <br /><b>Variante</b><br />Nume: Valea Râpa Vacei, Hartă: PDT, Limbă: Limba română</description><Point><coordinates>26.933008,45.694491,0</coordinates></Point></Placemark></Document></kml>