<?xml version="1.0" encoding="UTF-8"?><kml xmlns="http://www.opengis.net/kml/2.2"><Document><Placemark><name>Jidovina</name><description>Nume: Jidovina, Tip: jidovina (urias), Nivel: 3, Județ: Alba, Formă: Înălțime, ID: 12736 <br /><b>Variante</b><br />Nume: Jidovina, Hartă: Imperiul Habsburgic (1887), Limbă: Limba română</description><Point><coordinates>23.447712,46.458250,0</coordinates></Point></Placemark>
<Placemark><name>Dealu Jidovina</name><description>Nume: Dealu Jidovina, Tip: jidovina (urias), Nivel: 3, Județ: Arad, Formă: Deal, ID: 11331 <br /><b>Variante</b><br />Nume: Dealu Jidovina, Hartă: Geomil 25000, Limbă: Limba română</description><Point><coordinates>22.153759,46.520570,0</coordinates></Point></Placemark>
<Placemark><name>Jidovina lui Potoroacă</name><description>Nume: Jidovina lui Potoroacă, Tip: jidovina (urias), Nivel: 3, Județ: Bacau, Formă: Înălțime, ID: 12774 <br /><b>Variante</b><br />Nume: Jidovina lui Potoroacă, Hartă: PDT, Limbă: Limba română</description><Point><coordinates>26.387839,46.463294,0</coordinates></Point></Placemark>
<Placemark><name>Jidovina</name><description>Nume: Jidovina, Tip: jidovina (urias), Nivel: 3, Județ: Bihor, Formă: Altele, ID: 10374 <br /><b>Variante</b><br />Nume: Jidovina, Hartă: PDT, Limbă: Limba română</description><Point><coordinates>22.124960,46.822582,0</coordinates></Point></Placemark>
<Placemark><name>Jidovina</name><description>Nume: Jidovina, Tip: jidovina (urias), Nivel: 3, Județ: Bihor, Formă: Înălțime, ID: 14215 <br /><b>Variante</b><br />Nume: Jidovina, Hartă: PDT, Limbă: Limba română</description><Point><coordinates>22.273385,46.871735,0</coordinates></Point></Placemark>
<Placemark><name>Dealul Jidovina</name><description>Nume: Dealul Jidovina, Tip: jidovina (urias), Nivel: 3, Județ: Botosani, Formă: Deal, ID: 9577 <br /><b>Variante</b><br />Nume: Dealul Jidovina, Hartă: Moldova (1892-1898), Limbă: Limba română</description><Point><coordinates>26.420321,48.077433,0</coordinates></Point></Placemark>
<Placemark><name>Dealul Jidovina</name><description>Nume: Dealul Jidovina, Tip: jidovina (urias), Nivel: 3, Județ: Botosani, Formă: Deal, ID: 13590 <br /><b>Variante</b><br />Nume: Dealul Jidovina, Hartă: PDT, Limbă: Limba română</description><Point><coordinates>26.479102,48.180157,0</coordinates></Point></Placemark>
<Placemark><name>Valea Jidovinei</name><description>Nume: Valea Jidovinei, Tip: jidovina (urias), Nivel: 3, Județ: Botosani, Formă: Vale, ID: 11555 <br /><b>Variante</b><br />Nume: Valea Jidovinei, Hartă: Geomil 25000, Limbă: Limba română</description><Point><coordinates>27.206466,47.759721,0</coordinates></Point></Placemark>
<Placemark><name>Valea Jidovinei</name><description>Nume: Valea Jidovinei, Tip: jidovina (urias), Nivel: 3, Județ: Botosani, Formă: Vale, ID: 15404 <br /><b>Variante</b><br />Nume: Valea Jidovinei, Hartă: PDT, Limbă: Limba română</description><Point><coordinates>26.421991,47.879376,0</coordinates></Point></Placemark>
<Placemark><name>Poiana Jidovina</name><description>Nume: Poiana Jidovina, Tip: jidovina (urias), Nivel: 3, Județ: Caras Severin, Formă: Poiană, ID: 9437 <br /><b>Variante</b><br />Nume: Poiana Jidovina, Hartă: PDT, Limbă: Limba română</description><Point><coordinates>22.304008,44.910380,0</coordinates></Point></Placemark>
<Placemark><name>Poiana Jidovina</name><description>Nume: Poiana Jidovina, Tip: jidovina (urias), Nivel: 3, Județ: Caras Severin, Formă: Poiană, ID: 13486 <br /><b>Variante</b><br />Nume: Poiana Jidovina, Hartă: PDT, Limbă: Limba română</description><Point><coordinates>21.973736,45.046785,0</coordinates></Point></Placemark>
<Placemark><name>Zsidovin</name><description>Nume: Zsidovin, Tip: jidovina (urias), Nivel: 3, Județ: Caras Severin, Formă: Localitate, ID: 10248 <br /><b>Variante</b><br />Nume: Zsidovin, Hartă: Ungară 1869, Limbă: Limba română</description><Point><coordinates>21.628452,45.427566,0</coordinates></Point></Placemark>
<Placemark><name>Culmea Jidovina</name><description>Nume: Culmea Jidovina, Tip: jidovina (urias), Nivel: 3, Județ: Gorj, Formă: Înălțime, ID: 8406 <br /><b>Variante</b><br />Nume: Culmea Jidovina, Hartă: Geomil 25000, Limbă: Limba română</description><Point><coordinates>23.483743,44.858293,0</coordinates></Point></Placemark>
<Placemark><name>La Jidovina</name><description>Nume: La Jidovina, Tip: jidovina (urias), Nivel: 3, Județ: Hunedoara, Formă: Altele, ID: 12470 <br /><b>Variante</b><br />Nume: La Jidovina, Hartă: ANCPI, Limbă: Limba română</description><Point><coordinates>22.821721,45.474968,0</coordinates></Point></Placemark>
<Placemark><name>Jidovina</name><description>Nume: Jidovina, Tip: jidovina (urias), Nivel: 3, Județ: Neamt, Formă: Altele, ID: 13115 <br /><b>Variante</b><br />Nume: Jidovina, Hartă: Geomil 25000, Limbă: Limba română</description><Point><coordinates>26.555613,46.769887,0</coordinates></Point></Placemark></Document></kml>