<?xml version="1.0" encoding="UTF-8"?><kml xmlns="http://www.opengis.net/kml/2.2"><Document><Placemark><name>Ursoiul</name><description>Nume: Ursoiul, Tip: ursoi, Nivel: 3, Județ: Suceava, Formă: Înălțime, ID: 639 <br /><b>Variante</b><br />Nume: Ursoiul, Hartă: Geomil 25000, Limbă: Limba română</description><Point><coordinates>25.855617,47.851222</coordinates></Point></Placemark>
<Placemark><name>Dealu Ursoiu</name><description>Nume: Dealu Ursoiu, Tip: ursoi, Nivel: 3, Județ: Hunedoara, Formă: Deal, ID: 934 <br /><b>Variante</b><br />Nume: Dealu Ursoiu, Hartă: Geomil 25000, Limbă: Limba română</description><Point><coordinates>22.736339,46.185936</coordinates></Point></Placemark>
<Placemark><name>Dealu Ursoiului</name><description>Nume: Dealu Ursoiului, Tip: ursoi, Nivel: 3, Județ: Arad, Formă: Deal, ID: 977 <br /><b>Variante</b><br />Nume: Dealu Ursoiului, Hartă: Geomil 25000, Limbă: Limba română<br />Nume: Dealul Ursoiului, Hartă: PDT, Limbă: Limba română</description><Point><coordinates>22.143209,46.497454</coordinates></Point></Placemark>
<Placemark><name>Dealu Ursoiu</name><description>Nume: Dealu Ursoiu, Tip: ursoi, Nivel: 3, Județ: Salaj, Formă: Deal, ID: 1069 <br /><b>Variante</b><br />Nume: Dealu Ursoiu, Hartă: Geomil 25000, Limbă: Limba română</description><Point><coordinates>22.582734,47.096721</coordinates></Point></Placemark>
<Placemark><name>Ursoiu</name><description>Nume: Ursoiu, Tip: ursoi, Nivel: 3, Județ: Alba, Formă: Altele, ID: 2566 <br /><b>Variante</b><br />Nume: Ursoiu, Hartă: Geomil 25000, Limbă: Limba română</description><Point><coordinates>23.237303,46.042865</coordinates></Point></Placemark>
<Placemark><name>Dealu Ursoi</name><description>Nume: Dealu Ursoi, Tip: ursoi, Nivel: 3, Județ: Satu Mare, Formă: Deal, ID: 2598 <br /><b>Variante</b><br />Nume: Dealu Ursoi, Hartă: Geomil 25000, Limbă: Limba română</description><Point><coordinates>23.329034,47.804315</coordinates></Point></Placemark>
<Placemark><name>Dealul Ursoiului</name><description>Nume: Dealul Ursoiului, Tip: ursoi, Nivel: 3, Județ: Bacau, Formă: Deal, ID: 3838 <br /><b>Variante</b><br />Nume: Dealul Ursoiului, Hartă: Geomil 25000, Limbă: Limba română</description><Point><coordinates>26.729302,46.474771</coordinates></Point></Placemark>
<Placemark><name>Pădurea Ursoiului</name><description>Nume: Pădurea Ursoiului, Tip: ursoi, Nivel: 3, Județ: Bacau, Formă: Pădure, ID: 3920 <br /><b>Variante</b><br />Nume: Pădurea Ursoiului, Hartă: Geomil 25000, Limbă: Limba română</description><Point><coordinates>27.201658,46.283990</coordinates></Point></Placemark>
<Placemark><name>Ursoiu</name><description>Nume: Ursoiu, Tip: ursoi, Nivel: 3, Județ: Bihor, Formă: Altele, ID: 4192 <br /><b>Variante</b><br />Nume: Ursoiu, Hartă: PDT, Limbă: Limba română</description><Point><coordinates>22.391586,47.210720</coordinates></Point></Placemark>
<Placemark><name>Valea Ursoiului</name><description>Nume: Valea Ursoiului, Tip: ursoi, Nivel: 3, Județ: Botosani, Formă: Vale, ID: 4887 <br /><b>Variante</b><br />Nume: Valea Ursoiului, Hartă: PDT, Limbă: Limba română</description><Point><coordinates>26.471843,48.180005</coordinates></Point></Placemark>
<Placemark><name>La Ursoiu</name><description>Nume: La Ursoiu, Tip: ursoi, Nivel: 3, Județ: Vrancea, Formă: Altele, ID: 5341 <br /><b>Variante</b><br />Nume: La Ursoiu, Hartă: PDT, Limbă: Limba română</description><Point><coordinates>27.111817,45.917337</coordinates></Point></Placemark>
<Placemark><name>Pădurea Ursoi</name><description>Nume: Pădurea Ursoi, Tip: ursoi, Nivel: 3, Județ: Satu Mare, Formă: Pădure, ID: 5964 <br /><b>Variante</b><br />Nume: Pădurea Ursoi, Hartă: Geomil 25000, Limbă: Limba română</description><Point><coordinates>23.265259,47.673808</coordinates></Point></Placemark>
<Placemark><name>Dealu Ursoi</name><description>Nume: Dealu Ursoi, Tip: ursoi, Nivel: 3, Județ: Satu Mare, Formă: Deal, ID: 5972 <br /><b>Variante</b><br />Nume: Dealu Ursoi, Hartă: Geomil 25000, Limbă: Limba română</description><Point><coordinates>23.286378,47.943312</coordinates></Point></Placemark>
<Placemark><name>Ozului B</name><description>Nume: Ozului B, Tip: ursoi, Nivel: 3, Județ: Hunedoara, Formă: Deal, ID: 6241 <br /><b>Variante</b><br />Nume: Dealu Ursoi, Hartă: Transilvania (1769-1773), Limbă: Limba română</description><Point><coordinates>22.898642,46.012189</coordinates></Point></Placemark>
<Placemark><name>Dealu Ursoi</name><description>Nume: Dealu Ursoi, Tip: ursoi, Nivel: 3, Județ: Hunedoara, Formă: Deal, ID: 6254 <br /><b>Variante</b><br />Nume: Dealu Ursoi, Hartă: Geomil 25000, Limbă: Limba română</description><Point><coordinates>22.888055,46.202468</coordinates></Point></Placemark>
<Placemark><name>Dealul Ursoilor</name><description>Nume: Dealul Ursoilor, Tip: ursoi, Nivel: 3, Județ: Iasi, Formă: Deal, ID: 6582 <br /><b>Variante</b><br />Nume: Dealul Ursoilor, Hartă: Geomil 25000, Limbă: Limba română</description><Point><coordinates>27.869450,46.959231</coordinates></Point></Placemark>
<Placemark><name>Dealu Ursoi</name><description>Nume: Dealu Ursoi, Tip: ursoi, Nivel: 3, Județ: Salaj, Formă: Deal, ID: 6946 <br /><b>Variante</b><br />Nume: Dealu Ursoi, Hartă: Geomil 25000, Limbă: Limba română</description><Point><coordinates>23.206105,47.391512</coordinates></Point></Placemark>
<Placemark><name>Dealul Ursoiu</name><description>Nume: Dealul Ursoiu, Tip: ursoi, Nivel: 3, Județ: Cluj, Formă: Deal, ID: 7023 <br /><b>Variante</b><br />Nume: Dealul Ursoiu, Hartă: Geomil 25000, Limbă: Limba română</description><Point><coordinates>22.871115,46.903527</coordinates></Point></Placemark>
<Placemark><name>Dealul Ursoiului</name><description>Nume: Dealul Ursoiului, Tip: ursoi, Nivel: 3, Județ: Maramures, Formă: Deal, ID: 7153 <br /><b>Variante</b><br />Nume: Dealul Ursoiului, Hartă: Geomil 25000, Limbă: Limba română</description><Point><coordinates>24.418215,47.653823</coordinates></Point></Placemark>
<Placemark><name>Dealul Ursoi</name><description>Nume: Dealul Ursoi, Tip: ursoi, Nivel: 3, Județ: Salaj, Formă: Deal, ID: 7537 <br /><b>Variante</b><br />Nume: Dealul Ursoi, Hartă: Geomil 25000, Limbă: Limba română</description><Point><coordinates>22.816515,47.056105</coordinates></Point></Placemark>
<Placemark><name>Ursoiul</name><description>Nume: Ursoiul, Tip: ursoi, Nivel: 3, Județ: Salaj, Formă: Altele, ID: 7559 <br /><b>Variante</b><br />Nume: Ursoiul, Hartă: PDT, Limbă: Limba română</description><Point><coordinates>23.209612,47.183270</coordinates></Point></Placemark>
<Placemark><name>Vârful Ursoiului</name><description>Nume: Vârful Ursoiului, Tip: ursoi, Nivel: 3, Județ: Maramures, Formă: Înălțime, ID: 8249 <br /><b>Variante</b><br />Nume: Vârful Ursoiului, Hartă: PDT, Limbă: Limba română</description><Point><coordinates>24.021075,47.491657</coordinates></Point></Placemark>
<Placemark><name>Dealul Ursoiul</name><description>Nume: Dealul Ursoiul, Tip: ursoi, Nivel: 3, Județ: Hunedoara, Formă: Deal, ID: 9009 <br /><b>Variante</b><br />Nume: Dealul Ursoiul, Hartă: PDT, Limbă: Limba română<br />Nume: Dealu Ursoiu, Hartă: Geomil 25000, Limbă: Limba română</description><Point><coordinates>22.882169,45.963420</coordinates></Point></Placemark>
<Placemark><name>Dealu Ursoiu Mic</name><description>Nume: Dealu Ursoiu Mic, Tip: ursoi, Nivel: 3, Județ: Hunedoara, Formă: Deal, ID: 9011 <br /><b>Variante</b><br />Nume: Dealu Ursoiu Mic, Hartă: Geomil 25000, Limbă: Limba română</description><Point><coordinates>22.935513,45.952652</coordinates></Point></Placemark>
<Placemark><name>Dealu Ursoiului</name><description>Nume: Dealu Ursoiului, Tip: ursoi, Nivel: 3, Județ: Hunedoara, Formă: Deal, ID: 9013 <br /><b>Variante</b><br />Nume: Dealu Ursoiului, Hartă: Geomil 25000, Limbă: Limba română</description><Point><coordinates>22.706154,45.852642</coordinates></Point></Placemark>
<Placemark><name>Dealu Ursoi</name><description>Nume: Dealu Ursoi, Tip: ursoi, Nivel: 3, Județ: Hunedoara, Formă: Deal, ID: 9014 <br /><b>Variante</b><br />Nume: Dealu Ursoi, Hartă: Geomil 25000, Limbă: Limba română<br />Nume: Dealul Ursoi, Hartă: PDT, Limbă: Limba română</description><Point><coordinates>22.727551,45.887919</coordinates></Point></Placemark>
<Placemark><name>Pădurea Ursoiului</name><description>Nume: Pădurea Ursoiului, Tip: ursoi, Nivel: 3, Județ: Bacau, Formă: Pădure, ID: 9634 <br /><b>Variante</b><br />Nume: Pădurea Ursoiului, Hartă: Geomil 25000, Limbă: Limba română</description><Point><coordinates>27.365393,46.426353</coordinates></Point></Placemark>
<Placemark><name>Dealul Ursoiu</name><description>Nume: Dealul Ursoiu, Tip: ursoi, Nivel: 3, Județ: Vaslui, Formă: Deal, ID: 9637 <br /><b>Variante</b><br />Nume: Dealul Ursoiu, Hartă: Moldova (1892-1898), Limbă: Limba română<br />Nume: Dealul Ursoiului, Hartă: Geomil 25000, Limbă: Limba română</description><Point><coordinates>27.554632,46.417504</coordinates></Point></Placemark>
<Placemark><name>Vârfu Ursoiu</name><description>Nume: Vârfu Ursoiu, Tip: ursoi, Nivel: 3, Județ: Hunedoara, Formă: Înălțime, ID: 9660 <br /><b>Variante</b><br />Nume: Vârfu Ursoiu, Hartă: Geomil 25000, Limbă: Limba română</description><Point><coordinates>23.197742,46.001265</coordinates></Point></Placemark>
<Placemark><name>Vârful Ursoiului</name><description>Nume: Vârful Ursoiului, Tip: ursoi, Nivel: 3, Județ: Bistrita Nasaud, Formă: Înălțime, ID: 9866 <br /><b>Variante</b><br />Nume: Vârful Ursoiului, Hartă: Geomil 25000, Limbă: Limba română</description><Point><coordinates>24.641307,47.323675</coordinates></Point></Placemark>
<Placemark><name>Pădurea Ursoi</name><description>Nume: Pădurea Ursoi, Tip: ursoi, Nivel: 3, Județ: Bihor, Formă: Pădure, ID: 10826 <br /><b>Variante</b><br />Nume: Pădurea Ursoi, Hartă: Geomil 25000, Limbă: Limba română<br />Nume: Pădurea Ursoi, Hartă: Imperiul Habsburgic (1887), Limbă: Limba română</description><Point><coordinates>23.162570,47.494139</coordinates></Point></Placemark>
<Placemark><name>Cioka Ursoiui</name><description>Nume: Cioka Ursoiui, Tip: ursoi, Nivel: 3, Județ: Arad, Formă: Înălțime, ID: 10874 <br /><b>Variante</b><br />Nume: Cioka Ursoiui, Hartă: Ungară 1869, Limbă: Limba română</description><Point><coordinates>22.156191,46.119693</coordinates></Point></Placemark>
<Placemark><name>Valea Ursoiului</name><description>Nume: Valea Ursoiului, Tip: ursoi, Nivel: 3, Județ: Maramures, Formă: Vale, ID: 11521 <br /><b>Variante</b><br />Nume: Valea Ursoiului, Hartă: Geomil 25000, Limbă: Limba română</description><Point><coordinates>24.257864,47.605162</coordinates></Point></Placemark>
<Placemark><name>Dealul Ursoiu</name><description>Nume: Dealul Ursoiu, Tip: ursoi, Nivel: 3, Județ: Satu Mare, Formă: Deal, ID: 11987 <br /><b>Variante</b><br />Nume: Dealul Ursoiu, Hartă: PDT, Limbă: Limba română</description><Point><coordinates>23.195382,47.949137</coordinates></Point></Placemark>
<Placemark><name>Ursoilor</name><description>Nume: Ursoilor, Tip: ursoi, Nivel: 3, Județ: Bacau, Formă: Vale, ID: 12030 <br /><b>Variante</b><br />Nume: Ursoilor, Hartă: Moldova (1788-1790), Limbă: Limba română</description><Point><coordinates>26.685909,46.532763</coordinates></Point></Placemark>
<Placemark><name>Ursoiu</name><description>Nume: Ursoiu, Tip: ursoi, Nivel: 3, Județ: Salaj, Formă: Înălțime, ID: 12511 <br /><b>Variante</b><br />Nume: Ursoiu, Hartă: Geomil 25000, Limbă: Limba română</description><Point><coordinates>22.643432,47.366309</coordinates></Point></Placemark>
<Placemark><name>Pârâul Ursoiu</name><description>Nume: Pârâul Ursoiu, Tip: ursoi, Nivel: 3, Județ: Arges, Formă: Vale, ID: 12584 <br /><b>Variante</b><br />Nume: Pârâul Ursoiu, Hartă: British Maps (1944), Limbă: Limba română</description><Point><coordinates>24.517666,45.343047</coordinates></Point></Placemark>
<Placemark><name>Valea Ursoiului</name><description>Nume: Valea Ursoiului, Tip: ursoi, Nivel: 3, Județ: Vrancea, Formă: Vale, ID: 13045 <br /><b>Variante</b><br />Nume: Valea Ursoiului, Hartă: Geomil 25000, Limbă: Limba română</description><Point><coordinates>26.937277,45.943149</coordinates></Point></Placemark>
<Placemark><name>Plaiul Ursoiului</name><description>Nume: Plaiul Ursoiului, Tip: ursoi, Nivel: 3, Județ: Bacau, Formă: Înălțime, ID: 13597 <br /><b>Variante</b><br />Nume: Plaiul Ursoiului, Hartă: PDT, Limbă: Limba română</description><Point><coordinates>26.750150,46.142376</coordinates></Point></Placemark></Document></kml>