<?xml version="1.0" encoding="UTF-8"?><kml xmlns="http://www.opengis.net/kml/2.2"><Document><Placemark><name>Lacul Ursoaica-Mică</name><description>Nume: Lacul Ursoaica-Mică, Tip: ursoaică, Nivel: 3, Județ: Giurgiu, Formă: Lac, ID: 3737, ID Părinte: 3735 <br /><b>Variante</b><br />Nume: Lacul Ursoaica-Mică, Hartă: PDT, Limbă: Limba română</description><Point><coordinates>25.658324,44.445423,0</coordinates></Point></Placemark>
<Placemark><LineString id="3737_3735"><tessellate>1</tessellate><coordinates>25.658324,44.445423,0.
25.657481,44.446782,0</coordinates></LineString><Style><LineStyle><width>3</width></LineStyle></Style></Placemark>
<Placemark><name>Lacul Ursoaicei</name><description>Nume: Lacul Ursoaicei, Tip: ursoaică, Nivel: 3, Județ: Giurgiu, Formă: Lac, ID: 3735 <br /><b>Variante</b><br />Nume: Lacul Ursoaicei, Hartă: PDT, Limbă: Limba română</description><Point><coordinates>25.657481,44.446782,0</coordinates></Point></Placemark>
<Placemark><name>Rovina-Ursoaicei</name><description>Nume: Rovina-Ursoaicei, Tip: ursoaică, Nivel: 3, Județ: Giurgiu, Formă: Altele, ID: 3738, ID Părinte: 3735 <br /><b>Variante</b><br />Nume: Rovina-Ursoaicei, Hartă: PDT, Limbă: Limba română</description><Point><coordinates>25.662123,44.446670,0</coordinates></Point></Placemark>
<Placemark><LineString id="3738_3735"><tessellate>1</tessellate><coordinates>25.662123,44.446670,0.
25.657481,44.446782,0</coordinates></LineString><Style><LineStyle><width>3</width></LineStyle></Style></Placemark>
<Placemark><name>Dealu Ursoaicii</name><description>Nume: Dealu Ursoaicii, Tip: ursoaică, Nivel: 3, Județ: Hunedoara, Formă: Deal, ID: 945 <br /><b>Variante</b><br />Nume: Dealu Ursoaicii, Hartă: Geomil 25000, Limbă: Limba română</description><Point><coordinates>22.492740,46.048178,0</coordinates></Point></Placemark>
<Placemark><name>Pârâu Ursoiții</name><description>Nume: Pârâu Ursoiții, Tip: ursoaică, Nivel: 3, Județ: Hunedoara, Formă: Vale, ID: 946, ID Părinte: 945 <br /><b>Variante</b><br />Nume: Pârâu Ursoiții, Hartă: Geomil 25000, Limbă: Limba română</description><Point><coordinates>22.494941,46.051041,0</coordinates></Point></Placemark>
<Placemark><LineString id="946_945"><tessellate>1</tessellate><coordinates>22.494941,46.051041,0.
22.492740,46.048178,0</coordinates></LineString><Style><LineStyle><width>3</width></LineStyle></Style></Placemark>
<Placemark><name>Ursoaica</name><description>Nume: Ursoaica, Tip: ursoaică, Nivel: 3, Județ: Neamt, Formă: Înălțime, ID: 2063 <br /><b>Variante</b><br />Nume: Ursoaica, Hartă: Geomil 25000, Limbă: Limba română</description><Point><coordinates>26.023958,47.214656,0</coordinates></Point></Placemark>
<Placemark><name>Pârâul Ursoaicei</name><description>Nume: Pârâul Ursoaicei, Tip: ursoaică, Nivel: 3, Județ: Suceava, Formă: Vale, ID: 7259 <br /><b>Variante</b><br />Nume: Pârâul Ursoaicei, Hartă: PDT, Limbă: Limba română</description><Point><coordinates>26.120082,47.894919,0</coordinates></Point></Placemark>
<Placemark><name>Valea Ursoaica</name><description>Nume: Valea Ursoaica, Tip: ursoaică, Nivel: 3, Județ: Valcea, Formă: Vale, ID: 13526 <br /><b>Variante</b><br />Nume: Valea Ursoaica, Hartă: PDT, Limbă: Limba română</description><Point><coordinates>24.484711,44.950331,0</coordinates></Point></Placemark>
<Placemark><name>Dealul Ursoaicei</name><description>Nume: Dealul Ursoaicei, Tip: ursoaică, Nivel: 3, Județ: Vaslui, Formă: Deal, ID: 15631 <br /><b>Variante</b><br />Nume: Dealul Ursoaicei, Hartă: Moldova (1892-1898), Limbă: Limba română</description><Point><coordinates>27.840525,46.810404,0</coordinates></Point></Placemark></Document></kml>