<?xml version="1.0" encoding="UTF-8"?><kml xmlns="http://www.opengis.net/kml/2.2"><Document><Placemark><name>Dealul Cerboaiei</name><description>Nume: Dealul Cerboaiei, Tip: cerboaie, Nivel: 3, Județ: Dolj, Formă: Deal, ID: 385 <br /><b>Variante</b><br />Nume: Dealul Cerboaiei, Hartă: Geomil 25000, Limbă: Limba română</description><Point><coordinates>23.884358,44.579321</coordinates></Point></Placemark>
<Placemark><name>Vârfu Cerboaia</name><description>Nume: Vârfu Cerboaia, Tip: cerboaie, Nivel: 3, Județ: Arad, Formă: Înălțime, ID: 1946 <br /><b>Variante</b><br />Nume: Vârfu Cerboaia, Hartă: Geomil 25000, Limbă: Limba română</description><Point><coordinates>22.121037,46.250285</coordinates></Point></Placemark>
<Placemark><name>Valea Cerboaiei</name><description>Nume: Valea Cerboaiei, Tip: cerboaie, Nivel: 3, Județ: Dolj, Formă: Vale, ID: 4704 <br /><b>Variante</b><br />Nume: Valea Cerboaiei, Hartă: Geomil 25000, Limbă: Limba română</description><Point><coordinates>23.640450,44.404451</coordinates></Point></Placemark>
<Placemark><name>Dealu Cerboaia</name><description>Nume: Dealu Cerboaia, Tip: cerboaie, Nivel: 3, Județ: Maramures, Formă: Deal, ID: 9928 <br /><b>Variante</b><br />Nume: Dealu Cerboaia, Hartă: Geomil 25000, Limbă: Limba română</description><Point><coordinates>23.380414,47.413171</coordinates></Point></Placemark>
<Placemark><name>Dosul Cerboaei</name><description>Nume: Dosul Cerboaei, Tip: cerboaie, Nivel: 3, Județ: Salaj, Formă: Înălțime, ID: 10384 <br /><b>Variante</b><br />Nume: Dosul Cerboaei, Hartă: PDT, Limbă: Limba română</description><Point><coordinates>23.152634,47.117951</coordinates></Point></Placemark></Document></kml>