<?xml version="1.0" encoding="UTF-8"?><kml xmlns="http://www.opengis.net/kml/2.2"><Document><Placemark><name>Dealul Lipoveanului</name><description>Nume: Dealul Lipoveanului, Tip: lipovean, Nivel: 3, Județ: Botosani, Formă: Deal, ID: 1818 <br /><b>Variante</b><br />Nume: Dealul Lipoveanului, Hartă: Geomil 25000, Limbă: Limba română</description><Point><coordinates>26.891335,48.016603,0</coordinates></Point></Placemark>
<Placemark><name>Iazul Lipoveanului</name><description>Nume: Iazul Lipoveanului, Tip: lipovean, Nivel: 3, Județ: Botosani, Formă: Apă-deal-câmpie, ID: 2414 <br /><b>Variante</b><br />Nume: Iazul Lipoveanului, Hartă: Geomil 25000, Limbă: Limba română</description><Point><coordinates>26.733835,47.797612,0</coordinates></Point></Placemark>
<Placemark><name>La Iazul Lipoveanului</name><description>Nume: La Iazul Lipoveanului, Tip: lipovean, Nivel: 3, Județ: Botosani, Formă: Apă-deal-câmpie, ID: 2404 <br /><b>Variante</b><br />Nume: La Iazul Lipoveanului, Hartă: Geomil 25000, Limbă: Limba română</description><Point><coordinates>26.978280,48.054532,0</coordinates></Point></Placemark>
<Placemark><name>Valea La Iazul Lipoveanului</name><description>Nume: Valea La Iazul Lipoveanului, Tip: lipovean, Nivel: 3, Județ: Botosani, Formă: Vale, ID: 1817 <br /><b>Variante</b><br />Nume: lipovean, Hartă: Geomil 25000, Limbă: Limba română</description><Point><coordinates>26.897288,48.011360,0</coordinates></Point></Placemark>
<Placemark><name>Valea Lipoveanului</name><description>Nume: Valea Lipoveanului, Tip: lipovean, Nivel: 3, Județ: Botosani, Formă: Vale, ID: 2393 <br /><b>Variante</b><br />Nume: Valea Lipoveanului, Hartă: Geomil 25000, Limbă: Limba română</description><Point><coordinates>27.094552,47.926629,0</coordinates></Point></Placemark>
<Placemark><name>La Lipoveni</name><description>Nume: La Lipoveni, Tip: lipoveni, Nivel: 2, Județ: Botosani, Formă: Altele, ID: 2356 <br /><b>Variante</b><br />Nume: La Lipoveni, Hartă: Geomil 25000, Limbă: Limba română</description><Point><coordinates>26.849568,47.685225,0</coordinates></Point></Placemark>
<Placemark><name>Lacul Lipovenii</name><description>Nume: Lacul Lipovenii, Tip: lipoveni, Nivel: 2, Județ: Botosani, Formă: Lac, ID: 9732 <br /><b>Variante</b><br />Nume: Lacul Lipovenii, Hartă: Moldova (1892-1898), Limbă: Limba română</description><Point><coordinates>26.726429,47.636293,0</coordinates></Point></Placemark>
<Placemark><name>Lipoveni</name><description>Nume: Lipoveni, Tip: lipoveni, Nivel: 2, Județ: Botosani, Formă: Localitate, ID: 7780 <br /><b>Variante</b><br />Nume: Lipoveni, Hartă: PDT, Limbă: Limba română</description><Point><coordinates>26.567655,47.650393,0</coordinates></Point></Placemark>
<Placemark><name>Valea Iazul Lipovenilor</name><description>Nume: Valea Iazul Lipovenilor, Tip: lipoveni, Nivel: 2, Județ: Botosani, Formă: Vale, ID: 2337 <br /><b>Variante</b><br />Nume: Valea Iazul Lipovenilor, Hartă: Geomil 25000, Limbă: Limba română</description><Point><coordinates>26.615284,47.945140,0</coordinates></Point></Placemark>
<Placemark><name>Crucea Lipoveanului</name><description>Nume: Crucea Lipoveanului, Tip: lipovean, Nivel: 3, Județ: Braila, Formă: Altele, ID: 3597 <br /><b>Variante</b><br />Nume: Crucea Lipoveanului, Hartă: Geomil 25000, Limbă: Limba română</description><Point><coordinates>27.756900,44.887766,0</coordinates></Point></Placemark>
<Placemark><name>Movila Lipovanului</name><description>Nume: Movila Lipovanului, Tip: lipovean, Nivel: 3, Județ: Braila, Formă: Înălțime, ID: 3473 <br /><b>Variante</b><br />Nume: Movila Lipovanului, Hartă: PDT, Limbă: Limba română</description><Point><coordinates>27.855730,44.895512,0</coordinates></Point></Placemark>
<Placemark><name>Satul Lipovenesc</name><description>Nume: Satul Lipovenesc, Tip: lipoveni, Nivel: 2, Județ: Braila, Formă: Localitate, ID: 3493 <br /><b>Variante</b><br />Nume: Satul Lipovenesc, Hartă: PDT, Limbă: Limba română<br />Nume: Satu lipovenesk, Hartă: Austriacă, Limbă: Limba română</description><Point><coordinates>27.974222,45.305651,0</coordinates></Point></Placemark>
<Placemark><name>Ruinen von Lipoveni (Ruinele Lipovenilor)</name><description>Nume: Ruinen von Lipoveni (Ruinele Lipovenilor), Tip: lipoveni, Nivel: 2, Județ: Constanta, Formă: Localitate, ID: 9978 <br /><b>Variante</b><br />Nume: Ruinen von Lipoveni (Ruinele Lipovenilor), Hartă: Austriacă, Limbă: Limba germană</description><Point><coordinates>28.086278,44.500228,0</coordinates></Point></Placemark>
<Placemark><name>Fântâna Lipoveanului</name><description>Nume: Fântâna Lipoveanului, Tip: lipovean, Nivel: 3, Județ: Dolj, Formă: Altele, ID: 11795 <br /><b>Variante</b><br />Nume: Fântâna Lipoveanului, Hartă: Geomil 25000, Limbă: Limba română</description><Point><coordinates>23.760833,43.879703,0</coordinates></Point></Placemark>
<Placemark><name>Foișoru Lipoviencii</name><description>Nume: Foișoru Lipoviencii, Tip: lipoveancă, Nivel: 3, Județ: Giurgiu, Formă: Altele, ID: 5776 <br /><b>Variante</b><br />Nume: Foișoru Lipoviencii, Hartă: Austriacă, Limbă: Limba română</description><Point><coordinates>25.694141,44.408256,0</coordinates></Point></Placemark>
<Placemark><name>Dealul Lipoveanului</name><description>Nume: Dealul Lipoveanului, Tip: lipovean, Nivel: 3, Județ: Iasi, Formă: Deal, ID: 6614 <br /><b>Variante</b><br />Nume: Dealul Lipoveanului, Hartă: PDT, Limbă: Limba română</description><Point><coordinates>27.011195,47.293770,0</coordinates></Point></Placemark>
<Placemark><name>Hârtopul Lipovanului</name><description>Nume: Hârtopul Lipovanului, Tip: lipovean, Nivel: 3, Județ: Iasi, Formă: Înălțime, ID: 4832 <br /><b>Variante</b><br />Nume: Hârtopul Lipovanului, Hartă: PDT, Limbă: Limba română</description><Point><coordinates>27.489552,47.201532,0</coordinates></Point></Placemark>
<Placemark><name>La Lipovanca</name><description>Nume: La Lipovanca, Tip: lipoveancă, Nivel: 3, Județ: Iasi, Formă: Altele, ID: 9571 <br /><b>Variante</b><br />Nume: La Lipovanca, Hartă: Moldova (1892-1898), Limbă: Limba română</description><Point><coordinates>27.891147,47.069018,0</coordinates></Point></Placemark>
<Placemark><name>Curătura La Lipoveni</name><description>Nume: Curătura La Lipoveni, Tip: lipoveni, Nivel: 2, Județ: Iasi, Formă: Altele, ID: 2240 <br /><b>Variante</b><br />Nume: Curătura La Lipoveni, Hartă: Geomil 25000, Limbă: Limba română</description><Point><coordinates>26.689371,47.180191,0</coordinates></Point></Placemark>
<Placemark><name>La Lipoveni</name><description>Nume: La Lipoveni, Tip: lipoveni, Nivel: 2, Județ: Iasi, Formă: Altele, ID: 6639 <br /><b>Variante</b><br />Nume: La Lipoveni, Hartă: PDT, Limbă: Limba română</description><Point><coordinates>27.183986,47.310582,0</coordinates></Point></Placemark>
<Placemark><name>Valea Lipovenilor</name><description>Nume: Valea Lipovenilor, Tip: lipoveni, Nivel: 2, Județ: Iasi, Formă: Vale, ID: 11775 <br /><b>Variante</b><br />Nume: Valea Lipovenilor, Hartă: PDT, Limbă: Limba română</description><Point><coordinates>27.047757,47.322047,0</coordinates></Point></Placemark>
<Placemark><name>Bârjoveni Lipoveni</name><description>Nume: Bârjoveni Lipoveni, Tip: lipoveni, Nivel: 2, Județ: Neamt, Formă: Localitate, ID: 12633 <br /><b>Variante</b><br />Nume: Bârjoveni Lipoveni, Hartă: Moldova (1892-1898), Limbă: Limba română</description><Point><coordinates>26.726244,46.801600,0</coordinates></Point></Placemark>
<Placemark><name>Cartierul Lipoveni</name><description>Nume: Cartierul Lipoveni, Tip: lipoveni, Nivel: 2, Județ: Neamt, Formă: Localitate, ID: 6485 <br /><b>Variante</b><br />Nume: Cartierul Lipoveni, Hartă: PDT, Limbă: Limba română</description><Point><coordinates>26.354518,46.932628,0</coordinates></Point></Placemark>
<Placemark><name>La Scutul Lipovenillor</name><description>Nume: La Scutul Lipovenillor, Tip: lipoveni, Nivel: 2, Județ: Neamt, Formă: Altele, ID: 2022 <br /><b>Variante</b><br />Nume: La Scutul Lipovenillor, Hartă: Geomil 25000, Limbă: Limba română<br />Nume: Schitul Lipovenilor, Hartă: PDT, Limbă: Limba română</description><Point><coordinates>26.330521,46.888926,0</coordinates></Point></Placemark>
<Placemark><name>Lipoweny</name><description>Nume: Lipoweny, Tip: lipoveni, Nivel: 2, Județ: Neamt, Formă: Localitate, ID: 12759 <br /><b>Variante</b><br />Nume: Lipoweny, Hartă: Moldova (1788-1790), Limbă: Limba română</description><Point><coordinates>26.855232,46.900592,0</coordinates></Point></Placemark>
<Placemark><name>Lipoven</name><description>Nume: Lipoven, Tip: lipoveni, Nivel: 2, Județ: Prahova, Formă: Localitate, ID: 12117 <br /><b>Variante</b><br />Nume: Lipoven, Hartă: Oltenia-Muntenia (1790), Limbă: Limba română</description><Point><coordinates>25.859406,44.833931,0</coordinates></Point></Placemark>
<Placemark><name>Pădurea Cabana Lipoveanului</name><description>Nume: Pădurea Cabana Lipoveanului, Tip: lipovean, Nivel: 3, Județ: Suceava, Formă: Pădure, ID: 2275 <br /><b>Variante</b><br />Nume: Pădurea Cabana Lipoveanului, Hartă: Geomil 25000, Limbă: Limba română</description><Point><coordinates>25.814896,47.656395,0</coordinates></Point></Placemark>
<Placemark><name>Pârâul Lipovanului</name><description>Nume: Pârâul Lipovanului, Tip: lipovean, Nivel: 3, Județ: Suceava, Formă: Vale, ID: 7267 <br /><b>Variante</b><br />Nume: Pârâul Lipovanului, Hartă: PDT, Limbă: Limba română</description><Point><coordinates>26.265801,47.826782,0</coordinates></Point></Placemark>
<Placemark><name>Lipoveni</name><description>Nume: Lipoveni, Tip: lipoveni, Nivel: 2, Județ: Suceava, Formă: Localitate, ID: 2299 <br /><b>Variante</b><br />Nume: Lipoveni, Hartă: Geomil 25000, Limbă: Limba română<br />Nume: Lipoveni, Hartă: PDT, Limbă: Limba română</description><Point><coordinates>26.224094,47.723368,0</coordinates></Point></Placemark>
<Placemark><name>Canalu Lipovenilor</name><description>Nume: Canalu Lipovenilor, Tip: lipoveni, Nivel: 2, Județ: Teleorman, Formă: Altele, ID: 1344 <br /><b>Variante</b><br />Nume: Canalu Lipovenilor, Hartă: Geomil 25000, Limbă: Limba română</description><Point><coordinates>25.180624,43.715917,0</coordinates></Point></Placemark>
<Placemark><name>Valea Lipoveanului</name><description>Nume: Valea Lipoveanului, Tip: lipovean, Nivel: 3, Județ: Tulcea, Formă: Vale, ID: 2896 <br /><b>Variante</b><br />Nume: Valea Lipoveanului, Hartă: Geomil 25000, Limbă: Limba română</description><Point><coordinates>28.547722,45.143869,0</coordinates></Point></Placemark>
<Placemark><name>Canalul Lipovenesc</name><description>Nume: Canalul Lipovenesc, Tip: lipovenesc, Nivel: 3, Județ: Tulcea, Formă: Apă-deal-câmpie, ID: 12907 <br /><b>Variante</b><br />Nume: Canalul Lipovenesc, Hartă: Geomil 25000, Limbă: Limba română</description><Point><coordinates>29.217466,45.034196,0</coordinates></Point></Placemark>
<Placemark><name>Canalul Lipovenilor</name><description>Nume: Canalul Lipovenilor, Tip: lipoveni, Nivel: 2, Județ: Tulcea, Formă: Apă-deal-câmpie, ID: 9290 <br /><b>Variante</b><br />Nume: Canalul Lipovenilor, Hartă: Geomil 25000, Limbă: Limba română</description><Point><coordinates>29.081336,44.993227,0</coordinates></Point></Placemark>
<Placemark><name>Mahalaua Lipovenilor</name><description>Nume: Mahalaua Lipovenilor, Tip: lipoveni, Nivel: 2, Județ: Vaslui, Formă: Localitate, ID: 9542 <br /><b>Variante</b><br />Nume: Mahalaua Lipovenilor, Hartă: Moldova (1892-1898), Limbă: Limba română</description><Point><coordinates>27.735659,46.645263,0</coordinates></Point></Placemark></Document></kml>