<?xml version="1.0" encoding="UTF-8"?><kml xmlns="http://www.opengis.net/kml/2.2"><Document><Placemark><name>Dealul Comanei</name><description>Nume: Dealul Comanei, Tip: comana, Nivel: 3, Județ: Bacau, Formă: Deal, ID: 4605 <br /><b>Variante</b><br />Nume: Dealul Comanei, Hartă: Geomil 25000, Limbă: Limba română</description><Point><coordinates>26.441799,46.649476,0</coordinates></Point></Placemark>
<Placemark><name>Comana</name><description>Nume: Comana, Tip: comana, Nivel: 3, Județ: Brasov, Formă: Localitate, ID: 4939 <br /><b>Variante</b><br />Nume: Comana, Hartă: Geomil 25000, Limbă: Limba română</description><Point><coordinates>25.229874,45.913244,0</coordinates></Point></Placemark>
<Placemark><name>Comana de Sus</name><description>Nume: Comana de Sus, Tip: comana, Nivel: 3, Județ: Brasov, Formă: Localitate, ID: 4940, ID Părinte: 4939 <br /><b>Variante</b><br />Nume: Comana de Sus, Hartă: Geomil 25000, Limbă: Limba română</description><Point><coordinates>25.266294,45.896352,0</coordinates></Point></Placemark>
<Placemark><LineString id="4940_4939"><tessellate>1</tessellate><coordinates>25.266294,45.896352,0.
25.229874,45.913244,0</coordinates></LineString><Style><LineStyle><width>3</width></LineStyle></Style></Placemark>
<Placemark><name>Valea Comana</name><description>Nume: Valea Comana, Tip: comana, Nivel: 3, Județ: Brasov, Formă: Vale, ID: 4941, ID Părinte: 4939 <br /><b>Variante</b><br />Nume: Valea Comana, Hartă: Geomil 25000, Limbă: Limba română</description><Point><coordinates>25.252484,45.901257,0</coordinates></Point></Placemark>
<Placemark><LineString id="4941_4939"><tessellate>1</tessellate><coordinates>25.252484,45.901257,0.
25.229874,45.913244,0</coordinates></LineString><Style><LineStyle><width>3</width></LineStyle></Style></Placemark>
<Placemark><name>Comana</name><description>Nume: Comana, Tip: comana, Nivel: 3, Județ: Giurgiu, Formă: Localitate, ID: 3148 <br /><b>Variante</b><br />Nume: Comana, Hartă: Geomil 25000, Limbă: Limba română</description><Point><coordinates>26.147751,44.173871,0</coordinates></Point></Placemark>
<Placemark><name>Lacu Comana</name><description>Nume: Lacu Comana, Tip: comana, Nivel: 3, Județ: Ialomita, Formă: Lac, ID: 11275 <br /><b>Variante</b><br />Nume: Lacu Comana, Hartă: Geomil 25000, Limbă: Limba română</description><Point><coordinates>26.515011,44.672774,0</coordinates></Point></Placemark>
<Placemark><name>Comana</name><description>Nume: Comana, Tip: comana, Nivel: 3, Județ: Sibiu, Formă: Altele, ID: 10577 <br /><b>Variante</b><br />Nume: Comana, Hartă: Imperiul Habsburgic (1887), Limbă: Limba română</description><Point><coordinates>24.653467,45.983330,0</coordinates></Point></Placemark></Document></kml>