<?xml version="1.0" encoding="UTF-8"?><kml xmlns="http://www.opengis.net/kml/2.2"><Document><Placemark><name>Pârâu Barcău</name><description>Nume: Pârâu Barcău, Tip: barcău, Nivel: 3, Județ: Arad, Formă: Vale, ID: 13931 <br /><b>Variante</b><br />Nume: Pârâu Barcău, Hartă: Geomil 25000, Limbă: Limba română</description><Point><coordinates>21.868816,46.616763,0</coordinates></Point></Placemark>
<Placemark><name>Valea lui Bărcan</name><description>Nume: Valea lui Bărcan, Tip: bărcan, Nivel: 2, Județ: Arges, Formă: Vale, ID: 3389 <br /><b>Variante</b><br />Nume: Valea lui Bărcan, Hartă: Geomil 25000, Limbă: Limba română</description><Point><coordinates>25.071786,44.432441,0</coordinates></Point></Placemark>
<Placemark><name>Bărcana</name><description>Nume: Bărcana, Tip: bărcana, Nivel: 3, Județ: Bacau, Formă: Localitate, ID: 9600 <br /><b>Variante</b><br />Nume: Bărcana, Hartă: Moldova (1892-1898), Limbă: Limba română</description><Point><coordinates>27.361068,46.487479,0</coordinates></Point></Placemark>
<Placemark><name>Barcanul</name><description>Nume: Barcanul, Tip: barcan, Nivel: 3, Județ: Braila, Formă: Apă-deal-câmpie, ID: 9263 <br /><b>Variante</b><br />Nume: Barcanul, Hartă: PDT, Limbă: Limba română</description><Point><coordinates>28.033812,45.147966,0</coordinates></Point></Placemark>
<Placemark><name>Dealul Bărcanului</name><description>Nume: Dealul Bărcanului, Tip: bărcan, Nivel: 2, Județ: Cluj, Formă: Deal, ID: 10405 <br /><b>Variante</b><br />Nume: Dealul Bărcanului, Hartă: PDT, Limbă: Limba română</description><Point><coordinates>23.449490,46.895913,0</coordinates></Point></Placemark>
<Placemark><name>Barcani</name><description>Nume: Barcani, Tip: barcan, Nivel: 3, Județ: Covasna, Formă: Înălțime, ID: 6052, ID Părinte: 6054 <br /><b>Variante</b><br />Nume: Barcani, Hartă: Geomil 25000, Limbă: Limba română</description><Point><coordinates>26.079374,45.683035,0</coordinates></Point></Placemark>
<Placemark><LineString id="6052_6054"><tessellate>1</tessellate><coordinates>26.079374,45.683035,0.
26.095646,45.704556,0</coordinates></LineString><Style><LineStyle><width>3</width></LineStyle></Style></Placemark>
<Placemark><name>Barcani</name><description>Nume: Barcani, Tip: barcan, Nivel: 3, Județ: Covasna, Formă: Localitate, ID: 6054 <br /><b>Variante</b><br />Nume: Barcani, Hartă: Geomil 25000, Limbă: Limba română</description><Point><coordinates>26.095646,45.704556,0</coordinates></Point></Placemark>
<Placemark><name>Valea Barcani</name><description>Nume: Valea Barcani, Tip: barcan, Nivel: 3, Județ: Covasna, Formă: Vale, ID: 6053, ID Părinte: 6054 <br /><b>Variante</b><br />Nume: Valea Barcani, Hartă: Geomil 25000, Limbă: Limba română</description><Point><coordinates>26.067671,45.683798,0</coordinates></Point></Placemark>
<Placemark><LineString id="6053_6054"><tessellate>1</tessellate><coordinates>26.067671,45.683798,0.
26.095646,45.704556,0</coordinates></LineString><Style><LineStyle><width>3</width></LineStyle></Style></Placemark>
<Placemark><name>Dealul Barcan</name><description>Nume: Dealul Barcan, Tip: barcan, Nivel: 3, Județ: Dolj, Formă: Deal, ID: 8091 <br /><b>Variante</b><br />Nume: Dealul Barcan, Hartă: PDT, Limbă: Limba română</description><Point><coordinates>23.189418,44.207006,0</coordinates></Point></Placemark>
<Placemark><name>Valea Barcan</name><description>Nume: Valea Barcan, Tip: barcan, Nivel: 3, Județ: Dolj, Formă: Vale, ID: 8092, ID Părinte: 8091 <br /><b>Variante</b><br />Nume: Valea Barcan, Hartă: PDT, Limbă: Limba română</description><Point><coordinates>23.190054,44.203837,0</coordinates></Point></Placemark>
<Placemark><LineString id="8092_8091"><tessellate>1</tessellate><coordinates>23.190054,44.203837,0.
23.189418,44.207006,0</coordinates></LineString><Style><LineStyle><width>3</width></LineStyle></Style></Placemark>
<Placemark><name>Lipoveanca-Bărcăneasca</name><description>Nume: Lipoveanca-Bărcăneasca, Tip: bărcăneasca, Nivel: 3, Județ: Giurgiu, Formă: Localitate, ID: 10107 <br /><b>Variante</b><br />Nume: Lipoveanca-Bărcăneasca, Hartă: PDT, Limbă: Limba română</description><Point><coordinates>25.677187,44.369961,0</coordinates></Point></Placemark>
<Placemark><name>Pădurea Bărcănești</name><description>Nume: Pădurea Bărcănești, Tip: bărcan, Nivel: 2, Județ: Ialomita, Formă: Pădure, ID: 3180, ID Părinte: 3179 <br /><b>Variante</b><br />Nume: Pădurea Bărcănești, Hartă: Geomil 25000, Limbă: Limba română</description><Point><coordinates>26.685849,44.664538,0</coordinates></Point></Placemark>
<Placemark><LineString id="3180_3179"><tessellate>1</tessellate><coordinates>26.685849,44.664538,0.
26.650683,44.638736,0</coordinates></LineString><Style><LineStyle><width>3</width></LineStyle></Style></Placemark>
<Placemark><name>Bărcănești</name><description>Nume: Bărcănești, Tip: bărcănești, Nivel: 3, Județ: Ialomita, Formă: Localitate, ID: 3179 <br /><b>Variante</b><br />Nume: Bărcănești, Hartă: Geomil 25000, Limbă: Limba română</description><Point><coordinates>26.650683,44.638736,0</coordinates></Point></Placemark>
<Placemark><name>Bărcănești</name><description>Nume: Bărcănești, Tip: bărcănești, Nivel: 3, Județ: Mehedinti, Formă: Localitate, ID: 8412 <br /><b>Variante</b><br />Nume: Bărcănești, Hartă: PDT, Limbă: Limba română</description><Point><coordinates>22.774172,44.817578,0</coordinates></Point></Placemark>
<Placemark><name>Cracul Bărcănești</name><description>Nume: Cracul Bărcănești, Tip: bărcănești, Nivel: 3, Județ: Mehedinti, Formă: Vale, ID: 8413, ID Părinte: 8412 <br /><b>Variante</b><br />Nume: Cracul Bărcănești, Hartă: PDT, Limbă: Limba română</description><Point><coordinates>22.784238,44.814727,0</coordinates></Point></Placemark>
<Placemark><LineString id="8413_8412"><tessellate>1</tessellate><coordinates>22.784238,44.814727,0.
22.774172,44.817578,0</coordinates></LineString><Style><LineStyle><width>3</width></LineStyle></Style></Placemark>
<Placemark><name>Bărcani</name><description>Nume: Bărcani, Tip: bărcan, Nivel: 2, Județ: Neamt, Formă: Localitate, ID: 9148 <br /><b>Variante</b><br />Nume: Bărcani, Hartă: PDT, Limbă: Limba română</description><Point><coordinates>26.676810,46.782399,0</coordinates></Point></Placemark>
<Placemark><name>Bărcănești</name><description>Nume: Bărcănești, Tip: bărcănești, Nivel: 3, Județ: Neamt, Formă: Localitate, ID: 9948 <br /><b>Variante</b><br />Nume: Bărcănești, Hartă: Moldova (1892-1898), Limbă: Limba română<br />Nume: Bărcănești, Hartă: Geomil 25000, Limbă: Limba română</description><Point><coordinates>26.591190,46.715830,0</coordinates></Point></Placemark>
<Placemark><name>Dealul Bârcănești</name><description>Nume: Dealul Bârcănești, Tip: bărcănești, Nivel: 3, Județ: Neamt, Formă: Deal, ID: 9949, ID Părinte: 9948 <br /><b>Variante</b><br />Nume: Dealul Bârcănești, Hartă: Geomil 25000, Limbă: Limba română</description><Point><coordinates>26.565018,46.673779,0</coordinates></Point></Placemark>
<Placemark><LineString id="9949_9948"><tessellate>1</tessellate><coordinates>26.565018,46.673779,0.
26.591190,46.715830,0</coordinates></LineString><Style><LineStyle><width>3</width></LineStyle></Style></Placemark>
<Placemark><name>Bărcănești</name><description>Nume: Bărcănești, Tip: bărcănești, Nivel: 3, Județ: Olt, Formă: Localitate, ID: 2998 <br /><b>Variante</b><br />Nume: Bărcănești, Hartă: Geomil 25000, Limbă: Limba română</description><Point><coordinates>24.545655,44.305482,0</coordinates></Point></Placemark>
<Placemark><name>Bărcănești</name><description>Nume: Bărcănești, Tip: bărcănești, Nivel: 3, Județ: Olt, Formă: Înălțime, ID: 2999, ID Părinte: 2998 <br /><b>Variante</b><br />Nume: Bărcănești, Hartă: Geomil 25000, Limbă: Limba română</description><Point><coordinates>24.516935,44.293775,0</coordinates></Point></Placemark>
<Placemark><LineString id="2999_2998"><tessellate>1</tessellate><coordinates>24.516935,44.293775,0.
24.545655,44.305482,0</coordinates></LineString><Style><LineStyle><width>3</width></LineStyle></Style></Placemark>
<Placemark><name>Pârâu Bărcăneasca</name><description>Nume: Pârâu Bărcăneasca, Tip: bărcăneasca, Nivel: 3, Județ: Prahova, Formă: Vale, ID: 8800, ID Părinte: 8795 <br /><b>Variante</b><br />Nume: Pârâu Bărcăneasca, Hartă: Geomil 25000, Limbă: Limba română</description><Point><coordinates>26.084680,44.881150,0</coordinates></Point></Placemark>
<Placemark><LineString id="8800_8795"><tessellate>1</tessellate><coordinates>26.084680,44.881150,0.
26.050297,44.881350,0</coordinates></LineString><Style><LineStyle><width>3</width></LineStyle></Style></Placemark>
<Placemark><name>Bărcănești</name><description>Nume: Bărcănești, Tip: bărcănești, Nivel: 3, Județ: Prahova, Formă: Localitate, ID: 8795 <br /><b>Variante</b><br />Nume: Bărcănești, Hartă: Geomil 25000, Limbă: Limba română<br />Nume: Bărcănești, Hartă: PDT, Limbă: Limba română</description><Point><coordinates>26.050297,44.881350,0</coordinates></Point></Placemark>
<Placemark><name>Pădurea Bărcănescii</name><description>Nume: Pădurea Bărcănescii, Tip: bărcănești, Nivel: 3, Județ: Prahova, Formă: Pădure, ID: 8799, ID Părinte: 8795 <br /><b>Variante</b><br />Nume: Pădurea Bărcănescii, Hartă: PDT, Limbă: Limba română</description><Point><coordinates>26.084003,44.872934,0</coordinates></Point></Placemark>
<Placemark><LineString id="8799_8795"><tessellate>1</tessellate><coordinates>26.084003,44.872934,0.
26.050297,44.881350,0</coordinates></LineString><Style><LineStyle><width>3</width></LineStyle></Style></Placemark>
<Placemark><name>Râu Barcău</name><description>Nume: Râu Barcău, Tip: barcău, Nivel: 3, Județ: Salaj, Formă: Vale, ID: 11913 <br /><b>Variante</b><br />Nume: Râu Barcău, Hartă: Geomil 25000, Limbă: Limba română</description><Point><coordinates>22.710017,47.109169,0</coordinates></Point></Placemark>
<Placemark><name>Valea lui Bărcan</name><description>Nume: Valea lui Bărcan, Tip: bărcan, Nivel: 2, Județ: Teleorman, Formă: Vale, ID: 12205 <br /><b>Variante</b><br />Nume: Valea lui Bărcan, Hartă: Geomil 25000, Limbă: Limba română</description><Point><coordinates>25.142094,44.159073,0</coordinates></Point></Placemark>
<Placemark><name>Barcanele</name><description>Nume: Barcanele, Tip: barcanele, Nivel: 3, Județ: Valcea, Formă: Localitate, ID: 11378 <br /><b>Variante</b><br />Nume: Barcanele, Hartă: Geomil 25000, Limbă: Limba română</description><Point><coordinates>24.125705,45.089954,0</coordinates></Point></Placemark>
<Placemark><name>Bărcănești</name><description>Nume: Bărcănești, Tip: bărcănești, Nivel: 3, Județ: Valcea, Formă: Localitate, ID: 5833 <br /><b>Variante</b><br />Nume: Bărcănești, Hartă: Geomil 25000, Limbă: Limba română<br />Nume: Bârcânești, Hartă: Austriacă, Limbă: Limba română<br />Nume: Bărcănești, Hartă: PDT, Limbă: Limba română</description><Point><coordinates>24.030424,44.805876,0</coordinates></Point></Placemark>
<Placemark><name>Dealu Bărcănești</name><description>Nume: Dealu Bărcănești, Tip: bărcănești, Nivel: 3, Județ: Valcea, Formă: Deal, ID: 5835, ID Părinte: 5833 <br /><b>Variante</b><br />Nume: Dealu Bărcănești, Hartă: Geomil 25000, Limbă: Limba română</description><Point><coordinates>24.049385,44.804498,0</coordinates></Point></Placemark>
<Placemark><LineString id="5835_5833"><tessellate>1</tessellate><coordinates>24.049385,44.804498,0.
24.030424,44.805876,0</coordinates></LineString><Style><LineStyle><width>3</width></LineStyle></Style></Placemark></Document></kml>