<?xml version="1.0" encoding="UTF-8"?><kml xmlns="http://www.opengis.net/kml/2.2"><Document><Placemark><name>Dealu Rățoiului</name><description>Nume: Dealu Rățoiului, Tip: rațe, Nivel: 2, Județ: Mehedinti, Formă: Deal, ID: 195 <br /><b>Variante</b><br />Nume: Dealu Rățoiului, Hartă: Geomil 25000, Limbă: Limba română</description><Point><coordinates>22.778554,44.990339</coordinates></Point></Placemark>
<Placemark><name>Valea Raței</name><description>Nume: Valea Raței, Tip: rațe, Nivel: 2, Județ: Arges, Formă: Vale, ID: 1403 <br /><b>Variante</b><br />Nume: Valea Raței, Hartă: Geomil 25000, Limbă: Limba română</description><Point><coordinates>24.919822,44.741450</coordinates></Point></Placemark>
<Placemark><name>Dealul Raței</name><description>Nume: Dealul Raței, Tip: rațe, Nivel: 2, Județ: Iasi, Formă: Deal, ID: 2208 <br /><b>Variante</b><br />Nume: Dealul Raței, Hartă: Geomil 25000, Limbă: Limba română</description><Point><coordinates>27.885101,46.874981</coordinates></Point></Placemark>
<Placemark><name>Dealul Raței</name><description>Nume: Dealul Raței, Tip: rațe, Nivel: 2, Județ: Iasi, Formă: Deal, ID: 2210 <br /><b>Variante</b><br />Nume: Dealul Raței, Hartă: Geomil 25000, Limbă: Limba română</description><Point><coordinates>27.856877,46.898174</coordinates></Point></Placemark>
<Placemark><name>La Rățoi</name><description>Nume: La Rățoi, Tip: rațe, Nivel: 2, Județ: Botosani, Formă: Altele, ID: 2402 <br /><b>Variante</b><br />Nume: La Rățoi, Hartă: Geomil 25000, Limbă: Limba română</description><Point><coordinates>26.664951,48.243546</coordinates></Point></Placemark>
<Placemark><name>Lacul Raței</name><description>Nume: Lacul Raței, Tip: rațe, Nivel: 2, Județ: Olt, Formă: Lac, ID: 2990 <br /><b>Variante</b><br />Nume: Lacul Raței, Hartă: Geomil 25000, Limbă: Limba română</description><Point><coordinates>24.601283,44.239143</coordinates></Point></Placemark>
<Placemark><name>La Balta Raței</name><description>Nume: La Balta Raței, Tip: rațe, Nivel: 2, Județ: Gorj, Formă: Apă-deal-câmpie, ID: 3130 <br /><b>Variante</b><br />Nume: La Balta Raței, Hartă: Geomil 25000, Limbă: Limba română</description><Point><coordinates>23.459013,44.907698</coordinates></Point></Placemark>
<Placemark><name>Movila Rața</name><description>Nume: Movila Rața, Tip: rațe, Nivel: 2, Județ: Braila, Formă: Înălțime, ID: 3475 <br /><b>Variante</b><br />Nume: Movila Rața, Hartă: PDT, Limbă: Limba română</description><Point><coordinates>27.849982,44.890828</coordinates></Point></Placemark>
<Placemark><name>Pădurea Rața</name><description>Nume: Pădurea Rața, Tip: rațe, Nivel: 2, Județ: Braila, Formă: Pădure, ID: 3491 <br /><b>Variante</b><br />Nume: Pădurea Rața, Hartă: PDT, Limbă: Limba română</description><Point><coordinates>28.002952,44.769571</coordinates></Point></Placemark>
<Placemark><name>Dealul Lacul Raței</name><description>Nume: Dealul Lacul Raței, Tip: rațe, Nivel: 2, Județ: Vaslui, Formă: Deal, ID: 3508 <br /><b>Variante</b><br />Nume: Dealul Lacul Raței, Hartă: PDT, Limbă: Limba română</description><Point><coordinates>27.969299,46.157497</coordinates></Point></Placemark>
<Placemark><name>Balta Raței</name><description>Nume: Balta Raței, Tip: rațe, Nivel: 2, Județ: Vrancea, Formă: Apă-deal-câmpie, ID: 3552 <br /><b>Variante</b><br />Nume: Balta Raței, Hartă: PDT, Limbă: Limba română<br />Nume: Balta Raței, Hartă: Geomil 25000, Limbă: Limba română</description><Point><coordinates>27.260469,45.767372</coordinates></Point></Placemark>
<Placemark><name>Lacu Raței</name><description>Nume: Lacu Raței, Tip: rațe, Nivel: 2, Județ: Dambovita, Formă: Lac, ID: 3714 <br /><b>Variante</b><br />Nume: Lacu Raței, Hartă: Geomil 25000, Limbă: Limba română</description><Point><coordinates>25.411325,44.558870</coordinates></Point></Placemark>
<Placemark><name>Lacul Rățoiului</name><description>Nume: Lacul Rățoiului, Tip: rațe, Nivel: 2, Județ: Giurgiu, Formă: Lac, ID: 3736 <br /><b>Variante</b><br />Nume: Lacul Rățoiului, Hartă: PDT, Limbă: Limba română</description><Point><coordinates>25.639696,44.458419</coordinates></Point></Placemark>
<Placemark><name>Valea Raței</name><description>Nume: Valea Raței, Tip: rațe, Nivel: 2, Județ: Arges, Formă: Vale, ID: 5029 <br /><b>Variante</b><br />Nume: Valea Raței, Hartă: Geomil 25000, Limbă: Limba română</description><Point><coordinates>25.188654,45.416820</coordinates></Point></Placemark>
<Placemark><name>Balta Rațelor</name><description>Nume: Balta Rațelor, Tip: rațe, Nivel: 2, Județ: Gorj, Formă: Apă-deal-câmpie, ID: 7436 <br /><b>Variante</b><br />Nume: Balta Rațelor, Hartă: PDT, Limbă: Limba română<br />Nume: Balta Rațelor, Hartă: Geomil 25000, Limbă: Limba română</description><Point><coordinates>23.302676,44.699436</coordinates></Point></Placemark>
<Placemark><name>Valea Rățoiului</name><description>Nume: Valea Rățoiului, Tip: rațe, Nivel: 2, Județ: Suceava, Formă: Vale, ID: 7785 <br /><b>Variante</b><br />Nume: Valea Rățoiului, Hartă: Geomil 25000, Limbă: Limba română</description><Point><coordinates>26.354494,47.674643</coordinates></Point></Placemark>
<Placemark><name>Rățoiul</name><description>Nume: Rățoiul, Tip: rațe, Nivel: 2, Județ: Arges, Formă: Localitate, ID: 8128 <br /><b>Variante</b><br />Nume: Rățoiul, Hartă: PDT, Limbă: Limba română</description><Point><coordinates>24.651874,44.788363</coordinates></Point></Placemark>
<Placemark><name>La Lacul Raței</name><description>Nume: La Lacul Raței, Tip: rațe, Nivel: 2, Județ: Teleorman, Formă: Lac, ID: 9030 <br /><b>Variante</b><br />Nume: La Lacul Raței, Hartă: PDT, Limbă: Limba română</description><Point><coordinates>25.232027,44.315672</coordinates></Point></Placemark>
<Placemark><name>Lacu Raței</name><description>Nume: Lacu Raței, Tip: rațe, Nivel: 2, Județ: Braila, Formă: Lac, ID: 9272 <br /><b>Variante</b><br />Nume: Lacu Raței, Hartă: PDT, Limbă: Limba română</description><Point><coordinates>27.446360,45.305804</coordinates></Point></Placemark>
<Placemark><name>Lacul Raței</name><description>Nume: Lacul Raței, Tip: rațe, Nivel: 2, Județ: Prahova, Formă: Lac, ID: 9851 <br /><b>Variante</b><br />Nume: Lacul Raței, Hartă: PDT, Limbă: Limba română</description><Point><coordinates>26.100537,44.846896</coordinates></Point></Placemark>
<Placemark><name>Dealul Raței</name><description>Nume: Dealul Raței, Tip: rațe, Nivel: 2, Județ: Iasi, Formă: Deal, ID: 11627 <br /><b>Variante</b><br />Nume: Dealul Raței, Hartă: Geomil 25000, Limbă: Limba română</description><Point><coordinates>27.212673,47.206218</coordinates></Point></Placemark>
<Placemark><name>Balta Rațelor</name><description>Nume: Balta Rațelor, Tip: rațe, Nivel: 2, Județ: Gorj, Formă: Apă-deal-câmpie, ID: 13854 <br /><b>Variante</b><br />Nume: Balta Rațelor, Hartă: Geomil 25000, Limbă: Limba română</description><Point><coordinates>23.482029,44.607727</coordinates></Point></Placemark></Document></kml>