<?xml version="1.0" encoding="UTF-8"?><kml xmlns="http://www.opengis.net/kml/2.2"><Document><Placemark><name>Pavlicheni</name><description>Nume: Pavlicheni, Tip: pavlicheni, Nivel: 3, Județ: Calarasi, Formă: Cătun, ID: 3280 <br /><b>Variante</b><br />Nume: Pavlicheni, Hartă: PDT, Limbă: Limba română</description><Point><coordinates>26.668569,44.381896,0</coordinates></Point></Placemark>
<Placemark><name>Pășunea Creștinilor</name><description>Nume: Pășunea Creștinilor, Tip: creștini, Nivel: 3, Județ: Covasna, Formă: Altele, ID: 2763 <br /><b>Variante</b><br />Nume: Pășunea Creștinilor, Hartă: Geomil 25000, Limbă: Limba română</description><Point><coordinates>25.717254,45.832294,0</coordinates></Point></Placemark>
<Placemark><name>La Pavlichianu</name><description>Nume: La Pavlichianu, Tip: pavlichian, Nivel: 4, Județ: Dambovita, Formă: Altele, ID: 3374 <br /><b>Variante</b><br />Nume: La Pavlichianu, Hartă: Geomil 25000, Limbă: Limba română</description><Point><coordinates>25.458726,44.659011,0</coordinates></Point></Placemark>
<Placemark><name>Culmea Păgânilor</name><description>Nume: Culmea Păgânilor, Tip: păgâni, Nivel: 3, Județ: Harghita, Formă: Înălțime, ID: 2758 <br /><b>Variante</b><br />Nume: Culmea Păgânilor, Hartă: Geomil 25000, Limbă: Limba română</description><Point><coordinates>25.890222,46.461149,0</coordinates></Point></Placemark>
<Placemark><name>Cetatea Păgânilor</name><description>Nume: Cetatea Păgânilor, Tip: păgâni, Nivel: 3, Județ: Mures, Formă: Altele, ID: 4338 <br /><b>Variante</b><br />Nume: Cetatea Păgânilor, Hartă: Geomil 25000, Limbă: Limba română</description><Point><coordinates>24.382510,46.644532,0</coordinates></Point></Placemark></Document></kml>