<?xml version="1.0" encoding="UTF-8"?><kml xmlns="http://www.opengis.net/kml/2.2"><Document><Placemark><name>La Căpriță</name><description>Nume: La Căpriță, Tip: căpriță, Nivel: 4, Județ: Caras Severin, Formă: Altele, ID: 4313 <br /><b>Variante</b><br />Nume: La Căpriță, Hartă: Geomil 25000, Limbă: Limba română</description><Point><coordinates>21.977086,45.358717,0</coordinates></Point></Placemark>
<Placemark><name>Moara Căpriței</name><description>Nume: Moara Căpriței, Tip: căpriță, Nivel: 4, Județ: Cluj, Formă: Altele, ID: 2592, ID Părinte: 5889 <br /><b>Variante</b><br />Nume: Moara Căpriței, Hartă: Geomil 25000, Limbă: Limba română</description><Point><coordinates>23.241570,46.665917,0</coordinates></Point></Placemark>
<Placemark><LineString id="2592_5889"><tessellate>1</tessellate><coordinates>23.241570,46.665917,0.
23.235420,46.650900,0</coordinates></LineString><Style><LineStyle><width>3</width></LineStyle></Style></Placemark>
<Placemark><name>Pârâu Căprița</name><description>Nume: Pârâu Căprița, Tip: căpriță, Nivel: 4, Județ: Cluj, Formă: Vale, ID: 5889 <br /><b>Variante</b><br />Nume: Pârâu Căprița, Hartă: Geomil 25000, Limbă: Limba română</description><Point><coordinates>23.235420,46.650900,0</coordinates></Point></Placemark>
<Placemark><name>Valea Căprița</name><description>Nume: Valea Căprița, Tip: căpriță, Nivel: 4, Județ: Olt, Formă: Vale, ID: 13531 <br /><b>Variante</b><br />Nume: Valea Căprița, Hartă: PDT, Limbă: Limba română</description><Point><coordinates>24.471771,44.755322,0</coordinates></Point></Placemark>
<Placemark><name>Căprița</name><description>Nume: Căprița, Tip: căpriță, Nivel: 4, Județ: Suceava, Formă: Vale, ID: 6399, ID Părinte: 6400 <br /><b>Variante</b><br />Nume: Căprița, Hartă: Geomil 25000, Limbă: Limba română</description><Point><coordinates>25.652786,47.260629,0</coordinates></Point></Placemark>
<Placemark><LineString id="6399_6400"><tessellate>1</tessellate><coordinates>25.652786,47.260629,0.
25.633078,47.260331,0</coordinates></LineString><Style><LineStyle><width>3</width></LineStyle></Style></Placemark></Document></kml>