<?xml version="1.0" encoding="UTF-8"?><kml xmlns="http://www.opengis.net/kml/2.2"><Document><Placemark><name>Pârâul Vulpăria</name><description>Nume: Pârâul Vulpăria, Tip: vulpărie, Nivel: 3, Județ: Bacau, Formă: Vale, ID: 14322 <br /><b>Variante</b><br />Nume: Pârâul Vulpăria, Hartă: PDT, Limbă: Limba română</description><Point><coordinates>26.572467,46.588905,0</coordinates></Point></Placemark>
<Placemark><name>Pârâul Vulpării</name><description>Nume: Pârâul Vulpării, Tip: vulpărie, Nivel: 3, Județ: Bacau, Formă: Vale, ID: 6552, ID Părinte: 6550 <br /><b>Variante</b><br />Nume: Pârâul Vulpării, Hartă: PDT, Limbă: Limba română</description><Point><coordinates>26.405155,46.455115,0</coordinates></Point></Placemark>
<Placemark><LineString id="6552_6550"><tessellate>1</tessellate><coordinates>26.405155,46.455115,0.
26.407104,46.457847,0</coordinates></LineString><Style><LineStyle><width>3</width></LineStyle></Style></Placemark>
<Placemark><name>Piciorul Vulpării</name><description>Nume: Piciorul Vulpării, Tip: vulpărie, Nivel: 3, Județ: Bacau, Formă: Înălțime, ID: 6550 <br /><b>Variante</b><br />Nume: Piciorul Vulpării, Hartă: PDT, Limbă: Limba română</description><Point><coordinates>26.407104,46.457847,0</coordinates></Point></Placemark>
<Placemark><name>Vârful Vulpăriei</name><description>Nume: Vârful Vulpăriei, Tip: vulpărie, Nivel: 3, Județ: Bacau, Formă: Înălțime, ID: 9953 <br /><b>Variante</b><br />Nume: Vârful Vulpăriei, Hartă: Geomil 25000, Limbă: Limba română</description><Point><coordinates>26.208386,46.647871,0</coordinates></Point></Placemark>
<Placemark><name>Dealul Vulpăriilor</name><description>Nume: Dealul Vulpăriilor, Tip: vulpărie, Nivel: 3, Județ: Botosani, Formă: Deal, ID: 4874 <br /><b>Variante</b><br />Nume: Dealul Vulpăriilor, Hartă: PDT, Limbă: Limba română<br />Nume: Dealul Vulpăriei, Hartă: Geomil 25000, Limbă: Limba română</description><Point><coordinates>27.053438,47.971110,0</coordinates></Point></Placemark>
<Placemark><name>Tarlaua Vulpărie</name><description>Nume: Tarlaua Vulpărie, Tip: vulpărie, Nivel: 3, Județ: Botosani, Formă: Altele, ID: 11553 <br /><b>Variante</b><br />Nume: Tarlaua Vulpărie, Hartă: ANCPI, Limbă: Limba română</description><Point><coordinates>27.327224,47.598137,0</coordinates></Point></Placemark>
<Placemark><name>Vulpărie</name><description>Nume: Vulpărie, Tip: vulpărie, Nivel: 3, Județ: Botosani, Formă: Altele, ID: 11662 <br /><b>Variante</b><br />Nume: Vulpărie, Hartă: ANCPI, Limbă: Limba română</description><Point><coordinates>27.126870,47.885298,0</coordinates></Point></Placemark>
<Placemark><name>La Vulpărie</name><description>Nume: La Vulpărie, Tip: vulpărie, Nivel: 3, Județ: Buzau, Formă: Altele, ID: 13341 <br /><b>Variante</b><br />Nume: La Vulpărie, Hartă: Geomil 25000, Limbă: Limba română</description><Point><coordinates>26.557822,45.428762,0</coordinates></Point></Placemark>
<Placemark><name>Poiana Vulpăriei</name><description>Nume: Poiana Vulpăriei, Tip: vulpărie, Nivel: 3, Județ: Buzau, Formă: Poiană, ID: 2091 <br /><b>Variante</b><br />Nume: Poiana Vulpăriei, Hartă: Geomil 25000, Limbă: Limba română</description><Point><coordinates>26.945901,45.468795,0</coordinates></Point></Placemark>
<Placemark><name>Piciorul Vulpăriei</name><description>Nume: Piciorul Vulpăriei, Tip: vulpărie, Nivel: 3, Județ: Neamt, Formă: Înălțime, ID: 9713 <br /><b>Variante</b><br />Nume: Piciorul Vulpăriei, Hartă: Moldova (1892-1898), Limbă: Limba română</description><Point><coordinates>26.124483,46.976986,0</coordinates></Point></Placemark>
<Placemark><name>Bâtca Vulpăria</name><description>Nume: Bâtca Vulpăria, Tip: vulpărie, Nivel: 3, Județ: Suceava, Formă: Înălțime, ID: 9088 <br /><b>Variante</b><br />Nume: Bâtca Vulpăria, Hartă: PDT, Limbă: Limba română</description><Point><coordinates>25.564546,47.404874,0</coordinates></Point></Placemark>
<Placemark><name>Pârâul Vulpăriei</name><description>Nume: Pârâul Vulpăriei, Tip: vulpărie, Nivel: 3, Județ: Suceava, Formă: Vale, ID: 6384 <br /><b>Variante</b><br />Nume: Pârâul Vulpăriei, Hartă: PDT, Limbă: Limba română</description><Point><coordinates>25.485955,47.317918,0</coordinates></Point></Placemark>
<Placemark><name>Preluca Vulpăriei</name><description>Nume: Preluca Vulpăriei, Tip: vulpărie, Nivel: 3, Județ: Suceava, Formă: Vale, ID: 13522 <br /><b>Variante</b><br />Nume: Preluca Vulpăriei, Hartă: Geomil 25000, Limbă: Limba română</description><Point><coordinates>25.730364,47.445117,0</coordinates></Point></Placemark>
<Placemark><name>Valea Vulpăriei</name><description>Nume: Valea Vulpăriei, Tip: vulpărie, Nivel: 3, Județ: Suceava, Formă: Vale, ID: 4927 <br /><b>Variante</b><br />Nume: Valea Vulpăriei, Hartă: PDT, Limbă: Limba română</description><Point><coordinates>26.302562,47.493109,0</coordinates></Point></Placemark>
<Placemark><name>La Vulpărie</name><description>Nume: La Vulpărie, Tip: vulpărie, Nivel: 3, Județ: Vaslui, Formă: Altele, ID: 1711 <br /><b>Variante</b><br />Nume: La Vulpărie, Hartă: Geomil 25000, Limbă: Limba română</description><Point><coordinates>27.487258,46.221979,0</coordinates></Point></Placemark>
<Placemark><name>La Vulpărie</name><description>Nume: La Vulpărie, Tip: vulpărie, Nivel: 3, Județ: Vrancea, Formă: Altele, ID: 3932 <br /><b>Variante</b><br />Nume: La Vulpărie, Hartă: PDT, Limbă: Limba română</description><Point><coordinates>27.273690,46.109396,0</coordinates></Point></Placemark></Document></kml>