<?xml version="1.0" encoding="UTF-8"?><kml xmlns="http://www.opengis.net/kml/2.2"><Document><Placemark><name>Drumul Chinezilor</name><description>Nume: Drumul Chinezilor, Tip: chinez, Nivel: 3, Județ: Neamt, Formă: Drum, ID: 2027 <br /><b>Variante</b><br />Nume: Drumul Chinezilor, Hartă: Geomil 25000, Limbă: Limba română</description><Point><coordinates>26.275808,46.812631</coordinates></Point></Placemark>
<Placemark><name>Poiana Chinezului</name><description>Nume: Poiana Chinezului, Tip: chinez, Nivel: 3, Județ: Caras Severin, Formă: Poiană, ID: 5724 <br /><b>Variante</b><br />Nume: Poiana Chinezului, Hartă: Geomil 25000, Limbă: Limba română<br />Nume: Poiana Chinezului, Hartă: PDT, Limbă: Limba română</description><Point><coordinates>22.126933,45.014680</coordinates></Point></Placemark>
<Placemark><name>Moara Chinezului</name><description>Nume: Moara Chinezului, Tip: chinez, Nivel: 3, Județ: Caras Severin, Formă: Altele, ID: 6193 <br /><b>Variante</b><br />Nume: Moara Chinezului, Hartă: PDT, Limbă: Limba română</description><Point><coordinates>21.930309,45.461753</coordinates></Point></Placemark>
<Placemark><name>Satchinez</name><description>Nume: Satchinez, Tip: chinez, Nivel: 3, Județ: Timis, Formă: Localitate, ID: 7633 <br /><b>Variante</b><br />Nume: Satchinez, Hartă: Geomil 25000, Limbă: Limba română</description><Point><coordinates>21.043452,45.941360</coordinates></Point></Placemark>
<Placemark><name>Cioaca Chinezului</name><description>Nume: Cioaca Chinezului, Tip: chinez, Nivel: 3, Județ: Caras Severin, Formă: Altele, ID: 8502 <br /><b>Variante</b><br />Nume: Cioaca Chinezului, Hartă: PDT, Limbă: Limba română</description><Point><coordinates>21.756036,44.799471</coordinates></Point></Placemark>
<Placemark><name>Chinezoaia</name><description>Nume: Chinezoaia, Tip: chinezoaie, Nivel: 3, Județ: Mures, Formă: Altele, ID: 4360 <br /><b>Variante</b><br />Nume: Chinezoaia, Hartă: Geomil 25000, Limbă: Limba română</description><Point><coordinates>24.709413,46.299651</coordinates></Point></Placemark>
<Placemark><name>Valea Chinejei</name><description>Nume: Valea Chinejei, Tip: chinejă, Nivel: 3, Județ: Galati, Formă: Vale, ID: 7371 <br /><b>Variante</b><br />Nume: Valea Chinejei, Hartă: Geomil 25000, Limbă: Limba română</description><Point><coordinates>27.912582,46.046940</coordinates></Point></Placemark>
<Placemark><name>Dealul la China</name><description>Nume: Dealul la China, Tip: china, Nivel: 3, Județ: Vrancea, Formă: Deal, ID: 9195 <br /><b>Variante</b><br />Nume: Dealul la China, Hartă: Geomil 25000, Limbă: Limba română</description><Point><coordinates>26.747672,45.952435</coordinates></Point></Placemark>
<Placemark><name>Valea Chinului</name><description>Nume: Valea Chinului, Tip: chin, Nivel: 3, Județ: Vrancea, Formă: Vale, ID: 9226 <br /><b>Variante</b><br />Nume: Valea Chinului, Hartă: PDT, Limbă: Limba română</description><Point><coordinates>26.712757,45.727862</coordinates></Point></Placemark>
<Placemark><name>Valea Chinăzăi</name><description>Nume: Valea Chinăzăi, Tip: chineză, Nivel: 3, Județ: Alba, Formă: Vale, ID: 11905 <br /><b>Variante</b><br />Nume: Valea Chinăzăi, Hartă: PDT, Limbă: Limba română</description><Point><coordinates>24.194295,46.200055</coordinates></Point></Placemark></Document></kml>