<?xml version="1.0" encoding="UTF-8"?><kml xmlns="http://www.opengis.net/kml/2.2"><Document><Placemark><name>Dealu Iepei</name><description>Nume: Dealu Iepei, Tip: iapă, Nivel: 3, Județ: Alba, Formă: Deal, ID: 12551 <br /><b>Variante</b><br />Nume: Dealu Iepei, Hartă: Geomil 25000, Limbă: Limba română</description><Point><coordinates>22.823176,46.501841,0</coordinates></Point></Placemark>
<Placemark><name>La Iapă</name><description>Nume: La Iapă, Tip: iapă, Nivel: 3, Județ: Alba, Formă: Altele, ID: 8147 <br /><b>Variante</b><br />Nume: La Iapă, Hartă: PDT, Limbă: Limba română</description><Point><coordinates>23.939515,46.283999,0</coordinates></Point></Placemark>
<Placemark><name>La Iapa</name><description>Nume: La Iapa, Tip: iapă, Nivel: 3, Județ: Arad, Formă: Altele, ID: 7646 <br /><b>Variante</b><br />Nume: La Iapa, Hartă: Geomil 25000, Limbă: Limba română</description><Point><coordinates>22.687055,46.324092,0</coordinates></Point></Placemark>
<Placemark><name>Dealul Botul Iepei</name><description>Nume: Dealul Botul Iepei, Tip: iapă, Nivel: 3, Județ: Arges, Formă: Deal, ID: 91 <br /><b>Variante</b><br />Nume: Dealul Botul Iepei, Hartă: PDT, Limbă: Limba română</description><Point><coordinates>24.665042,44.963923,0</coordinates></Point></Placemark>
<Placemark><name>Piscul Iepei</name><description>Nume: Piscul Iepei, Tip: iapă, Nivel: 3, Județ: Arges, Formă: Înălțime, ID: 8350 <br /><b>Variante</b><br />Nume: Piscul Iepei, Hartă: PDT, Limbă: Limba română</description><Point><coordinates>25.054848,44.967492,0</coordinates></Point></Placemark>
<Placemark><name>Valea Iapa</name><description>Nume: Valea Iapa, Tip: iapă, Nivel: 3, Județ: Arges, Formă: Vale, ID: 1411 <br /><b>Variante</b><br />Nume: Valea Iapa, Hartă: Geomil 25000, Limbă: Limba română</description><Point><coordinates>24.599587,44.897772,0</coordinates></Point></Placemark>
<Placemark><name>Valea Iepei</name><description>Nume: Valea Iepei, Tip: iapă, Nivel: 3, Județ: Arges, Formă: Vale, ID: 1440 <br /><b>Variante</b><br />Nume: Valea Iepei, Hartă: Geomil 25000, Limbă: Limba română</description><Point><coordinates>24.511634,45.266138,0</coordinates></Point></Placemark>
<Placemark><name>Pădurea Iepei</name><description>Nume: Pădurea Iepei, Tip: iapă, Nivel: 3, Județ: Bacau, Formă: Pădure, ID: 3906 <br /><b>Variante</b><br />Nume: Pădurea Iepei, Hartă: Geomil 25000, Limbă: Limba română</description><Point><coordinates>27.136762,46.558098,0</coordinates></Point></Placemark>
<Placemark><name>Pădurea Valea Iepei</name><description>Nume: Pădurea Valea Iepei, Tip: iapă, Nivel: 3, Județ: Bacau, Formă: Pădure, ID: 7863 <br /><b>Variante</b><br />Nume: Pădurea Valea Iepei, Hartă: Geomil 25000, Limbă: Limba română</description><Point><coordinates>27.281230,46.491768,0</coordinates></Point></Placemark>
<Placemark><name>Dealu Iapa</name><description>Nume: Dealu Iapa, Tip: iapă, Nivel: 3, Județ: Bihor, Formă: Deal, ID: 989 <br /><b>Variante</b><br />Nume: Dealu Iapa, Hartă: Geomil 25000, Limbă: Limba română<br />Nume: Dealu Iapa, Hartă: PDT, Limbă: Limba română</description><Point><coordinates>22.205597,46.586525,0</coordinates></Point></Placemark>
<Placemark><name>Fântâna Iepei</name><description>Nume: Fântâna Iepei, Tip: iapă, Nivel: 3, Județ: Bihor, Formă: Altele, ID: 5624 <br /><b>Variante</b><br />Nume: Fântâna Iepei, Hartă: Geomil 25000, Limbă: Limba română</description><Point><coordinates>22.457090,46.439665,0</coordinates></Point></Placemark>
<Placemark><name>Groapa Iepii</name><description>Nume: Groapa Iepii, Tip: iapă, Nivel: 3, Județ: Bihor, Formă: Altele, ID: 13071 <br /><b>Variante</b><br />Nume: Groapa Iepii, Hartă: Geomil 25000, Limbă: Limba română</description><Point><coordinates>22.656047,46.968003,0</coordinates></Point></Placemark>
<Placemark><name>Iapa Albă</name><description>Nume: Iapa Albă, Tip: iapă, Nivel: 3, Județ: Bistrita Nasaud, Formă: Înălțime, ID: 6351 <br /><b>Variante</b><br />Nume: Iapa Albă, Hartă: PDT, Limbă: Limba română</description><Point><coordinates>24.918039,47.579183,0</coordinates></Point></Placemark>
<Placemark><name>Dealul Cobâli</name><description>Nume: Dealul Cobâli, Tip: cobâlă, Nivel: 4, Județ: Botosani, Formă: Deal, ID: 4912 <br /><b>Variante</b><br />Nume: Dealul Cobâli, Hartă: Geomil 25000, Limbă: Limba română</description><Point><coordinates>26.417533,47.929251,0</coordinates></Point></Placemark>
<Placemark><name>Valea Cobâlei</name><description>Nume: Valea Cobâlei, Tip: cobâlă, Nivel: 4, Județ: Botosani, Formă: Vale, ID: 1806 <br /><b>Variante</b><br />Nume: Valea Cobâlei, Hartă: Geomil 25000, Limbă: Limba română</description><Point><coordinates>26.354209,47.937600,0</coordinates></Point></Placemark>
<Placemark><name>Dealul Iepei</name><description>Nume: Dealul Iepei, Tip: iapă, Nivel: 3, Județ: Botosani, Formă: Deal, ID: 3572 <br /><b>Variante</b><br />Nume: Dealul Iepei, Hartă: PDT, Limbă: Limba română</description><Point><coordinates>26.769848,47.851107,0</coordinates></Point></Placemark>
<Placemark><name>Dealul Iepăriei</name><description>Nume: Dealul Iepăriei, Tip: iepărie, Nivel: 4, Județ: Botosani, Formă: Deal, ID: 4915 <br /><b>Variante</b><br />Nume: Dealul Iepăriei, Hartă: PDT, Limbă: Limba română<br />Nume: Iepăria, Hartă: Geomil 25000, Limbă: Limba română</description><Point><coordinates>26.571962,47.841550,0</coordinates></Point></Placemark>
<Placemark><name>Iazul Iepăriei</name><description>Nume: Iazul Iepăriei, Tip: iepărie, Nivel: 4, Județ: Botosani, Formă: Apă-deal-câmpie, ID: 2378 <br /><b>Variante</b><br />Nume: Iazul Iepăriei, Hartă: Geomil 25000, Limbă: Limba română</description><Point><coordinates>27.034237,47.775987,0</coordinates></Point></Placemark>
<Placemark><name>Podișul Iepăriei</name><description>Nume: Podișul Iepăriei, Tip: iepărie, Nivel: 4, Județ: Botosani, Formă: Altele, ID: 2373 <br /><b>Variante</b><br />Nume: Podișul Iepăriei, Hartă: Geomil 25000, Limbă: Limba română</description><Point><coordinates>27.197332,47.682199,0</coordinates></Point></Placemark>
<Placemark><name>Poiana Iepăriei</name><description>Nume: Poiana Iepăriei, Tip: iepărie, Nivel: 4, Județ: Botosani, Formă: Poiană, ID: 4901 <br /><b>Variante</b><br />Nume: Poiana Iepăriei, Hartă: PDT, Limbă: Limba română</description><Point><coordinates>26.244495,48.019241,0</coordinates></Point></Placemark>
<Placemark><name>Iapa</name><description>Nume: Iapa, Tip: iapă, Nivel: 3, Județ: Braila, Formă: Localitate, ID: 3489 <br /><b>Variante</b><br />Nume: Iapa, Hartă: PDT, Limbă: Limba română</description><Point><coordinates>27.933224,44.823949,0</coordinates></Point></Placemark>
<Placemark><name>La Piatra Iepei</name><description>Nume: La Piatra Iepei, Tip: iapă, Nivel: 3, Județ: Braila, Formă: Altele, ID: 3187 <br /><b>Variante</b><br />Nume: La Piatra Iepei, Hartă: Geomil 25000, Limbă: Limba română</description><Point><coordinates>27.321879,44.935044,0</coordinates></Point></Placemark>
<Placemark><name>Grădina Iepelor</name><description>Nume: Grădina Iepelor, Tip: iapă, Nivel: 3, Județ: Brasov, Formă: Altele, ID: 2663 <br /><b>Variante</b><br />Nume: Grădina Iepelor, Hartă: Geomil 25000, Limbă: Limba română</description><Point><coordinates>24.843247,45.986178,0</coordinates></Point></Placemark>
<Placemark><name>V. Iepe</name><description>Nume: V. Iepe, Tip: iapă, Nivel: 3, Județ: Buzau, Formă: Vale, ID: 5761 <br /><b>Variante</b><br />Nume: V. Iepe, Hartă: Austriacă, Limbă: Limba română</description><Point><coordinates>26.420980,45.354193,0</coordinates></Point></Placemark>
<Placemark><name>Valea Iepei</name><description>Nume: Valea Iepei, Tip: iapă, Nivel: 3, Județ: Buzau, Formă: Vale, ID: 12991 <br /><b>Variante</b><br />Nume: Valea Iepei, Hartă: Geomil 25000, Limbă: Limba română</description><Point><coordinates>26.462971,45.352665,0</coordinates></Point></Placemark>
<Placemark><name>La Iapa</name><description>Nume: La Iapa, Tip: iapă, Nivel: 3, Județ: Calarasi, Formă: Altele, ID: 11271 <br /><b>Variante</b><br />Nume: La Iapa, Hartă: Geomil 25000, Limbă: Limba română</description><Point><coordinates>27.417086,44.132929,0</coordinates></Point></Placemark>
<Placemark><name>Groapa Iepii</name><description>Nume: Groapa Iepii, Tip: iapă, Nivel: 3, Județ: Caras Severin, Formă: Altele, ID: 11498 <br /><b>Variante</b><br />Nume: Groapa Iepii, Hartă: ANCPI, Limbă: Limba română</description><Point><coordinates>21.920845,45.203052,0</coordinates></Point></Placemark>
<Placemark><name>Paghina Iepii</name><description>Nume: Paghina Iepii, Tip: iapă, Nivel: 3, Județ: Caras Severin, Formă: Altele, ID: 892 <br /><b>Variante</b><br />Nume: Paghina Iepii, Hartă: Geomil 25000, Limbă: Limba română<br />Nume: Padina Iepei, Hartă: PDT, Limbă: Limba română</description><Point><coordinates>21.651628,45.464989,0</coordinates></Point></Placemark>
<Placemark><name>Șeaua Iepii</name><description>Nume: Șeaua Iepii, Tip: iapă, Nivel: 3, Județ: Caras Severin, Formă: Înălțime, ID: 6182 <br /><b>Variante</b><br />Nume: Șeaua Iepii, Hartă: Geomil 25000, Limbă: Limba română<br />Nume: Șeaua Iepii, Hartă: PDT, Limbă: Limba română</description><Point><coordinates>22.292594,45.613621,0</coordinates></Point></Placemark>
<Placemark><name>Valea Iepii</name><description>Nume: Valea Iepii, Tip: iapă, Nivel: 3, Județ: Caras Severin, Formă: Vale, ID: 894 <br /><b>Variante</b><br />Nume: Valea Iepii, Hartă: Geomil 25000, Limbă: Limba română</description><Point><coordinates>21.588044,45.242994,0</coordinates></Point></Placemark>
<Placemark><name>Cobia</name><description>Nume: Cobia, Tip: cobia, Nivel: 5, Județ: Dambovita, Formă: Localitate, ID: 10126 <br /><b>Variante</b><br />Nume: Cobia, Hartă: Geomil 25000, Limbă: Limba română</description><Point><coordinates>25.336287,44.793071,0</coordinates></Point></Placemark>
<Placemark><name>Dealu Cobia</name><description>Nume: Dealu Cobia, Tip: cobia, Nivel: 5, Județ: Dambovita, Formă: Deal, ID: 10130 <br /><b>Variante</b><br />Nume: Dealu Cobia, Hartă: Geomil 25000, Limbă: Limba română</description><Point><coordinates>25.322015,44.885069,0</coordinates></Point></Placemark>
<Placemark><name>La Lacul Iepei</name><description>Nume: La Lacul Iepei, Tip: iapă, Nivel: 3, Județ: Dambovita, Formă: Lac, ID: 3702 <br /><b>Variante</b><br />Nume: La Lacul Iepei, Hartă: PDT, Limbă: Limba română</description><Point><coordinates>25.627065,44.784789,0</coordinates></Point></Placemark>
<Placemark><name>Plaiul Iepelor</name><description>Nume: Plaiul Iepelor, Tip: iapă, Nivel: 3, Județ: Dambovita, Formă: Înălțime, ID: 11135 <br /><b>Variante</b><br />Nume: Plaiul Iepelor, Hartă: PDT, Limbă: Limba română</description><Point><coordinates>25.642733,45.088295,0</coordinates></Point></Placemark>
<Placemark><name>Valea Iepii</name><description>Nume: Valea Iepii, Tip: iapă, Nivel: 3, Județ: Dambovita, Formă: Vale, ID: 11144 <br /><b>Variante</b><br />Nume: Valea Iepii, Hartă: PDT, Limbă: Limba română</description><Point><coordinates>25.691278,44.858721,0</coordinates></Point></Placemark>
<Placemark><name>Pădurea Cobia</name><description>Nume: Pădurea Cobia, Tip: cobia, Nivel: 5, Județ: Dolj, Formă: Pădure, ID: 7716 <br /><b>Variante</b><br />Nume: Pădurea Cobia, Hartă: PDT, Limbă: Limba română<br />Nume: Pădurea Cobia, Hartă: Geomil 25000, Limbă: Limba română</description><Point><coordinates>23.736796,44.150496,0</coordinates></Point></Placemark>
<Placemark><name>M. iepii</name><description>Nume: M. iepii, Tip: iapă, Nivel: 3, Județ: Dolj, Formă: Înălțime, ID: 6015 <br /><b>Variante</b><br />Nume: M. iepii, Hartă: Austriacă, Limbă: Limba română</description><Point><coordinates>23.862251,43.770246,0</coordinates></Point></Placemark>
<Placemark><name>Valea Iapa din Deal</name><description>Nume: Valea Iapa din Deal, Tip: iapă, Nivel: 3, Județ: Dolj, Formă: Vale, ID: 383 <br /><b>Variante</b><br />Nume: Valea Iapa din Deal, Hartă: Geomil 25000, Limbă: Limba română</description><Point><coordinates>23.893817,44.573667,0</coordinates></Point></Placemark>
<Placemark><name>Valea Iepei</name><description>Nume: Valea Iepei, Tip: iapă, Nivel: 3, Județ: Dolj, Formă: Vale, ID: 13852 <br /><b>Variante</b><br />Nume: Valea Iepei, Hartă: Geomil 25000, Limbă: Limba română</description><Point><coordinates>23.551830,44.607388,0</coordinates></Point></Placemark>
<Placemark><name>La Lacul Epei</name><description>Nume: La Lacul Epei, Tip: iapă, Nivel: 3, Județ: Galati, Formă: Lac, ID: 3945 <br /><b>Variante</b><br />Nume: La Lacul Epei, Hartă: PDT, Limbă: Limba română</description><Point><coordinates>27.511206,45.910497,0</coordinates></Point></Placemark>
<Placemark><name>Valea Iepei</name><description>Nume: Valea Iepei, Tip: iapă, Nivel: 3, Județ: Galati, Formă: Vale, ID: 11288 <br /><b>Variante</b><br />Nume: Valea Iepei, Hartă: Geomil 25000, Limbă: Limba română</description><Point><coordinates>27.697536,45.757680,0</coordinates></Point></Placemark>
<Placemark><name>Padina cu Iapa</name><description>Nume: Padina cu Iapa, Tip: iapă, Nivel: 3, Județ: Giurgiu, Formă: Înălțime, ID: 3161 <br /><b>Variante</b><br />Nume: Padina cu Iapa, Hartă: Geomil 25000, Limbă: Limba română</description><Point><coordinates>26.179297,44.123660,0</coordinates></Point></Placemark>
<Placemark><name>Dealul Iepei</name><description>Nume: Dealul Iepei, Tip: iapă, Nivel: 3, Județ: Gorj, Formă: Deal, ID: 5155 <br /><b>Variante</b><br />Nume: Dealul Iepei, Hartă: Geomil 25000, Limbă: Limba română</description><Point><coordinates>23.703507,44.695311,0</coordinates></Point></Placemark>
<Placemark><name>Dealu Iepii</name><description>Nume: Dealu Iepii, Tip: iapă, Nivel: 3, Județ: Hunedoara, Formă: Deal, ID: 6245 <br /><b>Variante</b><br />Nume: Dealu Iepii, Hartă: Geomil 25000, Limbă: Limba română</description><Point><coordinates>23.019763,46.107300,0</coordinates></Point></Placemark>
<Placemark><name>Șaua Iepii</name><description>Nume: Șaua Iepii, Tip: iapă, Nivel: 3, Județ: Hunedoara, Formă: Înălțime, ID: 10331 <br /><b>Variante</b><br />Nume: Șaua Iepii, Hartă: Geomil 25000, Limbă: Limba română</description><Point><coordinates>22.660579,45.342522,0</coordinates></Point></Placemark>
<Placemark><name>La Iepărie</name><description>Nume: La Iepărie, Tip: iepărie, Nivel: 4, Județ: Iasi, Formă: Altele, ID: 4864 <br /><b>Variante</b><br />Nume: La Iepărie, Hartă: PDT, Limbă: Limba română</description><Point><coordinates>27.295871,47.415444,0</coordinates></Point></Placemark>
<Placemark><name>Dealul Iepei</name><description>Nume: Dealul Iepei, Tip: iapă, Nivel: 3, Județ: Maramures, Formă: Deal, ID: 4529 <br /><b>Variante</b><br />Nume: Dealul Iepei, Hartă: Geomil 25000, Limbă: Limba română<br />Nume: Dealul Iepei, Hartă: PDT, Limbă: Limba română</description><Point><coordinates>24.319162,47.739693,0</coordinates></Point></Placemark>
<Placemark><name>Lacul Iepei</name><description>Nume: Lacul Iepei, Tip: iapă, Nivel: 3, Județ: Mehedinti, Formă: Lac, ID: 3664 <br /><b>Variante</b><br />Nume: Lacul Iepei, Hartă: Geomil 25000, Limbă: Limba română</description><Point><coordinates>23.003049,44.421297,0</coordinates></Point></Placemark>
<Placemark><name>Ogașul Iepei</name><description>Nume: Ogașul Iepei, Tip: iapă, Nivel: 3, Județ: Mehedinti, Formă: Vale, ID: 9784 <br /><b>Variante</b><br />Nume: Ogașul Iepei, Hartă: PDT, Limbă: Limba română</description><Point><coordinates>22.836760,44.844139,0</coordinates></Point></Placemark>
<Placemark><name>Valea Iepei</name><description>Nume: Valea Iepei, Tip: iapă, Nivel: 3, Județ: Mehedinti, Formă: Vale, ID: 214 <br /><b>Variante</b><br />Nume: Valea Iepei, Hartă: Geomil 25000, Limbă: Limba română</description><Point><coordinates>23.067010,44.680587,0</coordinates></Point></Placemark>
<Placemark><name>Valea Iepei</name><description>Nume: Valea Iepei, Tip: iapă, Nivel: 3, Județ: Mures, Formă: Vale, ID: 5394 <br /><b>Variante</b><br />Nume: Valea Iepei, Hartă: Geomil 25000, Limbă: Limba română</description><Point><coordinates>25.048546,46.740195,0</coordinates></Point></Placemark>
<Placemark><name>Iapa</name><description>Nume: Iapa, Tip: iapă, Nivel: 3, Județ: Neamt, Formă: Localitate, ID: 3854 <br /><b>Variante</b><br />Nume: Iapa, Hartă: PDT, Limbă: Limba română</description><Point><coordinates>26.445058,46.814269,0</coordinates></Point></Placemark>
<Placemark><name>Dealu Picioru Iepei</name><description>Nume: Dealu Picioru Iepei, Tip: iapă, Nivel: 3, Județ: Salaj, Formă: Deal, ID: 1065 <br /><b>Variante</b><br />Nume: Dealu Picioru Iepei, Hartă: Geomil 25000, Limbă: Limba română</description><Point><coordinates>22.683044,47.085602,0</coordinates></Point></Placemark>
<Placemark><name>Iapa</name><description>Nume: Iapa, Tip: iapă, Nivel: 3, Județ: Salaj, Formă: Localitate, ID: 8986 <br /><b>Variante</b><br />Nume: Iapa, Hartă: PDT, Limbă: Limba română</description><Point><coordinates>23.556755,47.251169,0</coordinates></Point></Placemark>
<Placemark><name>Balta Iepei</name><description>Nume: Balta Iepei, Tip: iapă, Nivel: 3, Județ: Sibiu, Formă: Apă-deal-câmpie, ID: 7982 <br /><b>Variante</b><br />Nume: Balta Iepei, Hartă: PDT, Limbă: Limba română</description><Point><coordinates>24.603563,46.039497,0</coordinates></Point></Placemark>
<Placemark><name>Culmea Iepei</name><description>Nume: Culmea Iepei, Tip: iapă, Nivel: 3, Județ: Sibiu, Formă: Înălțime, ID: 2495 <br /><b>Variante</b><br />Nume: Culmea Iepei, Hartă: Geomil 25000, Limbă: Limba română</description><Point><coordinates>24.251086,45.616766,0</coordinates></Point></Placemark>
<Placemark><name>Grădina Iepei</name><description>Nume: Grădina Iepei, Tip: iapă, Nivel: 3, Județ: Sibiu, Formă: Altele, ID: 2659 <br /><b>Variante</b><br />Nume: Grădina Iepei, Hartă: Geomil 25000, Limbă: Limba română</description><Point><coordinates>24.732631,45.995913,0</coordinates></Point></Placemark>
<Placemark><name>Bâtca Iepei</name><description>Nume: Bâtca Iepei, Tip: iapă, Nivel: 3, Județ: Suceava, Formă: Înălțime, ID: 9091 <br /><b>Variante</b><br />Nume: Bâtca Iepei, Hartă: PDT, Limbă: Limba română</description><Point><coordinates>25.803798,47.384657,0</coordinates></Point></Placemark>
<Placemark><name>Vârful Iepei</name><description>Nume: Vârful Iepei, Tip: iapă, Nivel: 3, Județ: Suceava, Formă: Înălțime, ID: 6346 <br /><b>Variante</b><br />Nume: Vârful Iepei, Hartă: PDT, Limbă: Limba română</description><Point><coordinates>25.162432,47.528550,0</coordinates></Point></Placemark>
<Placemark><name>Valea Iepăriei</name><description>Nume: Valea Iepăriei, Tip: iepărie, Nivel: 4, Județ: Suceava, Formă: Vale, ID: 2247 <br /><b>Variante</b><br />Nume: Valea Iepăriei, Hartă: Geomil 25000, Limbă: Limba română</description><Point><coordinates>26.501880,47.341834,0</coordinates></Point></Placemark>
<Placemark><name>Dealul Cobiei</name><description>Nume: Dealul Cobiei, Tip: cobia, Nivel: 5, Județ: Teleorman, Formă: Deal, ID: 11187 <br /><b>Variante</b><br />Nume: Dealul Cobiei, Hartă: ANCPI, Limbă: Limba română<br />Nume: Dealu Cobiei, Hartă: Geomil 25000, Limbă: Limba română</description><Point><coordinates>25.035522,44.055603,0</coordinates></Point></Placemark>
<Placemark><name>La Plaiu Iepei</name><description>Nume: La Plaiu Iepei, Tip: iapă, Nivel: 3, Județ: Teleorman, Formă: Altele, ID: 512 <br /><b>Variante</b><br />Nume: La Plaiu Iepei, Hartă: Geomil 25000, Limbă: Limba română</description><Point><coordinates>25.344463,44.319041,0</coordinates></Point></Placemark>
<Placemark><name>Dealu Iepii</name><description>Nume: Dealu Iepii, Tip: iapă, Nivel: 3, Județ: Timis, Formă: Deal, ID: 880 <br /><b>Variante</b><br />Nume: Dealu Iepii, Hartă: Geomil 25000, Limbă: Limba română</description><Point><coordinates>22.360222,45.914821,0</coordinates></Point></Placemark>
<Placemark><name>Dosu Iepei</name><description>Nume: Dosu Iepei, Tip: iapă, Nivel: 3, Județ: Timis, Formă: Înălțime, ID: 6176 <br /><b>Variante</b><br />Nume: Dosu Iepei, Hartă: Geomil 25000, Limbă: Limba română</description><Point><coordinates>22.491552,45.754692,0</coordinates></Point></Placemark>
<Placemark><name>Dealu Iepii</name><description>Nume: Dealu Iepii, Tip: iapă, Nivel: 3, Județ: Valcea, Formă: Deal, ID: 3087 <br /><b>Variante</b><br />Nume: Dealu Iepii, Hartă: Geomil 25000, Limbă: Limba română</description><Point><coordinates>24.028867,44.700814,0</coordinates></Point></Placemark>
<Placemark><name>Dealul Iepei</name><description>Nume: Dealul Iepei, Tip: iapă, Nivel: 3, Județ: Valcea, Formă: Deal, ID: 8291 <br /><b>Variante</b><br />Nume: Dealul Iepei, Hartă: PDT, Limbă: Limba română</description><Point><coordinates>23.815500,44.642737,0</coordinates></Point></Placemark>
<Placemark><name>Dealul Iepii</name><description>Nume: Dealul Iepii, Tip: iapă, Nivel: 3, Județ: Valcea, Formă: Deal, ID: 11347 <br /><b>Variante</b><br />Nume: Dealul Iepii, Hartă: Geomil 25000, Limbă: Limba română</description><Point><coordinates>23.709114,44.831866,0</coordinates></Point></Placemark>
<Placemark><name>Valea Iepei</name><description>Nume: Valea Iepei, Tip: iapă, Nivel: 3, Județ: Valcea, Formă: Vale, ID: 337 <br /><b>Variante</b><br />Nume: Valea Iepei, Hartă: Geomil 25000, Limbă: Limba română</description><Point><coordinates>24.443555,45.046576,0</coordinates></Point></Placemark>
<Placemark><name>Dealul Iepei</name><description>Nume: Dealul Iepei, Tip: iapă, Nivel: 3, Județ: Vaslui, Formă: Deal, ID: 2173 <br /><b>Variante</b><br />Nume: Dealul Iepei, Hartă: Geomil 25000, Limbă: Limba română</description><Point><coordinates>27.733997,46.345749,0</coordinates></Point></Placemark>
<Placemark><name>Poiana Coada Iepei</name><description>Nume: Poiana Coada Iepei, Tip: iapă, Nivel: 3, Județ: Vrancea, Formă: Poiană, ID: 783 <br /><b>Variante</b><br />Nume: Poiana Coada Iepei, Hartă: Geomil 25000, Limbă: Limba română</description><Point><coordinates>26.577027,45.742159,0</coordinates></Point></Placemark></Document></kml>