<?xml version="1.0" encoding="UTF-8"?><kml xmlns="http://www.opengis.net/kml/2.2"><Document><Placemark><name>Valea Cățelei</name><description>Nume: Valea Cățelei, Tip: cățea, Nivel: 3, Județ: Arad, Formă: Vale, ID: 10214 <br /><b>Variante</b><br />Nume: Valea Cățelei, Hartă: Geomil 25000, Limbă: Limba română</description><Point><coordinates>22.035975,46.246596,0</coordinates></Point></Placemark>
<Placemark><name>Dealul Cățelei</name><description>Nume: Dealul Cățelei, Tip: cățea, Nivel: 3, Județ: Bistrita Nasaud, Formă: Deal, ID: 6364 <br /><b>Variante</b><br />Nume: Dealul Cățelei, Hartă: Geomil 25000, Limbă: Limba română</description><Point><coordinates>24.821864,47.345023,0</coordinates></Point></Placemark>
<Placemark><name>Râpa Cățelei</name><description>Nume: Râpa Cățelei, Tip: cățea, Nivel: 3, Județ: Botosani, Formă: Înălțime, ID: 7784 <br /><b>Variante</b><br />Nume: Râpa Cățelei, Hartă: Geomil 25000, Limbă: Limba română</description><Point><coordinates>26.463663,47.700437,0</coordinates></Point></Placemark>
<Placemark><name>Balta Cățeaua</name><description>Nume: Balta Cățeaua, Tip: cățea, Nivel: 3, Județ: Braila, Formă: Apă-deal-câmpie, ID: 6716 <br /><b>Variante</b><br />Nume: Balta Cățeaua, Hartă: PDT, Limbă: Limba română</description><Point><coordinates>27.952129,45.009162,0</coordinates></Point></Placemark>
<Placemark><name>Movila Cățelușa</name><description>Nume: Movila Cățelușa, Tip: cățelușă, Nivel: 4, Județ: Braila, Formă: Înălțime, ID: 6730 <br /><b>Variante</b><br />Nume: Movila Cățelușa, Hartă: PDT, Limbă: Limba română</description><Point><coordinates>27.418607,44.961996,0</coordinates></Point></Placemark>
<Placemark><name>Cățeaua</name><description>Nume: Cățeaua, Tip: cățea, Nivel: 3, Județ: Calarasi, Formă: Altele, ID: 3213 <br /><b>Variante</b><br />Nume: Cățeaua, Hartă: PDT, Limbă: Limba română</description><Point><coordinates>27.659602,44.235524,0</coordinates></Point></Placemark>
<Placemark><name>Tâlva Cățelei</name><description>Nume: Tâlva Cățelei, Tip: cățea, Nivel: 3, Județ: Caras Severin, Formă: Altele, ID: 8682 <br /><b>Variante</b><br />Nume: Tâlva Cățelei, Hartă: PDT, Limbă: Limba română</description><Point><coordinates>22.170435,45.061115,0</coordinates></Point></Placemark>
<Placemark><name>Dealul Cățelei</name><description>Nume: Dealul Cățelei, Tip: cățea, Nivel: 3, Județ: Dolj, Formă: Deal, ID: 152 <br /><b>Variante</b><br />Nume: Dealul Cățelei, Hartă: Geomil 25000, Limbă: Limba română</description><Point><coordinates>23.518027,44.053520,0</coordinates></Point></Placemark>
<Placemark><name>Dealul Cățelei</name><description>Nume: Dealul Cățelei, Tip: cățea, Nivel: 3, Județ: Dolj, Formă: Deal, ID: 7712 <br /><b>Variante</b><br />Nume: Dealul Cățelei, Hartă: PDT, Limbă: Limba română</description><Point><coordinates>23.788183,44.161999,0</coordinates></Point></Placemark>
<Placemark><name>La Movila Cățelei</name><description>Nume: La Movila Cățelei, Tip: cățea, Nivel: 3, Județ: Galati, Formă: Înălțime, ID: 9490 <br /><b>Variante</b><br />Nume: La Movila Cățelei, Hartă: PDT, Limbă: Limba română</description><Point><coordinates>27.515133,45.918455,0</coordinates></Point></Placemark>
<Placemark><name>Piscul Cățelei</name><description>Nume: Piscul Cățelei, Tip: cățea, Nivel: 3, Județ: Prahova, Formă: Înălțime, ID: 809 <br /><b>Variante</b><br />Nume: Piscul Cățelei, Hartă: Geomil 25000, Limbă: Limba română</description><Point><coordinates>25.926708,45.203976,0</coordinates></Point></Placemark>
<Placemark><name>Coada Cățelei</name><description>Nume: Coada Cățelei, Tip: cățea, Nivel: 3, Județ: Vrancea, Formă: Înălțime, ID: 7916 <br /><b>Variante</b><br />Nume: Coada Cățelei, Hartă: Geomil 25000, Limbă: Limba română</description><Point><coordinates>26.539983,45.800318,0</coordinates></Point></Placemark></Document></kml>