<?xml version="1.0" encoding="UTF-8"?><kml xmlns="http://www.opengis.net/kml/2.2"><Document><Placemark><name>Mănăstur</name><description>Nume: Mănăstur, Tip: mănăștur, Nivel: 2, Județ: Arad, Formă: Altele, ID: 5647 <br /><b>Variante</b><br />Nume: Mănăstur, Hartă: PDT, Limbă: Limba română</description><Point><coordinates>21.112404,46.026337,0</coordinates></Point></Placemark>
<Placemark><name>Mănăștur</name><description>Nume: Mănăștur, Tip: mănăștur, Nivel: 2, Județ: Arad, Formă: Localitate, ID: 5648, ID Părinte: 5647 <br /><b>Variante</b><br />Nume: Mănăștur, Hartă: PDT, Limbă: Limba română<br />Nume: Mănăștur, Hartă: Geomil 25000, Limbă: Limba română</description><Point><coordinates>21.129511,46.009956,0</coordinates></Point></Placemark>
<Placemark><LineString id="5648_5647"><tessellate>1</tessellate><coordinates>21.129511,46.009956,0.
21.112404,46.026337,0</coordinates></LineString><Style><LineStyle><width>3</width></LineStyle></Style></Placemark>
<Placemark><name>Valea Mănăștur</name><description>Nume: Valea Mănăștur, Tip: mănăștur, Nivel: 2, Județ: Arad, Formă: Vale, ID: 5649, ID Părinte: 5647 <br /><b>Variante</b><br />Nume: Valea Mănăștur, Hartă: Geomil 25000, Limbă: Limba română</description><Point><coordinates>21.170483,46.003270,0</coordinates></Point></Placemark>
<Placemark><LineString id="5649_5647"><tessellate>1</tessellate><coordinates>21.170483,46.003270,0.
21.112404,46.026337,0</coordinates></LineString><Style><LineStyle><width>3</width></LineStyle></Style></Placemark>
<Placemark><name>Cartierul Mănăștur</name><description>Nume: Cartierul Mănăștur, Tip: mănăștur, Nivel: 2, Județ: Cluj, Formă: Localitate, ID: 7053 <br /><b>Variante</b><br />Nume: Cartierul Mănăștur, Hartă: Geomil 25000, Limbă: Limba română</description><Point><coordinates>23.541239,46.761006,0</coordinates></Point></Placemark>
<Placemark><name>Mănășturel</name><description>Nume: Mănășturel, Tip: mănăștur, Nivel: 2, Județ: Cluj, Formă: Localitate, ID: 4396 <br /><b>Variante</b><br />Nume: Mănășturel, Hartă: Geomil 25000, Limbă: Limba română</description><Point><coordinates>23.948241,47.171551,0</coordinates></Point></Placemark>
<Placemark><name>Pădurea Mânășturului</name><description>Nume: Pădurea Mânășturului, Tip: mănăștur, Nivel: 2, Județ: Cluj, Formă: Pădure, ID: 7054, ID Părinte: 7053 <br /><b>Variante</b><br />Nume: Pădurea Mânășturului, Hartă: Geomil 25000, Limbă: Limba română</description><Point><coordinates>23.549611,46.743950,0</coordinates></Point></Placemark>
<Placemark><LineString id="7054_7053"><tessellate>1</tessellate><coordinates>23.549611,46.743950,0.
23.541239,46.761006,0</coordinates></LineString><Style><LineStyle><width>3</width></LineStyle></Style></Placemark>
<Placemark><name>Copalnic-Mănăștur</name><description>Nume: Copalnic-Mănăștur, Tip: mănăștur, Nivel: 2, Județ: Maramures, Formă: Localitate, ID: 8236 <br /><b>Variante</b><br />Nume: Copalnic-Mănăștur, Hartă: PDT, Limbă: Limba română</description><Point><coordinates>23.677493,47.505035,0</coordinates></Point></Placemark>
<Placemark><name>Monostor</name><description>Nume: Monostor, Tip: mănăștur, Nivel: 2, Județ: Maramures, Formă: Localitate, ID: 10829 <br /><b>Variante</b><br />Nume: Monostor, Hartă: Ungară 1869, Limbă: Limba română</description><Point><coordinates>23.404900,47.663606,0</coordinates></Point></Placemark>
<Placemark><name>Lanu Mănăștur</name><description>Nume: Lanu Mănăștur, Tip: mănăștur, Nivel: 2, Județ: Timis, Formă: Altele, ID: 5650, ID Părinte: 5647 <br /><b>Variante</b><br />Nume: Lanu Mănăștur, Hartă: Geomil 25000, Limbă: Limba română</description><Point><coordinates>21.147912,45.981284,0</coordinates></Point></Placemark>
<Placemark><LineString id="5650_5647"><tessellate>1</tessellate><coordinates>21.147912,45.981284,0.
21.112404,46.026337,0</coordinates></LineString><Style><LineStyle><width>3</width></LineStyle></Style></Placemark>
<Placemark><name>Mănăștur</name><description>Nume: Mănăștur, Tip: mănăștur, Nivel: 2, Județ: Timis, Formă: Localitate, ID: 4298, ID Părinte: 4300 <br /><b>Variante</b><br />Nume: Mănăștur, Hartă: Geomil 25000, Limbă: Limba română</description><Point><coordinates>22.061458,45.836332,0</coordinates></Point></Placemark>
<Placemark><LineString id="4298_4300"><tessellate>1</tessellate><coordinates>22.061458,45.836332,0.
22.066546,45.836372,0</coordinates></LineString><Style><LineStyle><width>3</width></LineStyle></Style></Placemark>
<Placemark><name>Mănăstur</name><description>Nume: Mănăstur, Tip: mănăștur, Nivel: 2, Județ: Timis, Formă: Altele, ID: 10004 <br /><b>Variante</b><br />Nume: Mănăstur, Hartă: PDT, Limbă: Limba română</description><Point><coordinates>21.053764,45.979830,0</coordinates></Point></Placemark></Document></kml>