<?xml version="1.0" encoding="UTF-8"?><kml xmlns="http://www.opengis.net/kml/2.2"><Document><Placemark><name>Vârful Ciocanului</name><description>Nume: Vârful Ciocanului, Tip: ciocan, Nivel: 3, Județ: Alba, Formă: Înălțime, ID: 15669 <br /><b>Variante</b><br />Nume: Vârful Ciocanului, Hartă: Imperiul Habsburgic (1887), Limbă: Limba română</description><Point><coordinates>23.415196,46.079785,0</coordinates></Point></Placemark>
<Placemark><name>Ciocanu</name><description>Nume: Ciocanu, Tip: ciocan, Nivel: 3, Județ: Arges, Formă: Localitate, ID: 14696 <br /><b>Variante</b><br />Nume: Ciocanu, Hartă: ANCPI, Limbă: Limba română</description><Point><coordinates>25.236879,45.455421,0</coordinates></Point></Placemark>
<Placemark><name>Ciocanu</name><description>Nume: Ciocanu, Tip: ciocan, Nivel: 3, Județ: Arges, Formă: Înălțime, ID: 15038 <br /><b>Variante</b><br />Nume: Ciocanu, Hartă: ANCPI, Limbă: Limba română</description><Point><coordinates>24.616605,45.510285,0</coordinates></Point></Placemark>
<Placemark><name>Culmea Ciocanului</name><description>Nume: Culmea Ciocanului, Tip: ciocan, Nivel: 3, Județ: Arges, Formă: Înălțime, ID: 15037, ID Părinte: 15038 <br /><b>Variante</b><br />Nume: Culmea Ciocanului, Hartă: ANCPI, Limbă: Limba română</description><Point><coordinates>24.615476,45.475319,0</coordinates></Point></Placemark>
<Placemark><LineString id="15037_15038"><tessellate>1</tessellate><coordinates>24.615476,45.475319,0.
24.616605,45.510285,0</coordinates></LineString><Style><LineStyle><width>3</width></LineStyle></Style></Placemark>
<Placemark><name>Dealul Ciocan</name><description>Nume: Dealul Ciocan, Tip: ciocan, Nivel: 3, Județ: Arges, Formă: Deal, ID: 15693 <br /><b>Variante</b><br />Nume: Dealul Ciocan, Hartă: PDT, Limbă: Limba română</description><Point><coordinates>24.778767,44.647310,0</coordinates></Point></Placemark>
<Placemark><name>Dealul Ciocanu</name><description>Nume: Dealul Ciocanu, Tip: ciocan, Nivel: 3, Județ: Arges, Formă: Deal, ID: 14791 <br /><b>Variante</b><br />Nume: Dealul Ciocanu, Hartă: PDT, Limbă: Limba română</description><Point><coordinates>24.701390,44.699893,0</coordinates></Point></Placemark>
<Placemark><name>Vârful Ciocanului</name><description>Nume: Vârful Ciocanului, Tip: ciocan, Nivel: 3, Județ: Arges, Formă: Înălțime, ID: 14719 <br /><b>Variante</b><br />Nume: Vârful Ciocanului, Hartă: ANCPI, Limbă: Limba română</description><Point><coordinates>24.968602,45.262266,0</coordinates></Point></Placemark>
<Placemark><name>Dealul lui Ciocan</name><description>Nume: Dealul lui Ciocan, Tip: ciocan, Nivel: 3, Județ: Bistrita Nasaud, Formă: Deal, ID: 15154 <br /><b>Variante</b><br />Nume: Dealul lui Ciocan, Hartă: Munții noștri, Limbă: Limba română</description><Point><coordinates>24.681519,47.352196,0</coordinates></Point></Placemark>
<Placemark><name>Valea lui Ciocan</name><description>Nume: Valea lui Ciocan, Tip: ciocan, Nivel: 3, Județ: Bistrita Nasaud, Formă: Vale, ID: 15153, ID Părinte: 15154 <br /><b>Variante</b><br />Nume: Valea lui Ciocan, Hartă: Munții noștri, Limbă: Limba română</description><Point><coordinates>24.690333,47.352428,0</coordinates></Point></Placemark>
<Placemark><LineString id="15153_15154"><tessellate>1</tessellate><coordinates>24.690333,47.352428,0.
24.681519,47.352196,0</coordinates></LineString><Style><LineStyle><width>3</width></LineStyle></Style></Placemark>
<Placemark><name>Dealul Balta lui Ciocan</name><description>Nume: Dealul Balta lui Ciocan, Tip: ciocan, Nivel: 3, Județ: Botosani, Formă: Deal, ID: 14746 <br /><b>Variante</b><br />Nume: Dealul Balta lui Ciocan, Hartă: ANCPI, Limbă: Limba română</description><Point><coordinates>26.774039,47.776689,0</coordinates></Point></Placemark>
<Placemark><name>Dealul Ciocanului</name><description>Nume: Dealul Ciocanului, Tip: ciocan, Nivel: 3, Județ: Botosani, Formă: Deal, ID: 14723 <br /><b>Variante</b><br />Nume: Dealul Ciocanului, Hartă: ANCPI, Limbă: Limba română</description><Point><coordinates>26.823519,47.590888,0</coordinates></Point></Placemark>
<Placemark><name>La Ciocan</name><description>Nume: La Ciocan, Tip: ciocan, Nivel: 3, Județ: Botosani, Formă: Altele, ID: 14770 <br /><b>Variante</b><br />Nume: La Ciocan, Hartă: ANCPI, Limbă: Limba română</description><Point><coordinates>26.601032,47.761411,0</coordinates></Point></Placemark>
<Placemark><name>Grindul lui Ciocan</name><description>Nume: Grindul lui Ciocan, Tip: ciocan, Nivel: 3, Județ: Calarasi, Formă: Apă-deal-câmpie, ID: 14755 <br /><b>Variante</b><br />Nume: Grindul lui Ciocan, Hartă: PDT, Limbă: Limba română</description><Point><coordinates>27.509076,44.313859,0</coordinates></Point></Placemark>
<Placemark><name>Piciorul Ciocanului</name><description>Nume: Piciorul Ciocanului, Tip: ciocan, Nivel: 3, Județ: Caras Severin, Formă: Înălțime, ID: 15572 <br /><b>Variante</b><br />Nume: Piciorul Ciocanului, Hartă: ANCPI, Limbă: Limba română</description><Point><coordinates>22.471401,45.574813,0</coordinates></Point></Placemark>
<Placemark><name>Dealul Ciocanului</name><description>Nume: Dealul Ciocanului, Tip: ciocan, Nivel: 3, Județ: Cluj, Formă: Deal, ID: 15873 <br /><b>Variante</b><br />Nume: Dealul Ciocanului, Hartă: ANCPI, Limbă: Limba română</description><Point><coordinates>23.877360,46.687426,0</coordinates></Point></Placemark>
<Placemark><name>Poiana Ciocanul</name><description>Nume: Poiana Ciocanul, Tip: ciocan, Nivel: 3, Județ: Dolj, Formă: Poiană, ID: 15294 <br /><b>Variante</b><br />Nume: Poiana Ciocanul, Hartă: PDT, Limbă: Limba română</description><Point><coordinates>23.897502,44.004961,0</coordinates></Point></Placemark>
<Placemark><name>Valea lui Ciocan</name><description>Nume: Valea lui Ciocan, Tip: ciocan, Nivel: 3, Județ: Hunedoara, Formă: Vale, ID: 15548 <br /><b>Variante</b><br />Nume: Valea lui Ciocan, Hartă: ANCPI, Limbă: Limba română</description><Point><coordinates>22.469766,45.919639,0</coordinates></Point></Placemark>
<Placemark><name>Pădurea Ciocanu</name><description>Nume: Pădurea Ciocanu, Tip: ciocan, Nivel: 3, Județ: Ialomita, Formă: Pădure, ID: 14752 <br /><b>Variante</b><br />Nume: Pădurea Ciocanu, Hartă: ANCPI, Limbă: Limba română</description><Point><coordinates>26.543419,44.709172,0</coordinates></Point></Placemark>
<Placemark><name>Dealul Pinii lui Ciocan</name><description>Nume: Dealul Pinii lui Ciocan, Tip: ciocan, Nivel: 3, Județ: Mehedinti, Formă: Deal, ID: 14786 <br /><b>Variante</b><br />Nume: Dealul Pinii lui Ciocan, Hartă: ANCPI, Limbă: Limba română</description><Point><coordinates>22.558733,44.915425,0</coordinates></Point></Placemark>
<Placemark><name>Valea Ciocanului</name><description>Nume: Valea Ciocanului, Tip: ciocan, Nivel: 3, Județ: Mehedinti, Formă: Vale, ID: 15247 <br /><b>Variante</b><br />Nume: Valea Ciocanului, Hartă: PDT, Limbă: Limba română</description><Point><coordinates>22.794397,44.571855,0</coordinates></Point></Placemark>
<Placemark><name>Ciocanul</name><description>Nume: Ciocanul, Tip: ciocan, Nivel: 3, Județ: Neamt, Formă: Înălțime, ID: 15386 <br /><b>Variante</b><br />Nume: Ciocanul, Hartă: Munții noștri, Limbă: Limba română</description><Point><coordinates>25.997442,47.036328,0</coordinates></Point></Placemark>
<Placemark><name>Piciorul Ciocanului</name><description>Nume: Piciorul Ciocanului, Tip: ciocan, Nivel: 3, Județ: Neamt, Formă: Înălțime, ID: 15485, ID Părinte: 15386 <br /><b>Variante</b><br />Nume: Piciorul Ciocanului, Hartă: PDT, Limbă: Limba română</description><Point><coordinates>26.026836,47.029705,0</coordinates></Point></Placemark>
<Placemark><LineString id="15485_15386"><tessellate>1</tessellate><coordinates>26.026836,47.029705,0.
25.997442,47.036328,0</coordinates></LineString><Style><LineStyle><width>3</width></LineStyle></Style></Placemark>
<Placemark><name>Poiana Casei Ciocanului</name><description>Nume: Poiana Casei Ciocanului, Tip: ciocan, Nivel: 3, Județ: Neamt, Formă: Poiană, ID: 15833, ID Părinte: 15386 <br /><b>Variante</b><br />Nume: Poiana Casei Ciocanului, Hartă: PDT, Limbă: Limba română</description><Point><coordinates>25.915425,47.020279,0</coordinates></Point></Placemark>
<Placemark><LineString id="15833_15386"><tessellate>1</tessellate><coordinates>25.915425,47.020279,0.
25.997442,47.036328,0</coordinates></LineString><Style><LineStyle><width>3</width></LineStyle></Style></Placemark>
<Placemark><name>Poiana Ciocanului</name><description>Nume: Poiana Ciocanului, Tip: ciocan, Nivel: 3, Județ: Neamt, Formă: Poiană, ID: 15484, ID Părinte: 15386 <br /><b>Variante</b><br />Nume: Poiana Ciocanului, Hartă: PDT, Limbă: Limba română</description><Point><coordinates>26.005420,47.020888,0</coordinates></Point></Placemark>
<Placemark><LineString id="15484_15386"><tessellate>1</tessellate><coordinates>26.005420,47.020888,0.
25.997442,47.036328,0</coordinates></LineString><Style><LineStyle><width>3</width></LineStyle></Style></Placemark>
<Placemark><name>Piscul lui Ciocan</name><description>Nume: Piscul lui Ciocan, Tip: ciocan, Nivel: 3, Județ: Prahova, Formă: Înălțime, ID: 14717 <br /><b>Variante</b><br />Nume: Piscul lui Ciocan, Hartă: ANCPI, Limbă: Limba română</description><Point><coordinates>26.053776,45.283553,0</coordinates></Point></Placemark>
<Placemark><name>Coasta lui Ciocan</name><description>Nume: Coasta lui Ciocan, Tip: ciocan, Nivel: 3, Județ: Sibiu, Formă: Înălțime, ID: 14742 <br /><b>Variante</b><br />Nume: Pădurea Cioran, Hartă: PDT, Limbă: Limba română</description><Point><coordinates>23.848563,45.948692,0</coordinates></Point></Placemark>
<Placemark><name>Dealul Ciocanului</name><description>Nume: Dealul Ciocanului, Tip: ciocan, Nivel: 3, Județ: Suceava, Formă: Deal, ID: 15839 <br /><b>Variante</b><br />Nume: Dealul Ciocanului, Hartă: ANCPI, Limbă: Limba română<br />Nume: Ciocan, Hartă: PDT, Limbă: Limba română</description><Point><coordinates>25.526158,47.679477,0</coordinates></Point></Placemark>
<Placemark><name>Dealul lui Ciocan</name><description>Nume: Dealul lui Ciocan, Tip: ciocan, Nivel: 3, Județ: Suceava, Formă: Deal, ID: 15513 <br /><b>Variante</b><br />Nume: Dealul lui Ciocan, Hartă: PDT, Limbă: Limba română</description><Point><coordinates>26.138981,47.382784,0</coordinates></Point></Placemark>
<Placemark><name>Poiana lui Ciocan</name><description>Nume: Poiana lui Ciocan, Tip: ciocan, Nivel: 3, Județ: Suceava, Formă: Poiană, ID: 15514, ID Părinte: 15513 <br /><b>Variante</b><br />Nume: Poiana lui Ciocan, Hartă: PDT, Limbă: Limba română</description><Point><coordinates>26.126264,47.385476,0</coordinates></Point></Placemark>
<Placemark><LineString id="15514_15513"><tessellate>1</tessellate><coordinates>26.126264,47.385476,0.
26.138981,47.382784,0</coordinates></LineString><Style><LineStyle><width>3</width></LineStyle></Style></Placemark>
<Placemark><name>Ciokan</name><description>Nume: Ciokan, Tip: ciocan, Nivel: 3, Județ: Teleorman, Formă: Localitate, ID: 14743 <br /><b>Variante</b><br />Nume: Ciokan, Hartă: Austriacă, Limbă: Limba română</description><Point><coordinates>24.918170,44.133000,0</coordinates></Point></Placemark>
<Placemark><name>Valea Ciocanului</name><description>Nume: Valea Ciocanului, Tip: ciocan, Nivel: 3, Județ: Valcea, Formă: Vale, ID: 14858, ID Părinte: 15367 <br /><b>Variante</b><br />Nume: Valea Ciocanului, Hartă: PDT, Limbă: Limba română</description><Point><coordinates>24.024474,44.747621,0</coordinates></Point></Placemark>
<Placemark><LineString id="14858_15367"><tessellate>1</tessellate><coordinates>24.024474,44.747621,0.
24.010884,44.734900,0</coordinates></LineString><Style><LineStyle><width>3</width></LineStyle></Style></Placemark></Document></kml>