<?xml version="1.0" encoding="UTF-8"?><kml xmlns="http://www.opengis.net/kml/2.2"><Document><Placemark><name>Țigănime</name><description>Nume: Țigănime, Tip: țigănime, Nivel: 4, Județ: Bacau, Formă: Altele, ID: 9517 <br /><b>Variante</b><br />Nume: Țigănime, Hartă: PDT, Limbă: Limba română</description><Point><coordinates>26.947336,46.469455,0</coordinates></Point></Placemark>
<Placemark><name>Coasta Țigănimei</name><description>Nume: Coasta Țigănimei, Tip: țigănime, Nivel: 4, Județ: Botosani, Formă: Înălțime, ID: 4876 <br /><b>Variante</b><br />Nume: Coasta Țigănimei, Hartă: PDT, Limbă: Limba română</description><Point><coordinates>26.901334,48.124226,0</coordinates></Point></Placemark>
<Placemark><name>Cotu Țigănimi</name><description>Nume: Cotu Țigănimi, Tip: țigănime, Nivel: 4, Județ: Botosani, Formă: Localitate, ID: 4886 <br /><b>Variante</b><br />Nume: Cotu Țigănimi, Hartă: PDT, Limbă: Limba română</description><Point><coordinates>26.558908,48.153762,0</coordinates></Point></Placemark>
<Placemark><name>Mahalaua Țigănimea</name><description>Nume: Mahalaua Țigănimea, Tip: țigănime, Nivel: 4, Județ: Botosani, Formă: Localitate, ID: 4883 <br /><b>Variante</b><br />Nume: Mahalaua Țigănimea, Hartă: PDT, Limbă: Limba română</description><Point><coordinates>26.626083,48.227416,0</coordinates></Point></Placemark>
<Placemark><name>Vâlceaua Țigănimei</name><description>Nume: Vâlceaua Țigănimei, Tip: țigănime, Nivel: 4, Județ: Gorj, Formă: Vale, ID: 9790 <br /><b>Variante</b><br />Nume: Vâlceaua Țigănimei, Hartă: PDT, Limbă: Limba română</description><Point><coordinates>23.134723,45.032215,0</coordinates></Point></Placemark>
<Placemark><name>Dealul Țigănimei</name><description>Nume: Dealul Țigănimei, Tip: țigănime, Nivel: 4, Județ: Neamt, Formă: Deal, ID: 7811 <br /><b>Variante</b><br />Nume: Dealul Țigănimei, Hartă: PDT, Limbă: Limba română</description><Point><coordinates>26.873819,46.894998,0</coordinates></Point></Placemark>
<Placemark><name>Pârâul Țigănimii</name><description>Nume: Pârâul Țigănimii, Tip: țigănime, Nivel: 4, Județ: Suceava, Formă: Vale, ID: 7258 <br /><b>Variante</b><br />Nume: Pârâul Țigănimii, Hartă: PDT, Limbă: Limba română</description><Point><coordinates>26.124872,47.897733,0</coordinates></Point></Placemark></Document></kml>