<?xml version="1.0" encoding="UTF-8"?><kml xmlns="http://www.opengis.net/kml/2.2"><Document><Placemark><name>Pârâul Vlăsia Mare</name><description>Nume: Pârâul Vlăsia Mare, Tip: vlăsia, Nivel: 2, Județ: Gorj, Formă: Vale, ID: 15708 <br /><b>Variante</b><br />Nume: Pârâul Vlăsia Mare, Hartă: Munții noștri, Limbă: Limba română</description><Point><coordinates>22.738461,45.237384,0</coordinates></Point></Placemark>
<Placemark><name>Pârâul Vlăsia Mică</name><description>Nume: Pârâul Vlăsia Mică, Tip: vlăsia, Nivel: 2, Județ: Gorj, Formă: Vale, ID: 15709, ID Părinte: 15708 <br /><b>Variante</b><br />Nume: Pârâul Vlăsia Mică, Hartă: Munții noștri, Limbă: Limba română</description><Point><coordinates>22.730986,45.234699,0</coordinates></Point></Placemark>
<Placemark><LineString id="15709_15708"><tessellate>1</tessellate><coordinates>22.730986,45.234699,0.
22.738461,45.237384,0</coordinates></LineString><Style><LineStyle><width>3</width></LineStyle></Style></Placemark>
<Placemark><name>Pădurea Vlăsia</name><description>Nume: Pădurea Vlăsia, Tip: vlăsia, Nivel: 2, Județ: Ilfov, Formă: Pădure, ID: 8781 <br /><b>Variante</b><br />Nume: Pădurea Vlăsia, Hartă: Geomil 25000, Limbă: Limba română</description><Point><coordinates>26.192268,44.680739,0</coordinates></Point></Placemark>
<Placemark><name>Poiana Vlăsia</name><description>Nume: Poiana Vlăsia, Tip: vlăsia, Nivel: 2, Județ: Ilfov, Formă: Poiană, ID: 8783, ID Părinte: 8781 <br /><b>Variante</b><br />Nume: Poiana Vlăsia, Hartă: PDT, Limbă: Limba română</description><Point><coordinates>26.221349,44.683320,0</coordinates></Point></Placemark>
<Placemark><LineString id="8783_8781"><tessellate>1</tessellate><coordinates>26.221349,44.683320,0.
26.192268,44.680739,0</coordinates></LineString><Style><LineStyle><width>3</width></LineStyle></Style></Placemark>
<Placemark><name>Vlăsia</name><description>Nume: Vlăsia, Tip: vlăsia, Nivel: 2, Județ: Ilfov, Formă: Localitate, ID: 8782, ID Părinte: 8781 <br /><b>Variante</b><br />Nume: Vlăsia, Hartă: PDT, Limbă: Limba română</description><Point><coordinates>26.207803,44.670970,0</coordinates></Point></Placemark>
<Placemark><LineString id="8782_8781"><tessellate>1</tessellate><coordinates>26.207803,44.670970,0.
26.192268,44.680739,0</coordinates></LineString><Style><LineStyle><width>3</width></LineStyle></Style></Placemark></Document></kml>