<?xml version="1.0" encoding="UTF-8"?><kml xmlns="http://www.opengis.net/kml/2.2"><Document><Placemark><name>Valea Greaca</name><description>Nume: Valea Greaca, Tip: greaca, Nivel: 3, Județ: Arges, Formă: Vale, ID: 1398 <br /><b>Variante</b><br />Nume: Valea Greaca, Hartă: Geomil 25000, Limbă: Limba română</description><Point><coordinates>25.186133,44.680797</coordinates></Point></Placemark>
<Placemark><name>La Greaca</name><description>Nume: La Greaca, Tip: greaca, Nivel: 3, Județ: Botosani, Formă: Altele, ID: 2432 <br /><b>Variante</b><br />Nume: La Greaca, Hartă: Geomil 25000, Limbă: Limba română</description><Point><coordinates>27.331449,47.619060</coordinates></Point></Placemark>
<Placemark><name>Dealul Greaca</name><description>Nume: Dealul Greaca, Tip: greaca, Nivel: 3, Județ: Galati, Formă: Deal, ID: 3531 <br /><b>Variante</b><br />Nume: Dealul Greaca, Hartă: PDT, Limbă: Limba română<br />Nume: Dealul Greaca, Hartă: Geomil 25000, Limbă: Limba română</description><Point><coordinates>27.865246,45.474108</coordinates></Point></Placemark>
<Placemark><name>Dealul Grecei</name><description>Nume: Dealul Grecei, Tip: greaca, Nivel: 3, Județ: Iasi, Formă: Deal, ID: 4856 <br /><b>Variante</b><br />Nume: Dealul Grecei, Hartă: PDT, Limbă: Limba română<br />Nume: Dealul Greaca, Hartă: Geomil 25000, Limbă: Limba română</description><Point><coordinates>27.380039,47.312751</coordinates></Point></Placemark>
<Placemark><name>Valea Grecii</name><description>Nume: Valea Grecii, Tip: greaca, Nivel: 3, Județ: Arges, Formă: Vale, ID: 5048 <br /><b>Variante</b><br />Nume: Valea Grecii, Hartă: Geomil 25000, Limbă: Limba română</description><Point><coordinates>25.196217,45.220250</coordinates></Point></Placemark>
<Placemark><name>Pădurea Greaca</name><description>Nume: Pădurea Greaca, Tip: greaca, Nivel: 3, Județ: Gorj, Formă: Pădure, ID: 7435 <br /><b>Variante</b><br />Nume: Pădurea Greaca, Hartă: PDT, Limbă: Limba română</description><Point><coordinates>23.351629,44.691618</coordinates></Point></Placemark>
<Placemark><name>Valea Grecii</name><description>Nume: Valea Grecii, Tip: greaca, Nivel: 3, Județ: Dambovita, Formă: Vale, ID: 7461 <br /><b>Variante</b><br />Nume: Valea Grecii, Hartă: Geomil 25000, Limbă: Limba română</description><Point><coordinates>25.525726,45.003842</coordinates></Point></Placemark>
<Placemark><name>Lacul Greaca</name><description>Nume: Lacul Greaca, Tip: greaca, Nivel: 3, Județ: Dolj, Formă: Lac, ID: 7707 <br /><b>Variante</b><br />Nume: Lacul Greaca, Hartă: PDT, Limbă: Limba română</description><Point><coordinates>23.720141,44.133424</coordinates></Point></Placemark>
<Placemark><name>Lacul Greaca</name><description>Nume: Lacul Greaca, Tip: greaca, Nivel: 3, Județ: Dolj, Formă: Lac, ID: 7727 <br /><b>Variante</b><br />Nume: Lacul Greaca, Hartă: PDT, Limbă: Limba română</description><Point><coordinates>23.685282,44.225194</coordinates></Point></Placemark>
<Placemark><name>Dealul Greaca</name><description>Nume: Dealul Greaca, Tip: greaca, Nivel: 3, Județ: Galati, Formă: Deal, ID: 8710 <br /><b>Variante</b><br />Nume: Dealul Greaca, Hartă: PDT, Limbă: Limba română</description><Point><coordinates>27.890063,45.521157</coordinates></Point></Placemark>
<Placemark><name>Valea Greacă</name><description>Nume: Valea Greacă, Tip: greaca, Nivel: 3, Județ: Arges, Formă: Vale, ID: 9693 <br /><b>Variante</b><br />Nume: Valea Greacă, Hartă: Geomil 25000, Limbă: Limba română</description><Point><coordinates>24.795532,45.047412</coordinates></Point></Placemark></Document></kml>